rosbagTimestamp,x,y,theta
1576079770886805361,-0.313437819481,0.0217729527503,-0.0136384746402
1576079770906683705,-0.313440531492,0.0217795446515,-0.0128880366712
1576079770926412039,-0.313380658627,0.0218497030437,-0.011868924219
1576079770946507531,-0.313348680735,0.0217857901007,-0.0126952330256
1576079770967140906,-0.313437283039,0.021763836965,-0.0140033443296
1576079770986534502,-0.313456624746,0.021761463955,-0.0141882674175
1576079771006541977,-0.313379049301,0.0217449963093,-0.0140717142941
1576079771026690070,-0.313374131918,0.0218481086195,-0.011791985545
1576079771046540301,-0.313437730074,0.0217715986073,-0.0135119145458
1576079771066457257,-0.313371837139,0.0218468271196,-0.0117023153777
1576079771086508874,-0.31344589591,0.02180079557,-0.013491629554
1576079771107019006,-0.313433408737,0.0217955373228,-0.0125108931465
1576079771126586631,-0.313444823027,0.0217630714178,-0.0143779024275
1576079771146552699,-0.313365072012,0.0218098945916,-0.0125227137904
1576079771166493944,-0.313435912132,0.0218329019845,-0.0126558416864
1576079771186458118,-0.313441604376,0.0217693373561,-0.0139132248425
1576079771206596510,-0.313442796469,0.0217748675495,-0.0135984641684
1576079771226797233,-0.313434004784,0.0218173600733,-0.0129398753688
1576079771246392488,-0.313445746899,0.0218046270311,-0.0132182538764
1576079771267917076,-0.313428193331,0.0217915661633,-0.0125889618771
1576079771287124539,-0.313431471586,0.0218206625432,-0.0126444195445
1576079771306504106,-0.31343755126,0.0218208115548,-0.0127886220125
1576079771327125771,-0.313433408737,0.0218271948397,-0.0128898834868
1576079771346463262,-0.313428342342,0.0218280162662,-0.0126641689443
1576079771366643442,-0.313366562128,0.0218298062682,-0.0121054962346
1576079771387241059,-0.313428044319,0.0218209419399,-0.0126039116884
1576079771406455954,-0.313425689936,0.0217877067626,-0.0133827374004
1576079771426519713,-0.31347194314,0.021807430312,-0.0143543098589
1576079771447646602,-0.313439011574,0.0218121260405,-0.0130533098793
1576079771466921275,-0.313370078802,0.0218799524009,-0.010942575121
1576079771486919421,-0.313441216946,0.021771159023,-0.0142709617383
1576079771506714606,-0.313443005085,0.0217468030751,-0.014633152572
1576079771526491537,-0.313428610563,0.0217696726322,-0.0139758573846
1576079771546630356,-0.313448578119,0.0217953454703,-0.0126676987158
1576079771566988146,-0.313379108906,0.0217998921871,-0.0136608479496
1576079771586688394,-0.313364356756,0.0217675901949,-0.0130720948976
1576079771606435882,-0.313376933336,0.0218801014125,-0.0110525646805
1576079771626595329,-0.313439458609,0.0217413101345,-0.0133917521145
1576079771646602558,-0.313447594643,0.0217355452478,-0.0147759670964
1576079771666655052,-0.313362956047,0.0217967312783,-0.0124920560685
1576079771686632323,-0.313448250294,0.0217852648348,-0.0136584786915
1576079771706808250,-0.313440293074,0.0218189265579,-0.0128369426052
1576079771726638603,-0.313360959291,0.0218072738498,-0.0126827992496
1576079771746415611,-0.313440144062,0.0218230243772,-0.0126868697793
1576079771766646744,-0.313365787268,0.0217623058707,-0.0134414887943
1576079771786945227,-0.313362747431,0.0217707324773,-0.0135597860275
1576079771806909769,-0.313451737165,0.0217337552458,-0.014663732313
1576079771826559305,-0.313365757465,0.0217428077012,-0.014290208277
1576079771846458028,-0.313450336456,0.0217546764761,-0.014629339183
1576079771866534514,-0.313439279795,0.0217716619372,-0.0138191734615
1576079771889177988,-0.313464641571,0.0217957496643,-0.0135766809593
1576079771906486169,-0.313432991505,0.0217608977109,-0.0132070013418
1576079771926508914,-0.313442379236,0.0217933338135,-0.0129012216034
1576079771946436748,-0.313377857208,0.0218738242984,-0.0110777120404
1576079771966601428,-0.31338724494,0.0217907726765,-0.013746997672
1576079771987411617,-0.313405454159,0.0218819212168,-0.0111518980877
1576079772006420102,-0.313473403454,0.0217689033598,-0.014415333417
1576079772028191686,-0.313432484865,0.0217124763876,-0.0135642868675
1576079772046711893,-0.313456147909,0.0217374321073,-0.0147889836809
1576079772066499452,-0.31344884634,0.0218169726431,-0.0129073167154
1576079772086477636,-0.313327252865,0.0218912549317,-0.0109638264735
1576079772106545350,-0.313458502293,0.0218005273491,-0.0139622120127
1576079772126394568,-0.313427835703,0.0217903181911,-0.0136723559716
1576079772146511743,-0.313398778439,0.0217701885849,-0.0142535352914
1576079772166476245,-0.31336030364,0.02176293917,-0.0130318420777
1576079772186750774,-0.313446998596,0.0217874795198,-0.013673804003
1576079772206950999,-0.313381373882,0.0217425543815,-0.0142082546772
1576079772226575162,-0.31338045001,0.0218333806843,-0.0129317216138
1576079772246446340,-0.313431829214,0.0217888895422,-0.0134194349248
1576079772266966891,-0.313452124596,0.02178215608,-0.0135476743998
1576079772286641764,-0.313457012177,0.0218443404883,-0.0129299029193
1576079772306459431,-0.313449621201,0.0217609852552,-0.0141006202461
1576079772326705616,-0.313295036554,0.0218142140657,-0.0114704416451
1576079772346473357,-0.313444823027,0.0217468682677,-0.0130494630559
1576079772366970111,-0.313448160887,0.0218008309603,-0.0132405012495
1576079772386464007,-0.313359230757,0.0218058545142,-0.012305307502
1576079772406591977,-0.313371956348,0.0218382328749,-0.0117748194362
1576079772426715677,-0.313297778368,0.0218228027225,-0.0115602951639
1576079772446466725,-0.31335863471,0.0217996593565,-0.0124002088013
1576079772467396110,-0.313365936279,0.0218825563788,-0.0109242808312
1576079772486419474,-0.313439637423,0.0218171663582,-0.0126539853683
1576079772506358961,-0.31344011426,0.0218074489385,-0.0129919926144
1576079772526676885,-0.313447326422,0.0217652525753,-0.0140740330922
1576079772547136737,-0.313441812992,0.021811356768,-0.0128039457836
1576079772566493738,-0.313428789377,0.0217446424067,-0.0131016970998
1576079772586499237,-0.313366383314,0.0217874888331,-0.012666221388
1576079772606656187,-0.313432127237,0.0218106042594,-0.0126407085586
1576079772626480460,-0.313443303108,0.0217499136925,-0.0143534288763
1576079772647852445,-0.313434839249,0.0217800009996,-0.0137946053526
1576079772666494861,-0.313361257315,0.0217687338591,-0.0134889078413
1576079772686879749,-0.31343203783,0.0217780452222,-0.0137161779352
1576079772707797195,-0.313389539719,0.021760256961,-0.0143775287544
1576079772726443108,-0.313443034887,0.0217906329781,-0.0146730368304
1576079772746398491,-0.313434571028,0.0217778999358,-0.0137361441469
1576079772766600042,-0.313390463591,0.0218639485538,-0.0124288739994
1576079772786589697,-0.313466012478,0.0218404084444,-0.0132777914324
1576079772806496234,-0.313379377127,0.0217792056501,-0.0136220737871
1576079772826507227,-0.313292533159,0.0218068342656,-0.0114497517246
1576079772846581364,-0.313410103321,0.0218585487455,-0.011583356526
1576079772866455955,-0.313449591398,0.0217720959336,-0.0138776455942
1576079772886600048,-0.313453108072,0.021801341325,-0.0132883138057
1576079772906404870,-0.313443362713,0.0218306258321,-0.0126030960345
1576079773034974615,-0.31345641613,0.0217378251255,-0.0142183017095
1576079773035243204,-0.313373148441,0.0218791589141,-0.0110434749391
1576079773035460364,-0.313362181187,0.0217620190233,-0.0137581198825
1576079773035739738,-0.31338083744,0.0217471309006,-0.0139565838959
1576079773035942553,-0.313442707062,0.0217936504632,-0.013203710168
1576079773046762713,-0.313463151455,0.0218141060323,-0.014024304891
1576079773068425350,-0.313462287188,0.0217562224716,-0.0146421853523
1576079773172171394,-0.313449949026,0.021800532937,-0.0133018778296
1576079773172321535,-0.313395023346,0.0217539034784,-0.015062754417
1576079773172437970,-0.313456118107,0.0217915233225,-0.0133962369031
1576079773172567406,-0.313443034887,0.0217856634408,-0.0130263085967
1576079773172676226,-0.313375800848,0.021718967706,-0.0145046541176
1576079773186404528,-0.313442677259,0.0217501167208,-0.0138176920361
1576079773206534763,-0.313448190689,0.0217496547848,-0.0142166696833
1576079773311820805,-0.313405752182,0.0218024030328,-0.0119845889611
1576079773311825587,-0.31344628334,0.0218004453927,-0.0132103522627
1576079773311989923,-0.31345140934,0.0217458084226,-0.0141201114719
1576079773312138028,-0.313373476267,0.0217373073101,-0.0141153735496
1576079773312292809,-0.313381552696,0.0218599494547,-0.0107876018887
1576079773326742480,-0.313360601664,0.0217380747199,-0.0135558924883
1576079773346498853,-0.313373565674,0.0218450725079,-0.0117822304967
1576079773387486389,-0.313470065594,0.0217744857073,-0.0153498621629
1576079773387702711,-0.31345975399,0.0218152366579,-0.0138990577248
1576079773407060792,-0.313376158476,0.0218856520951,-0.0109359172115
1576079773426650216,-0.313370496035,0.0217710509896,-0.0127707501851
1576079773483432617,-0.313382893801,0.0218334048986,-0.0126890352456
1576079773483587299,-0.313378572464,0.0218571871519,-0.0108001504536
1576079773486440717,-0.313454300165,0.0218473784626,-0.0132100359185
1576079773506495734,-0.31335413456,0.0217586290091,-0.0136557518851
1576079773528520334,-0.313466340303,0.021798318252,-0.0145768424377
1576079773715222262,-0.31343922019,0.0217711683363,-0.0134539816063
1576079773715412717,-0.313432782888,0.0218243673444,-0.0126351331698
1576079773715636376,-0.313449680805,0.0217576865107,-0.0143433060342
1576079773715749898,-0.313446193933,0.0217314846814,-0.0149492642426
1576079773715860132,-0.313429921865,0.0218240246177,-0.012632330287
1576079773716009773,-0.313434630632,0.0217902176082,-0.0133587347794
1576079773716124552,-0.313355505466,0.0217756442726,-0.0133708123295
1576079773716236026,-0.313436001539,0.0217843577266,-0.0135194014987
1576079773716354346,-0.313385754824,0.0218373257667,-0.0118780714543
1576079773726578501,-0.313372433186,0.0218505188823,-0.0118876599971
1576079773746743142,-0.313449531794,0.0218016728759,-0.0134558116292
1576079773814085451,-0.313434481621,0.0217606890947,-0.0133390428568
1576079773814215481,-0.313434332609,0.0217708479613,-0.0130751472557
1576079773814708301,-0.313436746597,0.0217878427356,-0.0134870783584
1576079773826557248,-0.313317149878,0.021885490045,-0.0113857571245
1576079773846620481,-0.313360273838,0.021757716313,-0.013491918253
1576079773899257795,-0.313416004181,0.0217674300075,-0.0131744626403
1576079773899383038,-0.313442826271,0.0217627603561,-0.0143670455948
1576079773906488145,-0.313431113958,0.021769464016,-0.0129957688824
1576079773926588396,-0.313438862562,0.0217644162476,-0.0134441171396
1576079774127542680,-0.313378304243,0.021881788969,-0.0109256897583
1576079774127683030,-0.313428759575,0.0218160692602,-0.0124916094414
1576079774127807786,-0.313441038132,0.0217973198742,-0.0132589862135
1576079774127931166,-0.313431173563,0.0217882581055,-0.0133291029093
1576079774128063708,-0.313445538282,0.0218043681234,-0.0125261581173
1576079774128205203,-0.313436597586,0.021806159988,-0.0130310889541
1576079774128385667,-0.313453555107,0.0217871312052,-0.01354282738
1576079774128446789,-0.313437134027,0.021760456264,-0.0140863677688
1576079774128585859,-0.313443571329,0.0217364691198,-0.0139754104488
1576079774129389485,-0.313446968794,0.0217925366014,-0.0135638847702
1576079774146477454,-0.313366770744,0.0217847656459,-0.0121426880842
1576079774166449722,-0.313443750143,0.0218006409705,-0.0133132223366
1576079774361093954,-0.313376009464,0.0218849424273,-0.0110024309753
1576079774361101099,-0.313437491655,0.0217733643949,-0.0130037468961
1576079774361248918,-0.313446164131,0.0217398293316,-0.0147379036867
1576079774361358658,-0.313451617956,0.0217610802501,-0.01425616704
1576079774361465564,-0.313439786434,0.0217648018152,-0.0139732954428
1576079774361573384,-0.313368618488,0.0218525771052,-0.0106365889738
1576079774361695294,-0.313440412283,0.0218323282897,-0.0128615642713
1576079774361838301,-0.313447415829,0.0217875130475,-0.0133394758379
1576079774361986647,-0.313429921865,0.0217734575272,-0.0133475907508
1576079774366403857,-0.313393056393,0.0218024328351,-0.0134495816491
1576079774386309571,-0.313429176807,0.0218262579292,-0.0125377251429
1576079774587228564,-0.313455849886,0.0217798184603,-0.0131788628902
1576079774587399374,-0.313443869352,0.0217600855976,-0.0141844010803
1576079774587585365,-0.313454627991,0.0218007154763,-0.0135099121195
1576079774587760834,-0.313438922167,0.0218336936086,-0.0127824510156
1576079774587964008,-0.313450068235,0.0217923615128,-0.0136423315042
1576079774589925257,-0.313436150551,0.0218161251396,-0.0125750728836
1576079774589931948,-0.313431233168,0.0218355003744,-0.0126391773928
1576079774589995985,-0.313448935747,0.0218017101288,-0.0133894661118
1576079774590001477,-0.313430249691,0.021805934608,-0.0124848824356
1576079774590009888,-0.313456356525,0.0217933859676,-0.0134390650244
1576079774606464040,-0.313372343779,0.0217854976654,-0.0132433912859
1576079774626691640,-0.313364446163,0.0218522753567,-0.0107046229445
1576079774815546391,-0.31337121129,0.0218452457339,-0.0117875536568
1576079774815577136,-0.31344127655,0.0218000654131,-0.0123367863131
1576079774815712964,-0.313448548317,0.0217909757048,-0.0134685278785
1576079774816460238,-0.313444674015,0.0217814501375,-0.0131101550487
1576079774816467294,-0.313420981169,0.0217715874314,-0.0139037984488
1576079774816470013,-0.313441902399,0.0217864643782,-0.0136330909469
1576079774816483931,-0.313434302807,0.0217705629766,-0.0129459082139
1576079774817648743,-0.313438981771,0.0218005683273,-0.0132904263076
1576079774817656160,-0.313464045525,0.0217981673777,-0.0144974053475
1576079774826384760,-0.313470959663,0.0217789076269,-0.014689166852
1576079774846400072,-0.313433378935,0.0217296648771,-0.0140425554753
1576079775044404498,-0.313376784325,0.0217218883336,-0.0138419232346
1576079775044483691,-0.313441723585,0.0217658393085,-0.0141947235729
1576079775044607207,-0.313370764256,0.0217308141291,-0.0135328886952
1576079775044718924,-0.313454657793,0.021758787334,-0.0142481169743
1576079775044859870,-0.313365370035,0.0217277947813,-0.0136429550944
1576079775044988038,-0.313424915075,0.0218000598252,-0.0123022748952
1576079775045103987,-0.313440203667,0.0217892285436,-0.0137625973536
1576079775045244340,-0.313435554504,0.0218177028,-0.012795716361
1576079775045412268,-0.313434720039,0.0218030977994,-0.0131023918626
1576079775046359604,-0.313450157642,0.0217345450073,-0.0148519519137
1576079775066371710,-0.313362449408,0.0217873603106,-0.0134902938007
1576079775271951053,-0.313437998295,0.021822988987,-0.0127056716338
1576079775272035161,-0.313436955214,0.0217943172902,-0.0134275763041
1576079775272106969,-0.313437998295,0.0217708069831,-0.014162470174
1576079775272238562,-0.3134316504,0.021799499169,-0.0124549474128
1576079775272356937,-0.313425183296,0.0217877756804,-0.0136153704035
1576079775272492362,-0.313395828009,0.0219070017338,-0.0114948387471
1576079775272636676,-0.313444107771,0.0217562373728,-0.0143681268698
1576079775272778055,-0.313434332609,0.0217916443944,-0.013543264993
1576079775272917048,-0.313371688128,0.0217237323523,-0.0142378390083
1576079775273053767,-0.313445955515,0.0218095257878,-0.0132429284843
1576079775286335414,-0.313443601131,0.0217981766909,-0.0133220217197
1576079775306349708,-0.313449919224,0.0217766351998,-0.0133778547176
1576079775500070882,-0.313444823027,0.0217090062797,-0.0136664575247
1576079775500244215,-0.313446938992,0.0217544715852,-0.0141830077304
1576079775500425905,-0.313440173864,0.0218082163483,-0.012510263636
1576079775500497978,-0.313451200724,0.02179046534,-0.0137933998493
1576079775500647524,-0.313436925411,0.0218205284327,-0.0126546274472
1576079775500778574,-0.313442766666,0.0217778235674,-0.0135182462505
1576079775500904316,-0.313409864902,0.0217274371535,-0.0143766979308
1576079775501033208,-0.313384413719,0.021818516776,-0.0128320149189
1576079775501190227,-0.31330037117,0.021858073771,-0.010797620771
1576079775506412677,-0.313429832458,0.0218282565475,-0.0126213009218
1576079775526467562,-0.31337916851,0.0217457264662,-0.013041611481
1576079775727769667,-0.31338045001,0.0217701755464,-0.0141059869904
1576079775727918534,-0.313464045525,0.0217801947147,-0.0145869455927
1576079775728088433,-0.313435316086,0.0218116249889,-0.0126483790676
1576079775728261555,-0.313426017761,0.0217571668327,-0.013189185564
1576079775728365449,-0.313433140516,0.0217651091516,-0.0132910948383
1576079775728526793,-0.313381046057,0.0217657834291,-0.0129963389579
1576079775728625464,-0.31336247921,0.0217763986439,-0.0133397427768
1576079775728747755,-0.31336992979,0.0218610465527,-0.0107990010837
1576079775728869127,-0.313385128975,0.0217263083905,-0.0138474046267
1576079775731533278,-0.313436120749,0.021758724004,-0.0137664581719
1576079775747000392,-0.31345012784,0.0217879712582,-0.013509650255
1576079775766344718,-0.313433974981,0.0218293946236,-0.0127751836136
1576079775956037490,-0.313447445631,0.0217851866037,-0.0139345166853
1576079775956248623,-0.3134585917,0.0217580422759,-0.0140594534476
1576079775956252643,-0.3134329319,0.0217776801437,-0.0135487230338
1576079775956414774,-0.31336247921,0.0217734780163,-0.0131733563507
1576079775956538359,-0.313457131386,0.0217671077698,-0.0141803878306
1576079775956654167,-0.313448607922,0.021803194657,-0.0133089213358
1576079775956758716,-0.313436418772,0.0218310076743,-0.0128152826284
1576079775956866893,-0.313359051943,0.0217532105744,-0.0129934879671
1576079775956975966,-0.313440442085,0.0217608623207,-0.0139915294395
1576079775966372222,-0.313370376825,0.0217294488102,-0.0136676999463
1576079775990846162,-0.313427597284,0.0217789020389,-0.014052171227
1576079776183789027,-0.313443481922,0.0217466056347,-0.0139893409165
1576079776183810595,-0.313438802958,0.0217300970107,-0.0137943167405
1576079776183906572,-0.313452810049,0.0217544510961,-0.0142151521136
1576079776184221587,-0.313445240259,0.0217764936388,-0.0133466321927
1576079776184226911,-0.313443332911,0.0217879433185,-0.0136857877529
1576079776184395000,-0.31344461441,0.0217984039336,-0.0134883443165
1576079776184501568,-0.313450962305,0.0217595417053,-0.0141997914624
1576079776184621491,-0.313366353512,0.0217875223607,-0.0134477471047
1576079776184733210,-0.313460439444,0.0217783227563,-0.0133479439965
1576079776186318228,-0.313362896442,0.0217995643616,-0.0124788330208
1576079776206368262,-0.313448935747,0.0217719916254,-0.0133253887418
1576079776411630830,-0.313389152288,0.0218034479767,-0.0121234967734
1576079776411642039,-0.313396185637,0.0217592902482,-0.0132499809621
1576079776411796365,-0.313436537981,0.0217675045133,-0.0141216564758
1576079776411909225,-0.313431948423,0.0217379499227,-0.0136858527674
1576079776412038267,-0.31337428093,0.0217653717846,-0.0136943648419
1576079776412155107,-0.313452154398,0.0217755697668,-0.0137988683288
1576079776412276754,-0.3134290874,0.0218171924353,-0.0126909492165
1576079776412420445,-0.313436061144,0.0217699706554,-0.0140187658
1576079776412531315,-0.313302874565,0.0218634158373,-0.0108400550802
1576079776412646725,-0.313428908587,0.0217443965375,-0.0138200608935
1576079776426484043,-0.313370496035,0.02176496014,-0.0134472447688
1576079776446539869,-0.313431799412,0.0217974893749,-0.0135977035661
1576079776640282092,-0.313438206911,0.0218189228326,-0.0125802458007
1576079776640288549,-0.313435167074,0.0217594243586,-0.0133399444539
1576079776640440530,-0.313380092382,0.0218478087336,-0.0117308539775
1576079776640556649,-0.313433110714,0.0217595491558,-0.013415569064
1576079776640722330,-0.313431948423,0.0217681750655,-0.0133290238172
1576079776640877178,-0.31342869997,0.0217684730887,-0.0132233027441
1576079776641063818,-0.313367456198,0.0217950921506,-0.0127491477515
1576079776641166305,-0.31343087554,0.0218231789768,-0.0127161263329
1576079776641267129,-0.313359886408,0.0217548515648,-0.0139622550058
1576079776646418508,-0.313440173864,0.0218117330223,-0.012532706672
1576079776666774644,-0.313360124826,0.0217879116535,-0.0130124878918
1576079776867725023,-0.313431829214,0.0217878744006,-0.0136151829042
1576079776867730920,-0.313454657793,0.0218018963933,-0.0136955990277
1576079776867734463,-0.313440293074,0.0218295250088,-0.0127890725095
1576079776867805678,-0.313436746597,0.0217889193445,-0.0135991739809
1576079776867849822,-0.313454806805,0.0217630434781,-0.0143796279304
1576079776867979080,-0.313359737396,0.0218103267252,-0.0125448677059
1576079776868133662,-0.313443303108,0.0217846278101,-0.013796377205
1576079776868273759,-0.3133880198,0.0218125786632,-0.0137471393672
1576079776868445422,-0.313445001841,0.0217356048524,-0.013999913318
1576079776868533446,-0.313444763422,0.0217988919467,-0.0134129084367
1576079776886262883,-0.313379108906,0.0218874290586,-0.0109296436343
1576079776909470595,-0.313363671303,0.0217417627573,-0.0137271751318
1576079777095981295,-0.31342881918,0.021792454645,-0.0126022370576
1576079777095988433,-0.313439488411,0.0217940863222,-0.0127149456762
1576079777095992053,-0.313435256481,0.0218125060201,-0.0129257817194
1576079777096037581,-0.313447892666,0.0217589363456,-0.0143341641901
1576079777096183806,-0.313429743052,0.0218284763396,-0.0127967886424
1576079777096324334,-0.313434869051,0.0217698588967,-0.0139786513808
1576079777096464514,-0.313470542431,0.0218160804361,-0.0138259721044
1576079777096582432,-0.313445061445,0.0218057688326,-0.0127134766612
1576079777096708160,-0.313455611467,0.0217538457364,-0.0141731696134
1576079777106318705,-0.313441604376,0.0218088962138,-0.0126479445631
1576079777126324624,-0.313381642103,0.02183720842,-0.0128181303163
1576079777324753079,-0.313430309296,0.0218306258321,-0.0126478254301
1576079777324756447,-0.313450366259,0.0217555519193,-0.0142901827341
1576079777325508747,-0.313435763121,0.0217847600579,-0.013518235836
1576079777325800062,-0.313427686691,0.0217486787587,-0.0135342196488
1576079777326088431,-0.313435167074,0.0218308642507,-0.0127769414355
1576079777326485664,-0.313460439444,0.0218518022448,-0.0130958263429
1576079777326584864,-0.313427239656,0.0217829402536,-0.0136218521783
1576079777330866303,-0.313361823559,0.0217786245048,-0.0122629393834
1576079777330870165,-0.313434720039,0.0217657927424,-0.0138701304512
1576079777330886617,-0.313450723886,0.021791363135,-0.0135240241961
1576079777346777906,-0.313424795866,0.0217336434871,-0.0137495360705
1576079777366492104,-0.313370972872,0.021767674014,-0.0137099664336
1576079777386356104,-0.313454121351,0.0217459630221,-0.013946337255
1576079777406626117,-0.313443213701,0.0217362139374,-0.0141026687495
1576079777427248164,-0.313357383013,0.0217782799155,-0.0132364444162
1576079777446362284,-0.313428759575,0.0217899084091,-0.0124342853453
1576079777466554192,-0.313437670469,0.0217850562185,-0.0122482926231
1576079777486471524,-0.31343510747,0.0217267982662,-0.0133795386578
1576079777506281530,-0.313445746899,0.0217894613743,-0.0134655882008
1576079777526251415,-0.313432365656,0.0217936392874,-0.0134150897674
1576079777546365060,-0.313435286283,0.0218250062317,-0.0125542947268
1576079777566533345,-0.313436806202,0.0217986796051,-0.0131533663803
1576079777586372078,-0.313379824162,0.0218439549208,-0.0118255464881
1576079777606306940,-0.313435852528,0.0218204781413,-0.0125125107647
1576079777626324626,-0.313451677561,0.0217630099505,-0.0143189748819
1576079777646290632,-0.313453525305,0.0217945538461,-0.0135782401542
1576079777666461912,-0.313382565975,0.0218629706651,-0.010874873123
1576079777686663349,-0.313366383314,0.0217272005975,-0.0137688470528
1576079777706316670,-0.313434332609,0.0218209605664,-0.0127806297948
1576079777726497455,-0.313386470079,0.0217897351831,-0.0139192567239
1576079777747028255,-0.313432961702,0.0217772107571,-0.0134323135244
1576079777766315213,-0.313442766666,0.0217740237713,-0.0140777274416
1576079777786621914,-0.313438683748,0.0218269024044,-0.0126806337121
1576079777806295136,-0.313439637423,0.0218047685921,-0.0125462541778
1576079777827803192,-0.313459843397,0.0218278281391,-0.0140712515646
1576079777846376784,-0.313443541527,0.0218140557408,-0.0129566285713
1576079777866433060,-0.313377201557,0.0218654256314,-0.0108799025004
1576079777886343526,-0.313437789679,0.0217913854867,-0.0134938045374
1576079777906414210,-0.313382297754,0.0218907706439,-0.0111105591921
1576079777926476458,-0.313434332609,0.0218239333481,-0.0127093995199
1576079777947589074,-0.313445061445,0.0217487923801,-0.0149816204355
1576079777966287810,-0.31343254447,0.0217858217657,-0.0121515691641
1576079777986335095,-0.313450276852,0.0217581689358,-0.0142893260677
1576079778006225873,-0.313458263874,0.0217389762402,-0.0143076668319
1576079778026351721,-0.313368082047,0.0218543503433,-0.0107061757761
1576079778046407250,-0.313451349735,0.0218077264726,-0.0140325102589
1576079778066854000,-0.313435047865,0.0217708889395,-0.0137553358718
1576079778086266020,-0.313426047564,0.0217951927334,-0.0123144268291
1576079778106301371,-0.313444256783,0.021770760417,-0.0141510099822
1576079778126356391,-0.313440680504,0.0217635296285,-0.0135040151538
1576079778146735854,-0.313437491655,0.0217653047293,-0.0133307579483
1576079778166271791,-0.313379853964,0.0218583978713,-0.0108144960562
1576079778186311644,-0.313447356224,0.0217606667429,-0.0146175744261
1576079778207031632,-0.31341445446,0.0218363814056,-0.0132236285509
1576079778226925431,-0.313438504934,0.0218250155449,-0.012644601308
1576079778247004575,-0.313430935144,0.0217526815832,-0.0138848493103
1576079778266646634,-0.313438504934,0.0217801220715,-0.0133420872113
1576079778286429165,-0.31336158514,0.0217504911125,-0.0129253203716
1576079778306243466,-0.313434451818,0.0217732638121,-0.0139487053178
1576079778326373398,-0.313444674015,0.0218262989074,-0.0126950548042
1576079778346306666,-0.313443094492,0.021779851988,-0.0138164033639
1576079778366415042,-0.313431471586,0.0218222048134,-0.01273245796
1576079778386552957,-0.313436567783,0.0217507947236,-0.0129388731335
1576079778406544598,-0.313438147306,0.021751884371,-0.0136354984664
1576079778426767332,-0.313419938087,0.0217900481075,-0.0134897277002
1576079778446669134,-0.313376694918,0.0218318942934,-0.0120662854631
1576079778466965023,-0.313444346189,0.0217204429209,-0.0145520267141
1576079778486407819,-0.313437014818,0.0218158941716,-0.012712833445
1576079778506482433,-0.313433796167,0.02176922746,-0.0137684023488
1576079778526395956,-0.313372969627,0.021778922528,-0.0132828942351
1576079778546308101,-0.313365876675,0.0217972658575,-0.0122747789908
1576079778566471710,-0.313435584307,0.0218227468431,-0.0126856193652
1576079778586560896,-0.313443809748,0.0217797998339,-0.013882146878
1576079778606344543,-0.313399523497,0.0217602048069,-0.0149497149563
1576079778626509976,-0.313437998295,0.0217691399157,-0.0130925045832
1576079778647025271,-0.313436150551,0.021797452122,-0.0135149169534
1576079778666557710,-0.313434749842,0.0218211133033,-0.0127226999716
1576079778686312887,-0.313445746899,0.0218183472753,-0.0126407835565
1576079778706404727,-0.313442081213,0.0218287985772,-0.0126449397768
1576079778726383420,-0.313436150551,0.0217289682478,-0.0142036975946
1576079778746263267,-0.313434153795,0.0217683147639,-0.0137980280635
1576079778767120432,-0.313440740108,0.0217719748616,-0.0139671288844
1576079778787354490,-0.313440471888,0.0217473320663,-0.0137356330227
1576079778806352572,-0.313448041677,0.0217642541975,-0.0140575022397
1576079778826311860,-0.313439488411,0.0217545386404,-0.013207645145
1576079778846543782,-0.313383758068,0.0218255892396,-0.0115546793768
1576079778867849161,-0.313448160887,0.0217324458063,-0.0147995338864
1576079778886384533,-0.313437372446,0.021802874282,-0.0126411875513
1576079778906385906,-0.313380509615,0.0218026358634,-0.0136872754643
1576079778926319607,-0.313446909189,0.0217973124236,-0.0144607245797
1576079778946638811,-0.313470572233,0.0218116082251,-0.013886444596
1576079778966504382,-0.313440084457,0.0217773858458,-0.0137480635395
1576079778986358114,-0.313434749842,0.0217810403556,-0.0124071213072
1576079779009497050,-0.313452959061,0.0218386445194,-0.0129520481833
1576079779026897507,-0.313357174397,0.0217636972666,-0.0132852369292
1576079779046417512,-0.313456773758,0.0218191929162,-0.0140381622147
1576079779067307522,-0.313449680805,0.0217718034983,-0.0135087175774
1576079779086746355,-0.313434094191,0.0217650905252,-0.0129976778477
1576079779106280529,-0.313446223736,0.0217912904918,-0.0141381550893
1576079779126551266,-0.313353985548,0.02179854922,-0.014449407492
1576079779146269919,-0.313360482454,0.0217719934881,-0.0148948629436
1576079779166601710,-0.313374698162,0.0217976048589,-0.0159334784022
1576079779186610455,-0.313396245241,0.0218965988606,-0.015481508055
1576079779206431829,-0.313396453857,0.0217566732317,-0.0135751279399
1576079779226235275,-0.313397586346,0.0218006875366,-0.0126110715688
1576079779246825428,-0.313362538815,0.0218703243881,-0.0146846128583
1576079779266250587,-0.313288480043,0.0218677297235,-0.0137227073773
1576079779286606714,-0.313228517771,0.0218947902322,-0.0136535763362
1576079779306527222,-0.313015311956,0.0219391342252,-0.0175170727075
1576079779326391495,-0.312501698732,0.0220003332943,-0.0221918549508
1576079779346922943,-0.311851650476,0.0221802517772,-0.0257064900721
1576079779370434812,-0.311058908701,0.0224555879831,-0.0303586698197
1576079779386538970,-0.310069590807,0.0223825275898,-0.0289647672702
1576079779406550502,-0.308831244707,0.0222068428993,-0.0214455410591
1576079779426268922,-0.307386636734,0.0218766648322,-0.0232224865663
1576079779446274580,-0.305705696344,0.0219895932823,-0.0226322453773
1576079779466609486,-0.303646445274,0.0220363922417,-0.0216921989704
1576079779486388987,-0.301835894585,0.0220530536026,-0.0261610304649
1576079779506472977,-0.29956382513,0.0219091754407,-0.0272873248479
1576079779526281629,-0.297084569931,0.0219409447163,-0.0257434539926
1576079779546351332,-0.294433236122,0.0218457262963,-0.0262667823067
1576079779569420157,-0.291622638702,0.0218247454613,-0.0279855315779
1576079779586162237,-0.288564056158,0.0218842271715,-0.0284967627649
1576079779606248111,-0.285337299109,0.0217421539128,-0.0267499711219
1576079779626319677,-0.281805694103,0.0216440632939,-0.0271499412775
1576079779646213382,-0.278139382601,0.0215211473405,-0.0238179803052
1576079779665984472,-0.274412781,0.0216549113393,-0.0244919070962
1576079779686316239,-0.27040424943,0.0214860029519,-0.0209455446454
1576079779706551090,-0.266046732664,0.0214741900563,-0.0258780085695
1576079779726858916,-0.261778593063,0.0217382609844,-0.0288966538393
1576079779746732598,-0.257309138775,0.0217295754701,-0.0335205813019
1576079779765970745,-0.252584815025,0.0218134745955,-0.0255720617684
1576079779786015473,-0.247769236565,0.0218131393194,-0.0290685151001
1576079779805809856,-0.243151932955,0.0218208041042,-0.0262932981205
1576079779826862934,-0.238339051604,0.0216311700642,-0.0233379365267
1576079779846272535,-0.233472645283,0.0214398819953,-0.0242835733893
1576079779866131048,-0.228625386953,0.0216749571264,-0.0200649831035
1576079779886094832,-0.223555356264,0.0216233208776,-0.020122949099
1576079779906179121,-0.218938946724,0.0219739284366,-0.0279511644986
1576079779926150031,-0.214113399386,0.0218185316771,-0.0181583558134
1576079779946372643,-0.209676995873,0.0218726564199,-0.0229615604944
1576079779966207962,-0.20555858314,0.0219660252333,-0.0146524321093
1576079779985878381,-0.201613679528,0.0217547491193,-0.0139915414058
1576079780006078606,-0.197432100773,0.0212566088885,-0.0170656248804
1576079780026290176,-0.193237707019,0.0213021188974,-0.00998696068555
1576079780046495303,-0.189090371132,0.0216205585748,-0.0153782617085
1576079780067229312,-0.18528559804,0.0214057248086,-0.0228810022415
1576079780086163263,-0.181268125772,0.0214168485254,-0.00870296057899
1576079780105996738,-0.17753636837,0.0211084689945,-0.0240344151226
1576079780126082225,-0.173524871469,0.0213734488934,-0.0170538367577
1576079780146140613,-0.169638484716,0.0213434901088,-0.0153606560279
1576079780166149202,-0.165615186095,0.0211379658431,-0.010955312511
1576079780186637832,-0.161583021283,0.0210192091763,-0.00524424641698
1576079780210202896,-0.15775629878,0.0211333427578,-0.0129698868617
1576079780225981360,-0.153745010495,0.0211475305259,-0.00966413611401
1576079780245904809,-0.149868950248,0.0212770607322,-0.0149364653359
1576079780266149985,-0.145946592093,0.0211995150894,-0.00979343094007
1576079780286169713,-0.142042323947,0.0209794715047,-0.000303301212104
1576079780306023605,-0.138108685613,0.0210168361664,0.000374915172819
1576079780326238436,-0.134358495474,0.0208913199604,-0.00106487162579
1576079780346490050,-0.130441382527,0.0207989364862,0.00698100417171
1576079780366142449,-0.12666465342,0.0211311038584,-0.00927229899316
1576079780387785570,-0.123020842671,0.0213321633637,-0.0292455514335
1576079780406319108,-0.119431272149,0.021304871887,-0.00427783076446
1576079780426097532,-0.115776464343,0.0208777263761,0.0265462621813
1576079780446317452,-0.111920267344,0.0207375567406,-0.0318643214704
1576079780466262345,-0.108351901174,0.0209168791771,-0.051108486208
1576079780486850064,-0.104927130044,0.0209644716233,-0.0901563485188
1576079780506255446,-0.101496979594,0.0209469683468,-0.217098986536
1576079780526317469,-0.0978258550167,0.0208175871521,2.59937746873
1576079780546065943,-0.0947089642286,0.0212845299393,-2.99229924484
1576079780566133648,-0.0914693772793,0.0211670957506,-2.98260017113
1576079780586216869,-0.0879188627005,0.021462129429,-3.03984497368
1576079780609046200,-0.0848257616162,0.0212491806597,-3.0956816157
1576079780626161995,-0.0815384984016,0.0212113205343,-3.08374882231
1576079780646324643,-0.0782629549503,0.0213592853397,-3.09120133414
1576079780670892016,-0.07491530478,0.0213560201228,-3.08866335473
1576079780686490101,-0.0715309679508,0.0215971041471,-3.11479582729
1576079780706019420,-0.0684808716178,0.0214233938605,-3.1141612681
1576079780726407082,-0.0654079318047,0.0214064735919,-3.11593713127
1576079780746267289,-0.0622492730618,0.0217429250479,-3.11044883835
1576079780766123183,-0.0593619532883,0.0214319638908,-3.11369818453
1576079780786461931,-0.0567590370774,0.0216960515827,-3.11803300074
1576079780806737788,-0.0537014231086,0.0217212103307,-3.12086235879
1576079780826053973,-0.0510314404964,0.0217684675008,-3.12122186245
1576079780846260047,-0.0484462864697,0.0215693358332,-3.12946156713
1576079780866152789,-0.0459286607802,0.0213889908046,-3.13014634656
1576079780887216670,-0.043421253562,0.0216811355203,-3.13016638682
1576079780906339011,-0.0409847535193,0.0216534808278,-3.12522565511
1576079780925923074,-0.0388925895095,0.0218668840826,-3.12427203761
1576079780946113118,-0.0368059836328,0.0215785931796,-3.13010671266
1576079780966375038,-0.0347713455558,0.0215753708035,-3.12468807626
1576079780985983860,-0.0330418497324,0.0215619727969,-3.12375637866
1576079781006218935,-0.0316229350865,0.0214144252241,-3.12585324784
1576079781026995841,-0.0303685348481,0.0217158515006,-3.1238365013
1576079781046310743,-0.0293299313635,0.0216322503984,-3.12413372334
1576079781066394112,-0.0285360906273,0.0218186695129,-3.12414119909
1576079781086324392,-0.0278468038887,0.0216179955751,-3.12593591121
1576079781108975451,-0.0273099113256,0.0217504352331,-3.12590053138
1576079781126149174,-0.0271625220776,0.0216058790684,-3.12723571348
1576079781146267430,-0.0272386129946,0.0215350817889,-3.12455637807
1576079781166105095,-0.0275634452701,0.0214262809604,-3.12663782156
1576079781185908399,-0.0281182900071,0.0217474345118,-3.12945484633
1576079781207236420,-0.0288337990642,0.0214878264815,-3.12779972226
1576079781226731578,-0.0301115382463,0.0211511719972,-3.12888582414
1576079781246057758,-0.0314683355391,0.0214814450592,-3.1232765996
1576079781265899777,-0.0329477004707,0.0214125867933,-3.1216591258
1576079781286179231,-0.0347324050963,0.0215433761477,-3.12609200431
1576079781305898530,-0.0370238125324,0.0213280916214,-3.12674097038
1576079781326003133,-0.0390683189034,0.021325673908,-3.11798338519
1576079781346460007,-0.0416920743883,0.0212221946567,-3.11340768098
1576079781365995546,-0.0446011722088,0.0209297779948,-3.11734712765
1576079781386153852,-0.0471368283033,0.0209654793143,-3.11611784587
1576079781405783839,-0.0499173030257,0.0209276694804,-3.10294226021
1576079781425848995,-0.0528953671455,0.0211495384574,-3.10904852963
1576079781445766416,-0.0559560321271,0.0207147523761,-3.09764644267
1576079781466290987,-0.0590731874108,0.0208395179361,3.13883991189
1576079781485894377,-0.0621096640825,0.0208092518151,-3.07470562254
1576079781506816481,-0.0651412829757,0.0208398029208,-2.9657641123
1576079781526210752,-0.0684499666095,0.0208991039544,-0.376369221769
1576079781546243246,-0.0715401768684,0.0204420890659,-0.0957961862582
1576079781566394198,-0.0747748687863,0.0203839298338,0.0221768045568
1576079781587511030,-0.0777577161789,0.0203661248088,0.00416524524554
1576079781606087288,-0.0808739513159,0.0202297512442,-0.0277699020447
1576079781626316389,-0.0837603509426,0.0202157106251,-0.0250667599758
1576079781645910331,-0.0868077129126,0.020020628348,-0.026002810572
1576079781665995408,-0.0896078795195,0.0198452621698,-0.0254846641126
1576079781686224621,-0.0921158120036,0.0199687704444,-0.0116135127334
1576079781706255394,-0.0947123989463,0.0203529950231,-0.0170232657918
1576079781726020104,-0.096961453557,0.0202609784901,-0.0104784463438
1576079781745903019,-0.0990271121264,0.0197402983904,-0.00454208638067
1576079781765811883,-0.101098284125,0.0198835358024,-0.00327551135419
1576079781785917691,-0.103095598519,0.0200895741582,-0.00607603090805
1576079781806197618,-0.104628428817,0.0198653843254,-0.00389242165636
1576079781826244333,-0.106157369912,0.0198927242309,-0.00589059552424
1576079781846037371,-0.107338681817,0.019932821393,-0.00329493328735
1576079781866009413,-0.108392998576,0.019840490073,-0.00418550333684
1576079781886204760,-0.109224833548,0.0196837279946,-0.00100650660116
1576079781906218234,-0.109838016331,0.0194401331246,-0.00461943655729
1576079781926517813,-0.110167786479,0.0195141844451,-0.00403368116753
1576079781946344281,-0.110315524042,0.0197188574821,-0.00898720448046
1576079781970519705,-0.110283024609,0.0196152124554,-0.0142643335625
1576079781985892516,-0.109911195934,0.0195794962347,-0.0160853033724
1576079782005882560,-0.109330751002,0.0194927230477,-0.0167392808921
1576079782027157610,-0.108525820076,0.0194202177227,-0.0182888957516
1576079782045827644,-0.107503600419,0.0198919121176,-0.0106618523814
1576079782065914102,-0.106219612062,0.0198311395943,-0.00851497690545
1576079782086018380,-0.104742214084,0.0197698045522,-0.010412293806
1576079782105916896,-0.103296019137,0.019712748006,-0.0202398167784
1576079782128708667,-0.101711392403,0.0197957679629,-0.0200461922839
1576079782152371598,-0.100035361946,0.0195811800659,-0.013538171943
1576079782166095686,-0.0983011350036,0.0191985722631,-0.0202424360951
1576079782197739007,-0.0965995639563,0.0195409581065,-0.0467785610701
1576079782206173952,-0.0947217196226,0.019425842911,-0.091691341287
1576079782226563078,-0.0926779285073,0.0195776354522,-0.966668347916
1576079782246257361,-0.0907025262713,0.0193578451872,-2.86751173431
1576079782266146025,-0.0888957232237,0.019427889958,-3.01642273049
1576079782286271617,-0.0872571617365,0.0191061068326,-3.06922988429
1576079782306402685,-0.0854661688209,0.0190330203623,-3.07019616561
1576079782326061361,-0.0838988274336,0.0192104261369,-3.09012459544
1576079782347164167,-0.0824730023742,0.0193746164441,-3.09166269067
1576079782370462894,-0.0814049392939,0.0194818861783,-3.10659218299
1576079782386655751,-0.0801910758018,0.0192466583103,-3.11433449339
1576079782406415253,-0.0796106904745,0.018954558298,-3.11289830028
1576079782426566811,-0.0788846388459,0.0189901031554,-3.11378359073
1576079782446606117,-0.0787021815777,0.0189589578658,-3.12182791328
1576079782466315028,-0.0784161314368,0.0186596680433,-3.11897466472
1576079782486298610,-0.0783639326692,0.0187610648572,-3.11612702526
1576079782506055165,-0.0790781825781,0.0187886599451,-3.11459545161
1576079782527155842,-0.0798526480794,0.0188472867012,-3.11216637445
1576079782546304318,-0.0810141637921,0.0186400283128,-3.11686510156
1576079782566365109,-0.082310564816,0.0183994434774,-3.12063857666
1576079782586214757,-0.0840161666274,0.0182823203504,-3.12454781927
1576079782607127022,-0.0862018689513,0.0181172192097,-3.12495684231
1576079782626332589,-0.0884127616882,0.0184249766171,-3.12164426226
1576079782646699385,-0.0909354239702,0.0185862425715,-3.11314188149
1576079782667208741,-0.0937225967646,0.0183778852224,-3.11618334172
1576079782686014826,-0.0968535244465,0.0180217456073,-3.11341944785
1576079782706640689,-0.100070729852,0.0177894141525,-3.1163619962
1576079782726365847,-0.103642173111,0.0177084524184,-3.12030995884
1576079782746335752,-0.107042059302,0.0177596863359,-3.09938505228
1576079782766134755,-0.110696546733,0.0175608992577,-3.1181325663
1576079782791570640,-0.114282555878,0.017644841224,-2.90849752268
1576079782806302801,-0.118030801415,0.0174055788666,-0.0357400101539
1576079782826654948,-0.121727839112,0.0169452913105,0.018560238585
1576079782846656465,-0.125116676092,0.0170198827982,0.0198309755586
1576079782866413210,-0.128515332937,0.0168163683265,0.00784302244014
1576079782886211428,-0.131803900003,0.0166230350733,0.00641065220409
1576079782906386723,-0.135069057345,0.0169435143471,0.00273803581805
1576079782926770400,-0.138255372643,0.0166421532631,-0.00440311259022
1576079782947534863,-0.140809193254,0.0164202842861,0.00155751511983
1576079782965928719,-0.143354058266,0.0164874587208,-0.000984114243251
1576079782987566551,-0.145671114326,0.0163903310895,0.00185787666138
1576079783006714266,-0.147820919752,0.0163544677198,0.000804435491429
1576079783026693333,-0.14957895875,0.0161415506154,-0.000747720055654
1576079783046923478,-0.151104494929,0.0161969754845,-0.00679759035665
1576079783066461363,-0.152168303728,0.0160326752812,-0.00968941737289
1576079783086378487,-0.153137981892,0.0159735232592,-0.0106656182686
1576079783106195001,-0.153877913952,0.015624506399,-0.0116512571955
1576079783126945446,-0.154143974185,0.0160980615765,-0.00405458924558
1576079783147157945,-0.154602229595,0.0159302167594,0.000174027575079
1576079783166095872,-0.154677689075,0.0159775111824,-0.00996338231695
1576079783186736604,-0.154400810599,0.016014771536,-0.00571373317395
1576079783206794918,-0.154384300113,0.016349574551,-0.00802668222379
1576079783226140495,-0.154303357005,0.016537277028,0.0138288352842
1576079783250087794,-0.154530122876,0.0158592630178,0.000426674201551
1576079783266449740,-0.154430776834,0.0148995509371,-0.0496293414528
1576079783286461230,-0.154310926795,0.0152640864253,-0.16966445063
1576079783306731223,-0.15454646945,0.0159075781703,-2.44546151258
1576079783326664933,-0.154630407691,0.0153305241838,-2.97370863111
1576079783346323694,-0.154882371426,0.0153159210458,-3.07155690471
1576079783366375804,-0.15500344336,0.0156154772267,-3.06776831082
1576079783386448286,-0.155545443296,0.0154595421627,-3.09165267852
1576079783406429363,-0.1560998559,0.0154897738248,-3.09728861473
1576079783426614789,-0.156903028488,0.0153092322871,-3.10573361103
1576079783446265457,-0.157983198762,0.0152709810063,-3.10688271657
1576079783467184451,-0.159268215299,0.0152345215902,-3.1165137797
1576079783486288976,-0.160674780607,0.015258461237,-3.10848348329
1576079783506410423,-0.16248203814,0.015230961144,-3.11571446668
1576079783526490634,-0.164551258087,0.0149405701086,-3.11393862167
1576079783546374475,-0.166826590896,0.0149391330779,-3.11510082436
1576079783566260391,-0.169604495168,0.0150109156966,-3.11789941532
1576079783586885770,-0.172615021467,0.015015120618,-3.11904473156
1576079783606604940,-0.175880789757,0.0149304429069,-3.1155171092
1576079783653477570,-0.179364874959,0.014753847383,-3.11405069354
1576079783653639185,-0.183096453547,0.0151487961411,-3.11384809235
1576079783666418900,-0.186673223972,0.0151723884046,-3.11021112192
1576079783686138473,-0.190559729934,0.0148238074034,-3.10978740942
1576079783706434842,-0.194305464625,0.0148213785142,-3.11424252667
1576079783726273771,-0.198513522744,0.0147167863324,-3.10967782117
1576079783746291966,-0.202617287636,0.0144528923556,-3.11052947081
1576079783766790858,-0.206933021545,0.0143515961245,-3.08517533582
1576079783786415086,-0.21161878109,0.0146990157664,-3.05355469137
1576079783810005740,-0.216160476208,0.0144067034125,-3.06492724653
1576079783826171091,-0.220909625292,0.0142536200583,-3.09809903203
1576079783855329537,-0.225783988833,0.0141054531559,-0.838082942389
1576079783866610567,-0.230259135365,0.0139315044507,-0.0787027494321
1576079783886405997,-0.234892293811,0.014102508314,-0.0135960815415
1576079783906408063,-0.239458426833,0.0141651332378,-0.0133391615975
1576079783926584500,-0.243515968323,0.0141013162211,-0.0241001599349
1576079783946102949,-0.247463464737,0.0137842549011,-0.00573391109577
1576079783966113856,-0.251392692327,0.0135521423072,-0.0129294280464
1576079783986165161,-0.255031913519,0.0137566560879,-0.0087590882723
1576079784006019254,-0.258544117212,0.0137872416526,-0.0178545604024
1576079784026118418,-0.261923581362,0.0135871069506,-0.00726381794789
1576079784046253921,-0.264803230762,0.0138040045276,-0.00163317025098
1576079784066234407,-0.267600536346,0.0134836882353,-0.00750052072481
1576079784086528197,-0.270054936409,0.0133603354916,-0.0102909289529
1576079784107794531,-0.27229398489,0.013273909688,-0.00319827130851
1576079784126280642,-0.274136483669,0.0133296828717,-0.00893326251193
1576079784147622111,-0.275848954916,0.0129683166742,-0.0151862187382
1576079784166255941,-0.277277469635,0.0130257029086,-0.0082040124427
1576079784186391500,-0.278722047806,0.0132326390594,-0.0133207974946
1576079784206154766,-0.279578119516,0.0130585515872,-0.0193173220738
1576079784226228972,-0.280194461346,0.0129889268428,-0.0229946334067
1576079784246363411,-0.280657559633,0.0128221800551,-0.0136435397644
1576079784265852858,-0.281037122011,0.0129925273359,-0.0187767627205
1576079784286582918,-0.28094419837,0.0128971440718,-0.0283315265445
1576079784306343648,-0.280218780041,0.0125477910042,-0.0225474473955
1576079784326276846,-0.280686944723,0.0128628835082,-0.0327603037789
1576079784346046664,-0.280539900064,0.012959013693,-0.0384328018128
1576079784366209049,-0.280083447695,0.01285106875,-0.0452072906627
1576079784386555807,-0.279646277428,0.012579023838,-0.0499763533649
1576079784406251844,-0.278965979815,0.0120606971905,-0.0596774353561
1576079784425965757,-0.278447568417,0.0120553858578,-0.0977498194355
1576079784446241392,-0.277808874846,0.0122758131474,-0.117875489747
1576079784466057549,-0.277415752411,0.0120334792882,-0.129680433184
1576079784486118121,-0.276667058468,0.0118607003242,-0.279277915288
1576079784506281422,-0.276055961847,0.0115793226287,-0.877502845135
1576079784526553678,-0.275832355022,0.0117890518159,-2.56143681978
1576079784546463491,-0.275071114302,0.0118946507573,-2.93245279883
1576079784567015960,-0.274634957314,0.0120303155854,-2.96462063173
1576079784588772438,-0.274228155613,0.0113559765741,-2.98938949692
1576079784606417631,-0.273953169584,0.0116081526503,-3.02383258719
1576079784626262725,-0.273601055145,0.0112051144242,-3.04166418687
1576079784646447365,-0.273499041796,0.0110823297873,-3.06854726671
1576079784669984807,-0.273423880339,0.0108675584197,-3.07483112402
1576079784688319992,-0.273652374744,0.0107707045972,-3.07613113109
1576079784706809934,-0.273862570524,0.0107127446681,-3.08725488902
1576079784726230681,-0.274206548929,0.0102825816721,-3.08461899303
1576079784746942889,-0.274717897177,0.0103364745155,-3.10886512289
1576079784766053738,-0.275153428316,0.0102905323729,-3.10772541476
1576079784786049940,-0.275747388601,0.0103651080281,-3.09472695508
1576079784806118482,-0.276503562927,0.0103535838425,-3.11095977996
1576079784826123888,-0.277034938335,0.00982055719942,-3.12069248929
1576079784846046544,-0.277828872204,0.0096730729565,-3.11422526973
1576079784866067527,-0.278792768717,0.00948390457779,-3.1118432733
1576079784886089744,-0.279828071594,0.00959484092891,-3.11926999582
1576079784906126862,-0.281027883291,0.00964954588562,-3.12016376775
1576079784926167023,-0.28246062994,0.00890952907503,-3.11855771102
1576079784945869472,-0.283820211887,0.00933819729835,-3.12197187763
1576079784966474071,-0.285189092159,0.00910937320441,-3.12472658138
1576079784986365227,-0.286662191153,0.00893416814506,-3.12187879234
1576079785006137972,-0.288336217403,0.00877456460148,-3.11442654014
1576079785025994082,-0.290149599314,0.00864626374096,-3.12097132273
1576079785046077738,-0.292508155107,0.0082681151107,-3.11814477102
1576079785065783426,-0.294499754906,0.00821082200855,-3.11546899118
1576079785085961150,-0.296893954277,0.00817925296724,-3.12282797502
1576079785106479630,-0.299576371908,0.00801362749189,-3.12133093868
1576079785125953387,-0.30216306448,0.00784269440919,-3.11668816732
1576079785145822513,-0.304774343967,0.00770744588226,-3.1175707709
1576079785165777104,-0.307862877846,0.00753714283928,-3.12198559293
1576079785186137678,-0.310913562775,0.00768516585231,-3.11701536396
1576079785205869659,-0.314193218946,0.00767264515162,-3.12229538087
1576079785227946386,-0.317943900824,0.00769443809986,-3.11767012188
1576079785245770190,-0.321434736252,0.00754442159086,-3.1123990469
1576079785265815912,-0.325141727924,0.00737288966775,-3.12122198402
1576079785285855431,-0.32919511199,0.00736008957028,-3.12262445705
1576079785305826683,-0.333057403564,0.00704025663435,-3.12178122454
1576079785326237593,-0.337435930967,0.00708768516779,-3.12045032652
1576079785349616375,-0.341714501381,0.00726323341951,-3.12521973502
1576079785365815154,-0.346280574799,0.00734066218138,-3.12568518829
1576079785385774192,-0.350873589516,0.00719730416313,-3.12233844852
1576079785405727562,-0.355541616678,0.00675963005051,-3.1248738796
1576079785426166997,-0.360457897186,0.00695629697293,-3.13468426503
1576079785452034383,-0.36528134346,0.00699521228671,-3.126760761
1576079785473128083,-0.370467305183,0.00693742046133,-3.12175308222
1576079785485828570,-0.374510169029,0.00737248361111,-3.14096978897
1576079785507538969,-0.378879368305,0.00755407381803,-3.13837904807
1576079785526297843,-0.383180201054,0.00728966994211,-3.12795123827
1576079785546323639,-0.38738244772,0.00713675096631,-3.1309243938
1576079785566109998,-0.391696810722,0.0069631501101,-3.13155225069
1576079785586828075,-0.396022200584,0.0064959959127,-3.13611159031
1576079785605950571,-0.400279015303,0.00695945508778,-3.12597490256
1576079785625935379,-0.404505461454,0.00679143890738,-3.12792358115
1576079785645827681,-0.408879011869,0.00634946767241,-3.12849730465
1576079785666726184,-0.413507282734,0.00616418011487,-3.12791297489
1576079785685901612,-0.418029665947,0.00649485550821,-3.1286958019
1576079785705960756,-0.422776937485,0.00657092826441,-3.13119575689
1576079785725744786,-0.427427202463,0.00631616730243,-3.12597456035
1576079785745897040,-0.432298541069,0.00585329951718,-3.12663579933
1576079785766252881,-0.437430471182,0.00615741219372,-3.12916229939
1576079785785899324,-0.442283928394,0.00640570465475,-3.12873936556
1576079785805826665,-0.447225570679,0.0060320077464,-3.12924798774
1576079785826457385,-0.452586859465,0.00561804696918,-3.12986984627
1576079785845800308,-0.457983255386,0.00592685118318,-3.12973846737
1576079785865875773,-0.46350094676,0.00607984419912,-3.12723887401
1576079785886000473,-0.46887242794,0.00586223741993,-3.12794276783
1576079785905814437,-0.474547356367,0.00566224148497,-3.13143960191
1576079785926045041,-0.480416119099,0.00556671060622,-3.1308297748
1576079785945975133,-0.486247301102,0.00551891559735,-3.13350815846
1576079785969404522,-0.492260575294,0.00571416737512,-3.12940336785
1576079785985924688,-0.498333483934,0.00576594145969,-3.12504005913
1576079786007863306,-0.504617035389,0.00543995434418,-3.13308933981
1576079786025843398,-0.510902583599,0.00549718691036,-3.12860561813
1576079786045967738,-0.51724421978,0.00534992618486,-3.12852502183
1576079786069868267,-0.523765802383,0.00532086612657,-3.12960068932
1576079786086317661,-0.530272722244,0.00525249866769,-3.13372399235
1576079786106496581,-0.536779522896,0.00528638111427,-3.12910345727
1576079786126368241,-0.543718099594,0.00519918557256,-3.12981659281
1576079786145917720,-0.550677835941,0.0054228217341,-3.13056025396
1576079786165827553,-0.557879328728,0.00550439953804,-3.12606694731
1576079786185905303,-0.565011024475,0.00531015358865,-3.13248977927
1576079786205845507,-0.572064936161,0.00544161582366,-3.12296403759
1576079786226025477,-0.579591929913,0.00525545049459,-3.12865578938
1576079786245720388,-0.58705586195,0.00529420096427,-3.13199830277
1576079786265881125,-0.594419121742,0.00510318111628,-3.13492763297
1576079786286200649,-0.60201215744,0.00500644883141,-3.13854248999
1576079786305972008,-0.609617948532,0.00557086104527,-3.13265005807
1576079786326781312,-0.617294788361,0.00549280503765,-3.14135102191
1576079786346057634,-0.625247299671,0.00523997051641,-3.13310870502
1576079786366451358,-0.633105754852,0.0052882367745,-3.12823013719
1576079786385872644,-0.640848100185,0.00538332248107,-3.13239324058
1576079786406021619,-0.648709118366,0.00540649704635,-3.12815609111
1576079786425645510,-0.656877934933,0.00505806086585,-3.12866145591
1576079786445912787,-0.665190756321,0.00526902871206,-3.13321082296
1576079786465959875,-0.673112034798,0.00571186188608,-3.11598663579
1576079786485895747,-0.681189835072,0.00565488822758,-3.11855938868
1576079786505920096,-0.689537167549,0.0050435801968,-3.13413198117
1576079786525865086,-0.697154700756,0.00566047942266,-3.10363587988
1576079786545946047,-0.705270588398,0.00581856630743,-3.11461980393
1576079786566167852,-0.713064491749,0.00570464599878,-3.11102972774
1576079786586928549,-0.721048414707,0.00543344439939,-3.11617295596
1576079786606059168,-0.729226052761,0.00544023886323,-3.11250650571
1576079786625805603,-0.737013220787,0.00566299818456,-3.10487781126
1576079786646394765,-0.745270848274,0.00534389959648,-3.10140698273
1576079786665879329,-0.753343224525,0.00497019803151,-3.1239414189
1576079786685810547,-0.76128923893,0.00528310379013,-3.12317537349
1576079786707081489,-0.769087314606,0.00560056976974,-3.06443633318
1576079786725938706,-0.777003467083,0.0052623800002,-3.03143255889
1576079786746126891,-0.785274624825,0.00534932920709,-2.94108642189
1576079786766627656,-0.793350100517,0.0054072951898,-2.45365822345
1576079786785715662,-0.801325201988,0.00482641719282,-0.192746526254
1576079786805745226,-0.809287905693,0.0056172311306,-0.172856944218
1576079786825777344,-0.817303180695,0.00517810275778,-0.0476512277808
1576079786845749580,-0.825029194355,0.00519005162641,-0.0427592601885
1576079786865835762,-0.832684695721,0.00473579950631,-0.0422681517981
1576079786886180052,-0.8402338624,0.00469507556409,-0.0200412086847
1576079786907392980,-0.847751557827,0.0046013253741,-0.0184941074734
1576079786925884134,-0.855150640011,0.00436556478962,-0.0270576339643
1576079786946262227,-0.862588346004,0.00446551851928,-0.0246286203364
1576079786966302832,-0.869700074196,0.00450980989262,-0.0188857616319
1576079786986753081,-0.876650154591,0.00453173415735,-0.0196022466277
1576079787006580647,-0.88374876976,0.00458761071786,-0.0115457424521
1576079787025976849,-0.890514552593,0.00429490488023,0.00074003463703
1576079787045735766,-0.897267341614,0.00434375694022,-0.0100774772736
1576079787065732773,-0.903557240963,0.00480513228104,0.00528769865209
1576079787085966646,-0.909900784492,0.00425839284435,0.000778135375815
1576079787105685498,-0.916370630264,0.0042841238901,-0.00707314317703
1576079787127024809,-0.922294437885,0.00445761391893,-0.0144494609171
1576079787146468804,-0.927993655205,0.00438119331375,-0.00878942020767
1576079787165817395,-0.933466136456,0.00435536215082,-0.0124538093195
1576079787185932510,-0.938601255417,0.00418513547629,-0.0123137109949
1576079787206625693,-0.943478941917,0.00412679370493,-0.00963913463454
1576079787226074542,-0.948307871819,0.00431598583236,-0.016974801263
1576079787248292803,-0.952866733074,0.00441450066864,-0.0137749168375
1576079787269594002,-0.957213640213,0.00417247228324,-0.0116907828253
1576079787285850087,-0.961191117764,0.00412345444784,-0.0172846643625
1576079787305679146,-0.964956879616,0.00407708110288,-0.0197380161439
1576079787325950110,-0.968425631523,0.00420363945886,-0.0159273984367
1576079787345537891,-0.971841871738,0.00402387138456,-0.0236244831885
1576079787365652716,-0.97485268116,0.00436952337623,-0.018839483722
1576079787385739052,-0.977925598621,0.00424844911322,-0.0185824515545
1576079787405924203,-0.980609118938,0.00432422244921,-0.015522726645
1576079787425853312,-0.983109295368,0.00426223129034,-0.0318187212608
1576079787446276860,-0.985950827599,0.00444202218205,-0.0432877050888
1576079787465644560,-0.988408684731,0.00437923986465,-0.0313944071405
1576079787486897682,-0.990873992443,0.00449614878744,-0.169344442691
1576079787505977521,-0.993050098419,0.00401865737513,-0.452008359548
1576079787525721690,-0.995395898819,0.00432753190398,-2.96781646323
1576079787545653434,-0.997589290142,0.00430495943874,-3.02460971633
1576079787565664431,-1.00004351139,0.00408743415028,-3.05658432701
1576079787587180874,-1.00240576267,0.00393446115777,-3.09910507052
1576079787605803779,-1.00494432449,0.00398158747703,-3.09605010929
1576079787625762377,-1.00786328316,0.00424192706123,-3.08765804041
1576079787645547007,-1.01046359539,0.00421790312976,-3.09442434554
1576079787665855284,-1.01384949684,0.00448650820181,-3.10025021766
1576079787685553659,-1.01691913605,0.00403870316222,-3.10296993445
1576079787705641781,-1.02063906193,0.00419812928885,-3.1047306208
1576079787726035091,-1.02407944202,0.00413292879239,-3.10784453291
1576079787746554503,-1.02829384804,0.00409364700317,-3.10876800897
1576079787765783521,-1.03250551224,0.00367272389121,-3.11552150592
1576079787785645974,-1.03718805313,0.00391097925603,-3.11456813293
1576079787805895938,-1.04226922989,0.00414917478338,-3.11304532877
1576079787825916589,-1.04782295227,0.00373016181402,-3.11143444804
1576079787845617364,-1.05345213413,0.00372169399634,-3.11700896586
1576079787866312850,-1.05943381786,0.00408957293257,-3.11452308396
1576079787885821680,-1.06594347954,0.00398552883416,-3.11302849537
1576079787905498776,-1.07274448872,0.00381005834788,-3.11617649824
1576079787926114582,-1.07972574234,0.00351441907696,-3.12230214004
1576079787945628518,-1.08678591251,0.00354938441887,-3.11535627191
1576079787966649182,-1.09413707256,0.0037011813838,-3.10047599276
1576079787986474065,-1.10178232193,0.00395176652819,-3.08950016292
1576079788005851111,-1.10951864719,0.00368180288933,-3.06952027345
1576079788025655463,-1.11686658859,0.00352087127976,-2.92474565806
1576079788045518250,-1.12470388412,0.00313210068271,-0.0565252090313
1576079788067608163,-1.13221108913,0.00331436167471,-0.027085251292
1576079788085899657,-1.14000713825,0.00340800732374,-0.0211484724467
1576079788105714567,-1.14766049385,0.00307043315843,-0.0131506293893
1576079788125649090,-1.15523469448,0.00314402603544,0.00263412271712
1576079788145577879,-1.16242349148,0.00307330931537,0.00387764376642
1576079788165667062,-1.16979825497,0.0030784655828,-0.00203232539564
1576079788185519813,-1.17631351948,0.00328891747631,0.0138597280682
1576079788205939794,-1.18348479271,0.00302055827342,-0.00293275920639
1576079788225459223,-1.18987858295,0.00344639155082,-0.00880045506712
1576079788245671027,-1.19594669342,0.00337436422706,-0.00808820718184
1576079788267021522,-1.2017647028,0.00319244572893,-0.00951823664607
1576079788285733308,-1.20717167854,0.00310575519688,-0.0145051955946
1576079788305636608,-1.21202898026,0.00281608314253,-0.00400679516712
1576079788325513630,-1.2170997858,0.00288998614997,-0.00992165402403
1576079788345544939,-1.22192788124,0.00295591843314,-0.0124546211416
1576079788365889930,-1.22582936287,0.00327405380085,-0.0188526119009
1576079788386208994,-1.22972750664,0.00338975526392,-0.0136886813387
1576079788406474339,-1.23345696926,0.0033613704145,-0.0124825453189
