rosbagTimestamp,transforms,-,header,seq,stamp,secs,nsecs,frame_id,child_frame_id,transform,translation,x,y,z,rotation,x,y,z,w
1576079770886770012,,,0,,1576079770,886691184,"""world""","""hoverOpti/base_link""",,,-0.313437819481,0.0217729527503,0.314622610807,,0.00177863154791,0.041545189998,-0.00687547712811,0.999111385919
1576079770906648719,,,0,,1576079770,906564434,"""world""","""hoverOpti/base_link""",,,-0.313440531492,0.0217795446515,0.314586430788,,0.00252212243335,0.0420597655364,-0.00653304587171,0.99909055362
1576079770926400134,,,0,,1576079770,926322230,"""world""","""hoverOpti/base_link""",,,-0.313380658627,0.0218497030437,0.314678937197,,0.00123979648057,0.0417015465308,-0.00597068276689,0.999111502721
1576079770946475528,,,0,,1576079770,946408432,"""world""","""hoverOpti/base_link""",,,-0.313348680735,0.0217857901007,0.314637005329,,0.00176780790393,0.0420157106773,-0.00640509758848,0.999094855175
1576079770967133312,,,0,,1576079770,967056191,"""world""","""hoverOpti/base_link""",,,-0.313437283039,0.021763836965,0.314607709646,,0.00183286904996,0.0417740474243,-0.00705991046619,0.999100459022
1576079770986523158,,,0,,1576079770,986442001,"""world""","""hoverOpti/base_link""",,,-0.313456624746,0.021761463955,0.314608126879,,0.00194242485733,0.0417080086405,-0.00715663909767,0.999102322847
1576079771006523226,,,0,,1576079771,6439261,"""world""","""hoverOpti/base_link""",,,-0.313379049301,0.0217449963093,0.31459826231,,0.00220784112317,0.0421141322966,-0.00711013752228,0.99908506707
1576079771026661415,,,0,,1576079771,26585834,"""world""","""hoverOpti/base_link""",,,-0.313374131918,0.0218481086195,0.314669281244,,0.00124652479467,0.0416958497046,-0.00593259248407,0.999111959011
1576079771046529334,,,0,,1576079771,46444489,"""world""","""hoverOpti/base_link""",,,-0.313437730074,0.0217715986073,0.314637243748,,0.00159880105578,0.0416015557542,-0.00680492653624,0.999109827481
1576079771066442265,,,0,,1576079771,66372513,"""world""","""hoverOpti/base_link""",,,-0.313371837139,0.0218468271196,0.31467422843,,0.00118507063485,0.041771960121,-0.00588534495639,0.999109134014
1576079771086493419,,,0,,1576079771,86405084,"""world""","""hoverOpti/base_link""",,,-0.31344589591,0.02180079557,0.314569950104,,0.00238253189451,0.0418957714956,-0.00682790408928,0.999095815024
1576079771107008446,,,0,,1576079771,106926002,"""world""","""hoverOpti/base_link""",,,-0.313433408737,0.0217955373228,0.314604640007,,0.0019873549016,0.0418004173421,-0.00632214867472,0.999104001577
1576079771126529357,,,0,,1576079771,126443024,"""world""","""hoverOpti/base_link""",,,-0.313444823027,0.0217630714178,0.31460788846,,0.00192076421304,0.0417492351329,-0.00725034436169,0.999099967239
1576079771146513618,,,0,,1576079771,146413331,"""world""","""hoverOpti/base_link""",,,-0.313365072012,0.0218098945916,0.314596384764,,0.00239439916095,0.0421107746644,-0.00634557697641,0.999089927465
1576079771166486411,,,0,,1576079771,166392968,"""world""","""hoverOpti/base_link""",,,-0.313435912132,0.0218329019845,0.314605563879,,0.00209522255597,0.0417917862416,-0.00639893394717,0.999103653426
1576079771186450882,,,0,,1576079771,186361360,"""world""","""hoverOpti/base_link""",,,-0.313441604376,0.0217693373561,0.314666509628,,0.00141418981101,0.0413859858333,-0.00699724907606,0.999117730175
1576079771206582843,,,0,,1576079771,206498339,"""world""","""hoverOpti/base_link""",,,-0.313442796469,0.0217748675495,0.314634799957,,0.00170586743294,0.0415793247078,-0.0068525274591,0.999110250493
1576079771226775085,,,0,,1576079771,226684324,"""world""","""hoverOpti/base_link""",,,-0.313434004784,0.0218173600733,0.314599961042,,0.00213930770188,0.0417423826876,-0.00654235408283,0.999104696442
1576079771246370180,,,0,,1576079771,246300172,"""world""","""hoverOpti/base_link""",,,-0.313445746899,0.0218046270311,0.314577072859,,0.00226206363243,0.0419244699757,-0.00668656779408,0.999095847102
1576079771267907387,,,0,,1576079771,267835325,"""world""","""hoverOpti/base_link""",,,-0.313428193331,0.0217915661633,0.314606189728,,0.00243949669494,0.0418266560485,-0.00638004409934,0.999101533748
1576079771287125310,,,0,,1576079771,287011734,"""world""","""hoverOpti/base_link""",,,-0.313431471586,0.0218206625432,0.314605146646,,0.00212729374096,0.0417690502739,-0.00639454930544,0.999104564497
1576079771306479812,,,0,,1576079771,306381345,"""world""","""hoverOpti/base_link""",,,-0.31343755126,0.0218208115548,0.314608186483,,0.00220128285491,0.0417455578119,-0.00646952111767,0.999104903428
1576079771327093661,,,0,,1576079771,326970654,"""world""","""hoverOpti/base_link""",,,-0.313433408737,0.0218271948397,0.314600497484,,0.00213961891428,0.0418015916676,-0.00651751616978,0.999102382615
1576079771346440006,,,0,,1576079771,346353088,"""world""","""hoverOpti/base_link""",,,-0.313428342342,0.0218280162662,0.314604967833,,0.00213210182794,0.0417655204911,-0.00640459425438,0.999104637469
1576079771366616458,,,0,,1576079771,366545002,"""world""","""hoverOpti/base_link""",,,-0.313366562128,0.0218298062682,0.314705431461,,0.000991466233524,0.0415284936348,-0.00607825124048,0.999118339374
1576079771387194334,,,0,,1576079771,387105262,"""world""","""hoverOpti/base_link""",,,-0.313428044319,0.0218209419399,0.314600408077,,0.00208215992104,0.0418566044638,-0.00637257501564,0.999101135802
1576079771406439401,,,0,,1576079771,406365549,"""world""","""hoverOpti/base_link""",,,-0.313425689936,0.0217877067626,0.314631909132,,0.00164583941658,0.0416291428748,-0.006742488563,0.999109025344
1576079771426485499,,,0,,1576079771,426408464,"""world""","""hoverOpti/base_link""",,,-0.31347194314,0.021807430312,0.31462675333,,0.00208742673331,0.0418258437493,-0.00724563618335,0.999096462911
1576079771447623626,,,0,,1576079771,447546409,"""world""","""hoverOpti/base_link""",,,-0.313439011574,0.0218121260405,0.31459993124,,0.00221366786896,0.0417777639612,-0.00660207874663,0.999102662728
1576079771466910902,,,0,,1576079771,466822269,"""world""","""hoverOpti/base_link""",,,-0.313370078802,0.0218799524009,0.314646631479,,0.00159616185133,0.0418590199182,-0.00552374452786,0.999106982743
1576079771486896239,,,0,,1576079771,486808361,"""world""","""hoverOpti/base_link""",,,-0.313441216946,0.021771159023,0.314613163471,,0.00186069672004,0.0417471084171,-0.00719450279915,0.999100573454
1576079771506692182,,,0,,1576079771,506623076,"""world""","""hoverOpti/base_link""",,,-0.313443005085,0.0217468030751,0.314642131329,,0.00176810217955,0.0415961568038,-0.00737112063693,0.999105750226
1576079771526461483,,,0,,1576079771,526392949,"""world""","""hoverOpti/base_link""",,,-0.313428610563,0.0217696726322,0.314665466547,,0.00149437309669,0.0414579222679,-0.0070318509861,0.999114388147
1576079771546606024,,,0,,1576079771,546539919,"""world""","""hoverOpti/base_link""",,,-0.313448578119,0.0217953454703,0.314610600471,,0.00208899796404,0.0418281403226,-0.0064046335888,0.999102108612
1576079771566977486,,,0,,1576079771,566879353,"""world""","""hoverOpti/base_link""",,,-0.313379108906,0.0217998921871,0.314625322819,,0.00217987628388,0.0421641700437,-0.00690414335972,0.99908446275
1576079771586656922,,,0,,1576079771,586574156,"""world""","""hoverOpti/base_link""",,,-0.313364356756,0.0217675901949,0.314573913813,,0.0025930146096,0.0423096862638,-0.00662825659535,0.999079192526
1576079771606407643,,,0,,1576079771,606334921,"""world""","""hoverOpti/base_link""",,,-0.313376933336,0.0218801014125,0.314645379782,,0.00162282256407,0.0418594551677,-0.00557971134093,0.999106610568
1576079771626582853,,,0,,1576079771,626496986,"""world""","""hoverOpti/base_link""",,,-0.313439458609,0.0217413101345,0.314648807049,,0.00182827181371,0.0417234133857,-0.00675468023397,0.999104693459
1576079771646598637,,,0,,1576079771,646509438,"""world""","""hoverOpti/base_link""",,,-0.313447594643,0.0217355452478,0.31464228034,,0.00170257835942,0.0415756285398,-0.00743959598321,0.999106210946
1576079771666644658,,,0,,1576079771,666543353,"""world""","""hoverOpti/base_link""",,,-0.313362956047,0.0217967312783,0.314589291811,,0.00237525405868,0.0421910228089,-0.00632960970331,0.999086688833
1576079771686602973,,,0,,1576079771,686507182,"""world""","""hoverOpti/base_link""",,,-0.313448250294,0.0217852648348,0.314584553242,,0.00239266511197,0.0419315783292,-0.00691158703638,0.999093713251
1576079771706781706,,,0,,1576079771,706699951,"""world""","""hoverOpti/base_link""",,,-0.313440293074,0.0218189265579,0.314608752728,,0.00212120501038,0.0417355557974,-0.0064902578928,0.999105360022
1576079771726615829,,,0,,1576079771,726536641,"""world""","""hoverOpti/base_link""",,,-0.313360959291,0.0218072738498,0.314591884613,,0.00248510690207,0.0421560327103,-0.00642930568836,0.999087262044
1576079771746392886,,,0,,1576079771,746306242,"""world""","""hoverOpti/base_link""",,,-0.313440144062,0.0218230243772,0.314604580402,,0.00207553653714,0.0417957210242,-0.00641358844129,0.999103435954
1576079771766616367,,,0,,1576079771,766544514,"""world""","""hoverOpti/base_link""",,,-0.313365787268,0.0217623058707,0.31461712718,,0.00205763213215,0.041938899594,-0.00678932551735,0.999094990434
1576079771786930559,,,0,,1576079771,786600051,"""world""","""hoverOpti/base_link""",,,-0.313362747431,0.0217707324773,0.314621478319,,0.00192481356693,0.0420086188452,-0.00684281516893,0.999091961191
1576079771806866830,,,0,,1576079771,806565157,"""world""","""hoverOpti/base_link""",,,-0.313451737165,0.0217337552458,0.314638882875,,0.00177534280888,0.0415764961845,-0.00738665489056,0.999106441002
1576079771826545530,,,0,,1576079771,826450302,"""world""","""hoverOpti/base_link""",,,-0.313365757465,0.0217428077012,0.314630955458,,0.00198567902588,0.0419268880382,-0.00720952034448,0.999092696377
1576079771846431077,,,0,,1576079771,846361417,"""world""","""hoverOpti/base_link""",,,-0.313450336456,0.0217546764761,0.314637035131,,0.00172697664915,0.0415549747368,-0.00736747282654,0.999107562763
1576079771866516624,,,0,,1576079771,866444163,"""world""","""hoverOpti/base_link""",,,-0.313439279795,0.0217716619372,0.314659804106,,0.0014745147077,0.0414423049564,-0.00695287934331,0.999115618252
1576079771889167648,,,0,,1576079771,889081278,"""world""","""hoverOpti/base_link""",,,-0.313464641571,0.0217957496643,0.314591825008,,0.00298873018637,0.0421703997146,-0.00689633205341,0.999082161528
1576079771906459156,,,0,,1576079771,906388566,"""world""","""hoverOpti/base_link""",,,-0.313432991505,0.0217608977109,0.31463804841,,0.00198899060786,0.041746931121,-0.00666928866452,0.999103977696
1576079771926500862,,,0,,1576079771,926405601,"""world""","""hoverOpti/base_link""",,,-0.313442379236,0.0217933338135,0.314609646797,,0.00199630815306,0.0418030779852,-0.00651717482862,0.999102619282
1576079771946414766,,,0,,1576079771,946346864,"""world""","""hoverOpti/base_link""",,,-0.313377857208,0.0218738242984,0.314642965794,,0.00169072380734,0.0418639702228,-0.00559510147774,0.999106222726
1576079771966547111,,,0,,1576079771,966477644,"""world""","""hoverOpti/base_link""",,,-0.31338724494,0.0217907726765,0.314620554447,,0.00241754262537,0.0420500392847,-0.00695695741977,0.99908835967
1576079771987392218,,,0,,1576079771,987322622,"""world""","""hoverOpti/base_link""",,,-0.313405454159,0.0218819212168,0.314648836851,,0.00216981871851,0.042160169456,-0.00565261033507,0.999092518236
1576079772006412065,,,0,,1576079772,6335826,"""world""","""hoverOpti/base_link""",,,-0.313473403454,0.0217689033598,0.314618140459,,0.00207744832987,0.0419076664037,-0.00727574544141,0.999092836144
1576079772028172219,,,0,,1576079772,28097402,"""world""","""hoverOpti/base_link""",,,-0.313432484865,0.0217124763876,0.314623475075,,0.00196942002503,0.0419767143823,-0.00684689977391,0.999093187244
1576079772046704730,,,0,,1576079772,46629553,"""world""","""hoverOpti/base_link""",,,-0.313456147909,0.0217374321073,0.314657688141,,0.00228506847769,0.0417633924362,-0.00747058726281,0.999096986203
1576079772066489161,,,0,,1576079772,66413079,"""world""","""hoverOpti/base_link""",,,-0.31344884634,0.0218169726431,0.314615666866,,0.00269349152327,0.042066998885,-0.00654989005512,0.999089691493
1576079772086456040,,,0,,1576079772,86386645,"""world""","""hoverOpti/base_link""",,,-0.313327252865,0.0218912549317,0.314650893211,,0.00216106732163,0.0422942837802,-0.0055586548147,0.999087395929
1576079772106537674,,,0,,1576079772,106461094,"""world""","""hoverOpti/base_link""",,,-0.313458502293,0.0218005273491,0.314637750387,,0.002125991166,0.0418086738205,-0.00705170036283,0.999098487876
1576079772126371902,,,0,,1576079772,126302299,"""world""","""hoverOpti/base_link""",,,-0.313427835703,0.0217903181911,0.314625680447,,0.00176425312004,0.0416499373684,-0.00689187129361,0.999106937339
1576079772146500938,,,0,,1576079772,146423436,"""world""","""hoverOpti/base_link""",,,-0.313398778439,0.0217701885849,0.314601957798,,0.00251262636123,0.0422473216467,-0.00721386963021,0.999077980243
1576079772166466413,,,0,,1576079772,166388076,"""world""","""hoverOpti/base_link""",,,-0.31336030364,0.02176293917,0.314632147551,,0.00176896806202,0.0420510059648,-0.00657303489361,0.999092277451
1576079772186740035,,,0,,1576079772,186662069,"""world""","""hoverOpti/base_link""",,,-0.313446998596,0.0217874795198,0.314629822969,,0.00170158430145,0.0416900995629,-0.00689001467563,0.999105383784
1576079772206925555,,,0,,1576079772,206856686,"""world""","""hoverOpti/base_link""",,,-0.313381373882,0.0217425543815,0.314594268799,,0.0021825201001,0.042126634493,-0.00717717274104,0.99908411631
1576079772226551059,,,0,,1576079772,226483422,"""world""","""hoverOpti/base_link""",,,-0.31338045001,0.0218333806843,0.314587235451,,0.00190784849344,0.0421058541229,-0.00652901499893,0.999090000513
1576079772246432538,,,0,,1576079772,246350547,"""world""","""hoverOpti/base_link""",,,-0.313431829214,0.0217888895422,0.314625859261,,0.00178272047561,0.041609319845,-0.00676647451202,0.99910945408
1576079772266890893,,,0,,1576079772,266811264,"""world""","""hoverOpti/base_link""",,,-0.313452124596,0.02178215608,0.314580798149,,0.00230971706338,0.0419178908674,-0.00685283024223,0.999094887561
1576079772286591558,,,0,,1576079772,286496349,"""world""","""hoverOpti/base_link""",,,-0.313457012177,0.0218443404883,0.314606964588,,0.0023882379844,0.0419512538012,-0.00654811397253,0.999095346214
1576079772306450414,,,0,,1576079772,306347292,"""world""","""hoverOpti/base_link""",,,-0.313449621201,0.0217609852552,0.314607143402,,0.00201189405528,0.0417261765187,-0.0071158522281,0.999101718106
1576079772326692715,,,0,,1576079772,326592836,"""world""","""hoverOpti/base_link""",,,-0.313295036554,0.0218142140657,0.314676314592,,0.00125653718483,0.0422009832859,-0.00577293202083,0.999091673161
1576079772346447159,,,0,,1576079772,346347458,"""world""","""hoverOpti/base_link""",,,-0.313444823027,0.0217468682677,0.314601063728,,0.0024985262141,0.0420515736395,-0.00661253564832,0.999090434792
1576079772366945623,,,0,,1576079772,366848048,"""world""","""hoverOpti/base_link""",,,-0.313448160887,0.0218008309603,0.314583450556,,0.00226468781371,0.0419230943678,-0.00669777005097,0.999095823845
1576079772386453228,,,0,,1576079772,386352225,"""world""","""hoverOpti/base_link""",,,-0.313359230757,0.0218058545142,0.314593881369,,0.002373222133,0.0422065495914,-0.0062364257285,0.999086623863
1576079772406580306,,,0,,1576079772,406498324,"""world""","""hoverOpti/base_link""",,,-0.313371956348,0.0218382328749,0.314679652452,,0.00123102543327,0.0417364722119,-0.00592340526323,0.999110336616
1576079772426649858,,,0,,1576079772,426556970,"""world""","""hoverOpti/base_link""",,,-0.313297778368,0.0218228027225,0.314660996199,,0.0014954677289,0.0421900790072,-0.00582782272348,0.999091485947
1576079772446445483,,,0,,1576079772,446372984,"""world""","""hoverOpti/base_link""",,,-0.31335863471,0.0217996593565,0.314600408077,,0.00222416247802,0.0421572995882,-0.00627737899112,0.999088789701
1576079772467365748,,,0,,1576079772,467295665,"""world""","""hoverOpti/base_link""",,,-0.313365936279,0.0218825563788,0.314644962549,,0.00154780133148,0.0418973763371,-0.00551262837212,0.999105512494
1576079772486390150,,,0,,1576079772,486304066,"""world""","""hoverOpti/base_link""",,,-0.313439637423,0.0218171663582,0.314603447914,,0.00202512704356,0.0417672069943,-0.00639504524315,0.999104850692
1576079772506341743,,,0,,1576079772,506269123,"""world""","""hoverOpti/base_link""",,,-0.31344011426,0.0218074489385,0.314597129822,,0.002173606796,0.0417561416448,-0.00656979607636,0.999103867397
1576079772526650204,,,0,,1576079772,526560960,"""world""","""hoverOpti/base_link""",,,-0.313447326422,0.0217652525753,0.314608097076,,0.00186951779039,0.0418141274752,-0.00709673367003,0.999098453616
1576079772547104607,,,0,,1576079772,547038115,"""world""","""hoverOpti/base_link""",,,-0.313441812992,0.021811356768,0.314603179693,,0.00222241331989,0.0417382696456,-0.0064780355016,0.999105105973
1576079772566470101,,,0,,1576079772,566403324,"""world""","""hoverOpti/base_link""",,,-0.313428789377,0.0217446424067,0.314647257328,,0.00182636574529,0.0417950384678,-0.00661002763791,0.999102670741
1576079772586477920,,,0,,1576079772,586394688,"""world""","""hoverOpti/base_link""",,,-0.313366383314,0.0217874888331,0.314587503672,,0.00246399485474,0.0421457822308,-0.00642013089374,0.999087805795
1576079772606629251,,,0,,1576079772,606559803,"""world""","""hoverOpti/base_link""",,,-0.313432127237,0.0218106042594,0.314611494541,,0.00190096103469,0.0417890100389,-0.00638325696715,0.999104258332
1576079772626457356,,,0,,1576079772,626387902,"""world""","""hoverOpti/base_link""",,,-0.313443303108,0.0217499136925,0.314602583647,,0.0019285117058,0.0417731091473,-0.00723848838776,0.999099040376
1576079772647832033,,,0,,1576079772,647742951,"""world""","""hoverOpti/base_link""",,,-0.313434839249,0.0217800009996,0.314632952213,,0.00165266228865,0.0416364929462,-0.00694817209629,0.999107298576
1576079772666469421,,,0,,1576079772,666401097,"""world""","""hoverOpti/base_link""",,,-0.313361257315,0.0217687338591,0.314623534679,,0.00190232043604,0.0420701183038,-0.00680658976154,0.999089663974
1576079772686856799,,,0,,1576079772,686761116,"""world""","""hoverOpti/base_link""",,,-0.31343203783,0.0217780452222,0.314632356167,,0.00167189334911,0.0416159102463,-0.00690984607871,0.999108389923
1576079772707774877,,,0,,1576079772,707688671,"""world""","""hoverOpti/base_link""",,,-0.313389539719,0.021760256961,0.314599603415,,0.00247204289566,0.0422662323318,-0.0072740116642,0.999076845574
1576079772726419525,,,0,,1576079772,726344019,"""world""","""hoverOpti/base_link""",,,-0.313443034887,0.0217906329781,0.314636677504,,0.00225436184771,0.0417726871217,-0.00741149579591,0.999097107489
1576079772746373564,,,0,,1576079772,746290203,"""world""","""hoverOpti/base_link""",,,-0.313434571028,0.0217778999358,0.314633876085,,0.00177818510332,0.041647105673,-0.00692425981964,0.999106806739
1576079772766574285,,,0,,1576079772,766485909,"""world""","""hoverOpti/base_link""",,,-0.313390463591,0.0218639485538,0.314667016268,,0.00151586675391,0.0418884432554,-0.00626158353048,0.99910152289
1576079772786550778,,,0,,1576079772,786462106,"""world""","""hoverOpti/base_link""",,,-0.313466012478,0.0218404084444,0.314609348774,,0.00248729208965,0.0419297633199,-0.00672571961407,0.999094826842
1576079772806462617,,,0,,1576079772,806377016,"""world""","""hoverOpti/base_link""",,,-0.313379377127,0.0217792056501,0.314584523439,,0.00267457937836,0.0425170919571,-0.00690633228888,0.999068289003
1576079772826491554,,,0,,1576079772,826421001,"""world""","""hoverOpti/base_link""",,,-0.313292533159,0.0218068342656,0.3146699965,,0.0012909391926,0.0422166370219,-0.00576407701561,0.999091019102
1576079772846557547,,,0,,1576079772,846459279,"""world""","""hoverOpti/base_link""",,,-0.313410103321,0.0218585487455,0.314644396305,,0.00172821603771,0.0416997439878,-0.005848660491,0.999111574245
1576079772866440382,,,0,,1576079772,866357608,"""world""","""hoverOpti/base_link""",,,-0.313449591398,0.0217720959336,0.314667284489,,0.00150153173072,0.0414511503403,-0.00698316574551,0.999114999854
1576079772886573108,,,0,,1576079772,886493891,"""world""","""hoverOpti/base_link""",,,-0.313453108072,0.021801341325,0.314581662416,,0.00224115333902,0.041931588863,-0.00672063694571,0.999095366883
1576079772906387638,,,0,,1576079772,906304701,"""world""","""hoverOpti/base_link""",,,-0.313443362713,0.0218306258321,0.314605653286,,0.00213333997453,0.0417620774085,-0.00637418550267,0.999104973219
1576079773034969822,,,0,,1576079773,34724304,"""world""","""hoverOpti/base_link""",,,-0.31345641613,0.0217378251255,0.31461763382,,0.00177766585374,0.0418281762533,-0.00716484450063,0.999097547079
1576079773035235711,,,0,,1576079773,35078318,"""world""","""hoverOpti/base_link""",,,-0.313373148441,0.0218791589141,0.314645916224,,0.0015694997484,0.0419425789863,-0.00557301718412,0.999103247026
1576079773035495065,,,0,,1576079773,35336212,"""world""","""hoverOpti/base_link""",,,-0.313362181187,0.0217620190233,0.314656436443,,0.00166109497894,0.0418101936081,-0.00693046822521,0.99910015368
1576079773035745819,,,0,,1576079773,35608976,"""world""","""hoverOpti/base_link""",,,-0.31338083744,0.0217471309006,0.314602077007,,0.00217542601239,0.04209845323,-0.0070513399859,0.99908621568
1576079773035997344,,,0,,1576079773,35852280,"""world""","""hoverOpti/base_link""",,,-0.313442707062,0.0217936504632,0.314576983452,,0.00230510836835,0.0419751333576,-0.0066811968949,0.999093657403
1576079773046734378,,,0,,1576079773,46637180,"""world""","""hoverOpti/base_link""",,,-0.313463151455,0.0218141060323,0.314629077911,,0.00212037228887,0.0417350700209,-0.00708233769618,0.999101360446
1576079773068411680,,,0,,1576079773,68289204,"""world""","""hoverOpti/base_link""",,,-0.313462287188,0.0217562224716,0.314612448215,,0.00257529860137,0.0419359738943,-0.00740980421608,0.999089503864
1576079773172160544,,,0,,1576079773,172067734,"""world""","""hoverOpti/base_link""",,,-0.313449949026,0.021800532937,0.314585119486,,0.00293458794097,0.0420911435524,-0.00675684777917,0.999086617284
1576079773172292132,,,0,,1576079773,172234476,"""world""","""hoverOpti/base_link""",,,-0.313395023346,0.0217539034784,0.314637184143,,0.00223668078316,0.042060389306,-0.00760547150203,0.99908361898
1576079773172422439,,,0,,1576079773,172355586,"""world""","""hoverOpti/base_link""",,,-0.313456118107,0.0217915233225,0.314576089382,,0.00236674346702,0.0418940401316,-0.00677966964319,0.999096253624
1576079773172553580,,,0,,1576079773,172494966,"""world""","""hoverOpti/base_link""",,,-0.313443034887,0.0217856634408,0.314585030079,,0.0021492996881,0.0419960388573,-0.00658621303752,0.999093756876
1576079773172662836,,,0,,1576079773,172606983,"""world""","""hoverOpti/base_link""",,,-0.313375800848,0.021718967706,0.314625889063,,0.00193943110385,0.0419373495345,-0.00731452711213,0.999091584898
1576079773186388051,,,0,,1576079773,186319868,"""world""","""hoverOpti/base_link""",,,-0.313442677259,0.0217501167208,0.314621865749,,0.00175656470839,0.0418181353065,-0.00696417827202,0.999099423612
1576079773206480919,,,0,,1576079773,206397642,"""world""","""hoverOpti/base_link""",,,-0.313448190689,0.0217496547848,0.314603686333,,0.00196567044632,0.0417113194141,-0.00717177693245,0.99910203062
1576079773311783330,,,0,,1576079773,311583552,"""world""","""hoverOpti/base_link""",,,-0.313405752182,0.0218024030328,0.314683258533,,0.0015660737356,0.0416224634747,-0.00604191792973,0.999113914013
1576079773311832362,,,0,,1576079773,311743983,"""world""","""hoverOpti/base_link""",,,-0.31344628334,0.0218004453927,0.314584702253,,0.0021843661548,0.0419389353574,-0.00667938604101,0.999095460928
1576079773311962376,,,0,,1576079773,311895207,"""world""","""hoverOpti/base_link""",,,-0.31345140934,0.0217458084226,0.31461417675,,0.00177940430525,0.0418204989375,-0.00711594549703,0.999098214846
1576079773312122987,,,0,,1576079773,312015907,"""world""","""hoverOpti/base_link""",,,-0.313373476267,0.0217373073101,0.314599215984,,0.00218560443256,0.0421269777036,-0.00713098760786,0.999084425811
1576079773312261784,,,0,,1576079773,312150422,"""world""","""hoverOpti/base_link""",,,-0.313381552696,0.0218599494547,0.314662545919,,0.00150232912189,0.0419396195799,-0.00544259785807,0.999104193488
1576079773326681677,,,0,,1576079773,326587807,"""world""","""hoverOpti/base_link""",,,-0.313360601664,0.0217380747199,0.314663529396,,0.00158172234171,0.0417944474237,-0.00682628872581,0.999101658542
1576079773346455456,,,0,,1576079773,346365728,"""world""","""hoverOpti/base_link""",,,-0.313373565674,0.0218450725079,0.31466782093,,0.00125021862495,0.041748945502,-0.00592790928376,0.999109764938
1576079773387468305,,,0,,1576079773,387386411,"""world""","""hoverOpti/base_link""",,,-0.313470065594,0.0217744857073,0.314636409283,,0.00209109206151,0.0417011157472,-0.00774210320396,0.999097945207
1576079773387691753,,,0,,1576079773,387537848,"""world""","""hoverOpti/base_link""",,,-0.31345975399,0.0218152366579,0.314644753933,,0.00200523083285,0.0417900674121,-0.00701513129015,0.99909977342
1576079773406998175,,,0,,1576079773,406916775,"""world""","""hoverOpti/base_link""",,,-0.313376158476,0.0218856520951,0.314644366503,,0.00161951505308,0.0418689679223,-0.0055214122258,0.999106541217
1576079773426576368,,,0,,1576079773,426499855,"""world""","""hoverOpti/base_link""",,,-0.313370496035,0.0217710509896,0.314584940672,,0.00229760958268,0.0424128622529,-0.00646563294498,0.99907660652
1576079773483406306,,,0,,1576079773,483328655,"""world""","""hoverOpti/base_link""",,,-0.313382893801,0.0218334048986,0.314598292112,,0.00269541519385,0.0423626233733,-0.00644168347707,0.99907789866
1576079773483568085,,,0,,1576079773,483490526,"""world""","""hoverOpti/base_link""",,,-0.313378572464,0.0218571871519,0.314658820629,,0.00146541528597,0.0419510808358,-0.00544731481698,0.999103741428
1576079773486419108,,,0,,1576079773,486341329,"""world""","""hoverOpti/base_link""",,,-0.313454300165,0.0218473784626,0.314609259367,,0.00246125398648,0.041981854804,-0.00669092412851,0.999092937434
1576079773506474959,,,0,,1576079773,506408959,"""world""","""hoverOpti/base_link""",,,-0.31335413456,0.0217586290091,0.31465703249,,0.00167718619612,0.0417757100783,-0.00688006482841,0.999101917625
1576079773528510099,,,0,,1576079773,528437671,"""world""","""hoverOpti/base_link""",,,-0.313466340303,0.021798318252,0.314618706703,,0.00222968578625,0.041890537183,-0.00736264941646,0.999092589698
1576079773715209394,,,0,,1576079773,715089050,"""world""","""hoverOpti/base_link""",,,-0.31343922019,0.0217711683363,0.314636826515,,0.00156438978523,0.0417142471035,-0.0067746848454,0.999105388795
1576079773715419398,,,0,,1576079773,715266527,"""world""","""hoverOpti/base_link""",,,-0.313432782888,0.0218243673444,0.314606428146,,0.00213382548239,0.041855821706,-0.00639030826009,0.99910094632
1576079773715611637,,,0,,1576079773,715547594,"""world""","""hoverOpti/base_link""",,,-0.313449680805,0.0217576865107,0.314606398344,,0.00197778229269,0.0417696909262,-0.00723549707644,0.999099108637
1576079773715729862,,,0,,1576079773,715667583,"""world""","""hoverOpti/base_link""",,,-0.313446193933,0.0217314846814,0.31464022398,,0.00173533495283,0.0415756620666,-0.00752738058477,0.99910549567
1576079773715841596,,,0,,1576079773,715785467,"""world""","""hoverOpti/base_link""",,,-0.313429921865,0.0218240246177,0.314601510763,,0.00212704955444,0.0418118987501,-0.0063885678112,0.999102811018
1576079773715989066,,,0,,1576079773,715931865,"""world""","""hoverOpti/base_link""",,,-0.313434630632,0.0217902176082,0.314631134272,,0.00176593369938,0.0416340203667,-0.00673552789692,0.999108664005
1576079773716105727,,,0,,1576079773,716044486,"""world""","""hoverOpti/base_link""",,,-0.313355505466,0.0217756442726,0.314626812935,,0.00194628139446,0.0420053833795,-0.00674948004332,0.999092690532
1576079773716219970,,,0,,1576079773,716165022,"""world""","""hoverOpti/base_link""",,,-0.313436001539,0.0217843577266,0.314634025097,,0.00175544706989,0.0416479814625,-0.0068152260752,0.999107560145
1576079773716331889,,,0,,1576079773,716278571,"""world""","""hoverOpti/base_link""",,,-0.313385754824,0.0218373257667,0.314678281546,,0.00117808367047,0.0417344966466,-0.00597268277121,0.999110189603
1576079773726558810,,,0,,1576079773,726493901,"""world""","""hoverOpti/base_link""",,,-0.313372433186,0.0218505188823,0.314680457115,,0.00125071432645,0.0417292908798,-0.00598049588149,0.999110272025
1576079773746686221,,,0,,1576079773,746593408,"""world""","""hoverOpti/base_link""",,,-0.313449531794,0.0218016728759,0.314578652382,,0.00245834100857,0.0418845571003,-0.00681320435314,0.999096201916
1576079773814051757,,,0,,1576079773,813965852,"""world""","""hoverOpti/base_link""",,,-0.313434481621,0.0217606890947,0.314649224281,,0.00203848287242,0.0417188520242,-0.00673716971395,0.999104595384
1576079773814188256,,,0,,1576079773,814117934,"""world""","""hoverOpti/base_link""",,,-0.313434332609,0.0217708479613,0.31465190649,,0.00196609079197,0.0417513867421,-0.00660258364698,0.999104279883
1576079773814307691,,,0,,1576079773,814250176,"""world""","""hoverOpti/base_link""",,,-0.313436746597,0.0217878427356,0.31463265419,,0.00170901778574,0.0416018664727,-0.00679713114916,0.999109685156
1576079773826509016,,,0,,1576079773,826423078,"""world""","""hoverOpti/base_link""",,,-0.313317149878,0.021885490045,0.314640700817,,0.00222485492689,0.0424841239236,-0.00577203705613,0.999077991362
1576079773846596385,,,0,,1576079773,846528265,"""world""","""hoverOpti/base_link""",,,-0.313360273838,0.021757716313,0.314657121897,,0.00165684516481,0.0417434606465,-0.00679748764203,0.99910386473
1576079773899231933,,,0,,1576079773,899148071,"""world""","""hoverOpti/base_link""",,,-0.313416004181,0.0217674300075,0.314603060484,,0.00159637142376,0.041949779146,-0.00663681101015,0.999096401939
1576079773899363259,,,0,,1576079773,899309988,"""world""","""hoverOpti/base_link""",,,-0.313442826271,0.0217627603561,0.31460249424,,0.00196794615576,0.0417322113266,-0.00724688398519,0.99910061175
1576079773906464549,,,0,,1576079773,906402268,"""world""","""hoverOpti/base_link""",,,-0.313431113958,0.021769464016,0.314595252275,,0.00259066399003,0.0420295674864,-0.00658960041711,0.999091277654
1576079773926558325,,,0,,1576079773,926496816,"""world""","""hoverOpti/base_link""",,,-0.313438862562,0.0217644162476,0.314636468887,,0.00165642687723,0.0416274810097,-0.00677353772291,0.999108867072
1576079774127510506,,,0,,1576079774,127360921,"""world""","""hoverOpti/base_link""",,,-0.313378304243,0.021881788969,0.314647436142,,0.00170216817627,0.0419029424359,-0.00551981079927,0.999104988341
1576079774127654517,,,0,,1576079774,127586501,"""world""","""hoverOpti/base_link""",,,-0.313428759575,0.0218160692602,0.314610272646,,0.00218684674743,0.0417934399768,-0.00632087045014,0.999103884825
1576079774127797644,,,0,,1576079774,127719521,"""world""","""hoverOpti/base_link""",,,-0.313441038132,0.0217973198742,0.314583152533,,0.0023181622285,0.0419829299774,-0.00670932137386,0.999093111137
1576079774127906302,,,0,,1576079774,127835807,"""world""","""hoverOpti/base_link""",,,-0.313431173563,0.0217882581055,0.314634263515,,0.00165368824446,0.0416217963634,-0.00671606271215,0.999109496444
1576079774128036336,,,0,,1576079774,127968967,"""world""","""hoverOpti/base_link""",,,-0.313445538282,0.0218043681234,0.31461006403,,0.00203170169196,0.0418337923577,-0.00633165843034,0.99910245526
1576079774128184063,,,0,,1576079774,128113265,"""world""","""hoverOpti/base_link""",,,-0.313436597586,0.021806159988,0.314605265856,,0.00215212053151,0.0417837729694,-0.0065884315075,0.999102636001
1576079774128307176,,,0,,1576079774,128250591,"""world""","""hoverOpti/base_link""",,,-0.313453555107,0.0217871312052,0.314586520195,,0.00231585086717,0.0419025298301,-0.00685064802453,0.999095532695
1576079774128438335,,,0,,1576079774,128365648,"""world""","""hoverOpti/base_link""",,,-0.313437134027,0.021760456264,0.314612627029,,0.0019369897296,0.0417745972263,-0.00710566717934,0.999099915219
1576079774128549167,,,0,,1576079774,128492916,"""world""","""hoverOpti/base_link""",,,-0.313443571329,0.0217364691198,0.314614862204,,0.00219844104108,0.0418520542037,-0.00706137204265,0.999096446516
1576079774128670647,,,0,,1576079774,128615876,"""world""","""hoverOpti/base_link""",,,-0.313446968794,0.0217925366014,0.314593762159,,0.00228870262949,0.0419005749219,-0.00686000702714,0.999095613025
1576079774146452345,,,0,,1576079774,146349197,"""world""","""hoverOpti/base_link""",,,-0.313366770744,0.0217847656459,0.314603179693,,0.00213977427571,0.0422350929168,-0.00614551004591,0.999086508266
1576079774166427660,,,0,,1576079774,166342801,"""world""","""hoverOpti/base_link""",,,-0.313443750143,0.0218006409705,0.314584195614,,0.00226871758867,0.0419577912367,-0.00673425280173,0.999094112941
1576079774361065043,,,0,,1576079774,360880955,"""world""","""hoverOpti/base_link""",,,-0.313376009464,0.0218849424273,0.314653366804,,0.00158245557157,0.0418244565051,-0.00555298803146,0.999108289925
1576079774361114585,,,0,,1576079774,361020540,"""world""","""hoverOpti/base_link""",,,-0.313437491655,0.0217733643949,0.314583033323,,0.00213123871392,0.0419840085443,-0.00657418712343,0.999094380382
1576079774361235356,,,0,,1576079774,361146422,"""world""","""hoverOpti/base_link""",,,-0.313446164131,0.0217398293316,0.314634650946,,0.00165533318012,0.0415898814795,-0.00741865845141,0.999105852819
1576079774361335306,,,0,,1576079774,361271235,"""world""","""hoverOpti/base_link""",,,-0.313451617956,0.0217610802501,0.314610362053,,0.00199235443596,0.041741133441,-0.00719262066334,0.99910058278
1576079774361448594,,,0,,1576079774,361388602,"""world""","""hoverOpti/base_link""",,,-0.313439786434,0.0217648018152,0.314610749483,,0.00198840564519,0.0417880054019,-0.00705144572316,0.999099637654
1576079774361558868,,,0,,1576079774,361502430,"""world""","""hoverOpti/base_link""",,,-0.313368618488,0.0218525771052,0.314667284489,,0.00186884025775,0.0420195784523,-0.00538277518721,0.999100539583
1576079774361672509,,,0,,1576079774,361613701,"""world""","""hoverOpti/base_link""",,,-0.313440412283,0.0218323282897,0.314600110054,,0.00223824247753,0.0417937944898,-0.00650751001717,0.999102557962
1576079774361828543,,,0,,1576079774,361728495,"""world""","""hoverOpti/base_link""",,,-0.313447415829,0.0217875130475,0.314579248428,,0.00236312553144,0.0419000605503,-0.00675122198642,0.999096202358
1576079774361977847,,,0,,1576079774,361848781,"""world""","""hoverOpti/base_link""",,,-0.313429921865,0.0217734575272,0.31463187933,,0.00149244535981,0.0417019544052,-0.0067186173519,0.999106390624
1576079774366380825,,,0,,1576079774,366313960,"""world""","""hoverOpti/base_link""",,,-0.313393056393,0.0218024328351,0.314562857151,,0.00238142464977,0.042179587783,-0.00680732613173,0.999084016238
1576079774386297452,,,0,,1576079774,386183141,"""world""","""hoverOpti/base_link""",,,-0.313429176807,0.0218262579292,0.31459993124,,0.00208258686361,0.041812570152,-0.00633953008509,0.999103188949
1576079774587219923,,,0,,1576079774,587085470,"""world""","""hoverOpti/base_link""",,,-0.313455849886,0.0217798184603,0.31457978487,,0.00212551073605,0.0420200224454,-0.00666131758482,0.999092301425
1576079774587377988,,,0,,1576079774,587310014,"""world""","""hoverOpti/base_link""",,,-0.313443869352,0.0217600855976,0.314605027437,,0.00203177635809,0.0417511798958,-0.00715849130369,0.999100328728
1576079774587565116,,,0,,1576079774,587480571,"""world""","""hoverOpti/base_link""",,,-0.313454627991,0.0218007154763,0.314574033022,,0.00234535754141,0.0419114080463,-0.00683548530067,0.999095195321
1576079774587744765,,,0,,1576079774,587638623,"""world""","""hoverOpti/base_link""",,,-0.313438922167,0.0218336936086,0.314606040716,,0.00214327772823,0.0418096061571,-0.00646410585449,0.999102386409
1576079774587954737,,,0,,1576079774,587820495,"""world""","""hoverOpti/base_link""",,,-0.313450068235,0.0217923615128,0.314584583044,,0.00231648127912,0.0419464381341,-0.00690035848435,0.999093346637
1576079774589659367,,,0,,1576079774,588031564,"""world""","""hoverOpti/base_link""",,,-0.313436150551,0.0218161251396,0.31460505724,,0.00208990777573,0.0418205091179,-0.00635847137916,0.999102721017
1576079774589667891,,,0,,1576079774,588156648,"""world""","""hoverOpti/base_link""",,,-0.313431233168,0.0218355003744,0.314600676298,,0.00208150417781,0.041799501365,-0.00639005984795,0.999103416149
1576079774589674197,,,0,,1576079774,588274347,"""world""","""hoverOpti/base_link""",,,-0.313448935747,0.0218017101288,0.31458106637,,0.00235911487741,0.0418669852348,-0.00677593208535,0.999097431119
1576079774589677537,,,0,,1576079774,588384002,"""world""","""hoverOpti/base_link""",,,-0.313430249691,0.021805934608,0.314609795809,,0.00201010688865,0.0418494125899,-0.00631019006342,0.999101980599
1576079774589681173,,,0,,1576079774,588487262,"""world""","""hoverOpti/base_link""",,,-0.313456356525,0.0217933859676,0.314582914114,,0.00231952143677,0.0419945108726,-0.00679919476612,0.999092013694
1576079774606459532,,,0,,1576079774,606370919,"""world""","""hoverOpti/base_link""",,,-0.313372343779,0.0217854976654,0.314582496881,,0.00257782771012,0.0423125241033,-0.0067130344091,0.9990785456
1576079774626675266,,,0,,1576079774,626602700,"""world""","""hoverOpti/base_link""",,,-0.313364446163,0.0218522753567,0.314661800861,,0.00179633460934,0.0420355801364,-0.00541366967165,0.999099832532
1576079774815435221,,,0,,1576079774,815298855,"""world""","""hoverOpti/base_link""",,,-0.31337121129,0.0218452457339,0.314679205418,,0.00117841825056,0.0417522812692,-0.00592756486292,0.999109714853
1576079774815550924,,,0,,1576079774,815455109,"""world""","""hoverOpti/base_link""",,,-0.31344127655,0.0218000654131,0.314609229565,,0.00194526676006,0.0418532844046,-0.00623362622479,0.999102427395
1576079774815702085,,,0,,1576079774,815589370,"""world""","""hoverOpti/base_link""",,,-0.313448548317,0.0217909757048,0.314581394196,,0.00239972917034,0.0419241385239,-0.00681714947058,0.999094657368
1576079774816391213,,,0,,1576079774,815720794,"""world""","""hoverOpti/base_link""",,,-0.313444674015,0.0217814501375,0.314581394196,,0.00221961873825,0.0419980357228,-0.00663098359306,0.99909322305
1576079774816417514,,,0,,1576079774,815842446,"""world""","""hoverOpti/base_link""",,,-0.313420981169,0.0217715874314,0.314659416676,,0.00145801048387,0.0414736637334,-0.00699441574045,0.999114051333
1576079774816421825,,,0,,1576079774,816023630,"""world""","""hoverOpti/base_link""",,,-0.313441902399,0.0217864643782,0.314627945423,,0.00173248655084,0.0416116020249,-0.00687093202045,0.999108734503
1576079774816424325,,,0,,1576079774,816158134,"""world""","""hoverOpti/base_link""",,,-0.313434302807,0.0217705629766,0.314588278532,,0.00251955169115,0.0420141522545,-0.00656171801897,0.999092291396
1576079774817624880,,,0,,1576079774,816439042,"""world""","""hoverOpti/base_link""",,,-0.313438981771,0.0218005683273,0.3145788908,,0.00224809814123,0.0419505685341,-0.00672200880582,0.999094545302
1576079774817633174,,,0,,1576079774,816567191,"""world""","""hoverOpti/base_link""",,,-0.313464045525,0.0217981673777,0.314590990543,,0.00290650719386,0.0419746689766,-0.00735159133066,0.999087400323
1576079774826404177,,,0,,1576079774,826302847,"""world""","""hoverOpti/base_link""",,,-0.313470959663,0.0217789076269,0.314611673355,,0.00217650775767,0.0419120250833,-0.00741645897943,0.999091407782
1576079774846378048,,,0,,1576079774,846305988,"""world""","""hoverOpti/base_link""",,,-0.313433378935,0.0217296648771,0.314648330212,,0.00191090960807,0.041667770625,-0.00708261767932,0.999104590042
1576079775044392638,,,0,,1576079775,44244121,"""world""","""hoverOpti/base_link""",,,-0.313376784325,0.0217218883336,0.314604908228,,0.00209815532114,0.0421833595426,-0.00699101115766,0.999083223603
1576079775044450667,,,0,,1576079775,44377727,"""world""","""hoverOpti/base_link""",,,-0.313441723585,0.0217658393085,0.314613819122,,0.00183578156753,0.0417271953411,-0.0071554242637,0.999101732047
1576079775044576220,,,0,,1576079775,44513231,"""world""","""hoverOpti/base_link""",,,-0.313370764256,0.0217308141291,0.314606517553,,0.00203185556424,0.0421694899262,-0.0068340941025,0.999085031837
1576079775044706001,,,0,,1576079775,44647084,"""world""","""hoverOpti/base_link""",,,-0.313454657793,0.021758787334,0.314616888762,,0.00256673610021,0.0419481046478,-0.00721295617942,0.999090457189
1576079775044829034,,,0,,1576079775,44775124,"""world""","""hoverOpti/base_link""",,,-0.313365370035,0.0217277947813,0.314605712891,,0.00204995407619,0.0421650992123,-0.0068897379199,0.999084798007
1576079775044955913,,,0,,1576079775,44902338,"""world""","""hoverOpti/base_link""",,,-0.313424915075,0.0218000598252,0.314610004425,,0.00231637092675,0.0419217619819,-0.00623207127689,0.999098774689
1576079775045090422,,,0,,1576079775,45033981,"""world""","""hoverOpti/base_link""",,,-0.313440203667,0.0217892285436,0.314635902643,,0.00183789788333,0.0416378789101,-0.00693993209058,0.99910697451
1576079775045231091,,,0,,1576079775,45159745,"""world""","""hoverOpti/base_link""",,,-0.313435554504,0.0218177028,0.314604401588,,0.00207803499123,0.0417764080864,-0.00646794771452,0.999103888067
1576079775045385270,,,0,,1576079775,45312811,"""world""","""hoverOpti/base_link""",,,-0.313434720039,0.0218030977994,0.314578354359,,0.00232529042659,0.0419325279128,-0.00663145680587,0.999095731103
1576079775046343464,,,0,,1576079775,46284649,"""world""","""hoverOpti/base_link""",,,-0.313450157642,0.0217345450073,0.314635306597,,0.00167323839859,0.0415779856393,-0.00747626942145,0.999105888672
1576079775066343310,,,0,,1576079775,66275620,"""world""","""hoverOpti/base_link""",,,-0.313362449408,0.0217873603106,0.31462174654,,0.0019412011388,0.0420301452142,-0.0068088746436,0.999091256021
1576079775271897249,,,0,,1576079775,271750274,"""world""","""hoverOpti/base_link""",,,-0.313437998295,0.021822988987,0.314602434635,,0.00209305055822,0.0418270700456,-0.0064237381025,0.999102022288
1576079775272005766,,,0,,1576079775,271924458,"""world""","""hoverOpti/base_link""",,,-0.313436955214,0.0217943172902,0.314635396004,,0.00165778958621,0.0416618402624,-0.00676537403611,0.999107487968
1576079775272112846,,,0,,1576079775,272040194,"""world""","""hoverOpti/base_link""",,,-0.313437998295,0.0217708069831,0.314599066973,,0.00192389894521,0.0417958922298,-0.00714309241878,0.999098783022
1576079775272211272,,,0,,1576079775,272157459,"""world""","""hoverOpti/base_link""",,,-0.3134316504,0.021799499169,0.314603984356,,0.00194518023721,0.0418334094168,-0.00629252344237,0.999102890737
1576079775272335473,,,0,,1576079775,272285022,"""world""","""hoverOpti/base_link""",,,-0.313425183296,0.0217877756804,0.314622581005,,0.00174312461543,0.0416422964244,-0.00686256562216,0.999107494646
1576079775272459827,,,0,,1576079775,272410677,"""world""","""hoverOpti/base_link""",,,-0.313395828009,0.0219070017338,0.314645707607,,0.00194090691517,0.0420398176762,-0.00581381217973,0.999097135517
1576079775272630340,,,0,,1576079775,272549102,"""world""","""hoverOpti/base_link""",,,-0.313444107771,0.0217562373728,0.314605355263,,0.00199543168899,0.0417677938865,-0.00724861059319,0.999099057797
1576079775272749117,,,0,,1576079775,272685361,"""world""","""hoverOpti/base_link""",,,-0.313434332609,0.0217916443944,0.31462714076,,0.0017092143969,0.0416746955487,-0.0068252221091,0.999106458132
1576079775272915897,,,0,,1576079775,272836414,"""world""","""hoverOpti/base_link""",,,-0.313371688128,0.0217237323523,0.314633309841,,0.00203136311927,0.0419524990437,-0.00718535216958,0.99909170355
1576079775273047876,,,0,,1576079775,272977695,"""world""","""hoverOpti/base_link""",,,-0.313445955515,0.0218095257878,0.314582467079,,0.00229586425851,0.0419303696346,-0.00670029961661,0.999095430424
1576079775286322343,,,0,,1576079775,286237075,"""world""","""hoverOpti/base_link""",,,-0.313443601131,0.0217981766909,0.314584106207,,0.00224979090563,0.0419125790065,-0.00673778170972,0.999096029649
1576079775306342416,,,0,,1576079775,306254659,"""world""","""hoverOpti/base_link""",,,-0.313449919224,0.0217766351998,0.314583539963,,0.00231597115174,0.0419040146129,-0.00676838823492,0.999096030799
1576079775500058202,,,0,,1576079775,499909781,"""world""","""hoverOpti/base_link""",,,-0.313444823027,0.0217090062797,0.314624935389,,0.00201607389225,0.0419066371921,-0.00689972798838,0.999095672575
1576079775500244209,,,0,,1576079775,500099316,"""world""","""hoverOpti/base_link""",,,-0.313446938992,0.0217544715852,0.314614146948,,0.00193461718742,0.0417436711248,-0.00715372765832,0.999100869461
1576079775500357279,,,0,,1576079775,500275062,"""world""","""hoverOpti/base_link""",,,-0.313440173864,0.0218082163483,0.31460365653,,0.00195782326013,0.0418858447337,-0.00632069948875,0.999100491291
1576079775500472197,,,0,,1576079775,500419237,"""world""","""hoverOpti/base_link""",,,-0.313451200724,0.02179046534,0.314624816179,,0.00183561212265,0.0415745304875,-0.00695513564447,0.99910951103
1576079775500626759,,,0,,1576079775,500556460,"""world""","""hoverOpti/base_link""",,,-0.313436925411,0.0218205284327,0.314602434635,,0.00210352345195,0.0417512889802,-0.00639862247597,0.999105331128
1576079775500747336,,,0,,1576079775,500692650,"""world""","""hoverOpti/base_link""",,,-0.313442766666,0.0217778235674,0.314626246691,,0.00150408105777,0.0416974310567,-0.00680420310014,0.999105982768
1576079775500873081,,,0,,1576079775,500820423,"""world""","""hoverOpti/base_link""",,,-0.313409864902,0.0217274371535,0.314634472132,,0.00213262143115,0.0417977204339,-0.00725865820952,0.999097449888
1576079775501007260,,,0,,1576079775,500953297,"""world""","""hoverOpti/base_link""",,,-0.313384413719,0.021818516776,0.314600765705,,0.0018036006337,0.0420783418682,-0.00647487381008,0.99909170559
1576079775501168459,,,0,,1576079775,501078077,"""world""","""hoverOpti/base_link""",,,-0.31330037117,0.021858073771,0.314635187387,,0.00193744337084,0.0423891428285,-0.00546642713293,0.999084343315
1576079775506395507,,,0,,1576079775,506317362,"""world""","""hoverOpti/base_link""",,,-0.313429832458,0.0218282565475,0.314600348473,,0.00222816918381,0.0417926711423,-0.00638727269911,0.999103403381
1576079775526443616,,,0,,1576079775,526360737,"""world""","""hoverOpti/base_link""",,,-0.31337916851,0.0217457264662,0.314586281776,,0.00243056702882,0.0423404644825,-0.00660622439508,0.999078442972
1576079775727683932,,,0,,1576079775,727475174,"""world""","""hoverOpti/base_link""",,,-0.31338045001,0.0217701755464,0.314606308937,,0.00250283742964,0.0423023955745,-0.00713996982282,0.999076205284
1576079775727881112,,,0,,1576079775,727810943,"""world""","""hoverOpti/base_link""",,,-0.313464045525,0.0217801947147,0.314614862204,,0.00227561341122,0.0419292830181,-0.00736966649567,0.999090809098
1576079775728073727,,,0,,1576079775,728014032,"""world""","""hoverOpti/base_link""",,,-0.313435316086,0.0218116249889,0.314610242844,,0.00216997212865,0.041786656486,-0.0063983327737,0.999103712283
1576079775728241254,,,0,,1576079775,728158271,"""world""","""hoverOpti/base_link""",,,-0.313426017761,0.0217571668327,0.314644217491,,0.00196984484345,0.0417135205709,-0.00665956577997,0.999105475962
1576079775728355329,,,0,,1576079775,728293171,"""world""","""hoverOpti/base_link""",,,-0.313433140516,0.0217651091516,0.314641386271,,0.00212897748376,0.0416978992222,-0.00671701108765,0.999105417069
1576079775728508953,,,0,,1576079775,728424132,"""world""","""hoverOpti/base_link""",,,-0.313381046057,0.0217657834291,0.314580470324,,0.00240205136098,0.0423693733017,-0.00658248646793,0.999077443058
1576079775728610769,,,0,,1576079775,728550776,"""world""","""hoverOpti/base_link""",,,-0.31336247921,0.0217763986439,0.314625680447,,0.00192411359441,0.0420274111078,-0.00673307853671,0.999091917771
1576079775728733147,,,0,,1576079775,728678907,"""world""","""hoverOpti/base_link""",,,-0.31336992979,0.0218610465527,0.314658343792,,0.00147119786506,0.0419126208685,-0.00544695392016,0.999105349041
1576079775728858404,,,0,,1576079775,728802352,"""world""","""hoverOpti/base_link""",,,-0.313385128975,0.0217263083905,0.314600974321,,0.00196880026567,0.0422359320125,-0.00698833938797,0.999081284473
1576079775728980109,,,0,,1576079775,728917170,"""world""","""hoverOpti/base_link""",,,-0.313436120749,0.021758724004,0.314667284489,,0.00139937827909,0.0415317638502,-0.00692352215908,0.999112215506
1576079775746993559,,,0,,1576079775,746918337,"""world""","""hoverOpti/base_link""",,,-0.31345012784,0.0217879712582,0.314586937428,,0.00239440787132,0.0418993847587,-0.00683739422213,0.999095570207
1576079775766338388,,,0,,1576079775,766247511,"""world""","""hoverOpti/base_link""",,,-0.313433974981,0.0218293946236,0.314606696367,,0.00221028613674,0.0418249279715,-0.00646330812973,0.999101604284
1576079775956020487,,,0,,1576079775,955812625,"""world""","""hoverOpti/base_link""",,,-0.313447445631,0.0217851866037,0.314627170563,,0.00177680404708,0.0416165913216,-0.00702310006719,0.999107390804
1576079775956188062,,,0,,1576079775,956003346,"""world""","""hoverOpti/base_link""",,,-0.3134585917,0.0217580422759,0.314620584249,,0.00172381718875,0.0418437278476,-0.00708338938182,0.999097571055
1576079775956314293,,,0,,1576079775,956163101,"""world""","""hoverOpti/base_link""",,,-0.3134329319,0.0217776801437,0.314632058144,,0.00172338925525,0.0416276491593,-0.00682849389472,0.999108372713
1576079775956398620,,,0,,1576079775,956322543,"""world""","""hoverOpti/base_link""",,,-0.31336247921,0.0217734780163,0.314624577761,,0.00191976726286,0.0420220064608,-0.00664991900529,0.999092710435
1576079775956523807,,,0,,1576079775,956448328,"""world""","""hoverOpti/base_link""",,,-0.313457131386,0.0217671077698,0.314605295658,,0.00201285742792,0.0417844495633,-0.00715573676301,0.999098995901
1576079775956647501,,,0,,1576079775,956575979,"""world""","""hoverOpti/base_link""",,,-0.313448607922,0.021803194657,0.314634352922,,0.00174365317882,0.0416478917701,-0.00670977065637,0.999108298315
1576079775956749623,,,0,,1576079775,956684561,"""world""","""hoverOpti/base_link""",,,-0.313436418772,0.0218310076743,0.314607828856,,0.00209187620065,0.0418196724222,-0.00647833980494,0.999101981865
1576079775956856280,,,0,,1576079775,956790744,"""world""","""hoverOpti/base_link""",,,-0.313359051943,0.0217532105744,0.314632236958,,0.00181504735627,0.0420332302459,-0.00655583113514,0.999093055844
1576079775956969163,,,0,,1576079775,956902525,"""world""","""hoverOpti/base_link""",,,-0.313440442085,0.0217608623207,0.31459787488,,0.00193375463412,0.0418031148822,-0.00705826837894,0.999099064671
1576079775966361563,,,0,,1576079775,966289487,"""world""","""hoverOpti/base_link""",,,-0.313370376825,0.0217294488102,0.314608097076,,0.00190980112366,0.042164627939,-0.00689616047726,0.999085051325
1576079775990834373,,,0,,1576079775,990745082,"""world""","""hoverOpti/base_link""",,,-0.313427597284,0.0217789020389,0.314661085606,,0.00151457314601,0.0414269574784,-0.00707072685581,0.999115367755
1576079776183739672,,,0,,1576079776,183542449,"""world""","""hoverOpti/base_link""",,,-0.313443481922,0.0217466056347,0.314611673355,,0.00172005510594,0.0418356587346,-0.00704826173685,0.999098163883
1576079776183751568,,,0,,1576079776,183665187,"""world""","""hoverOpti/base_link""",,,-0.313438802958,0.0217300970107,0.314614266157,,0.00220704896198,0.0418221247683,-0.00697138587826,0.999098312777
1576079776183937629,,,0,,1576079776,183795295,"""world""","""hoverOpti/base_link""",,,-0.313452810049,0.0217544510961,0.314609259367,,0.00187714677513,0.0417369306552,-0.00716734911182,0.999101163069
1576079776184157633,,,0,,1576079776,184022232,"""world""","""hoverOpti/base_link""",,,-0.313445240259,0.0217764936388,0.314630746841,,0.00166454298528,0.041688124551,-0.00672531190921,0.999106650838
1576079776184250640,,,0,,1576079776,184133061,"""world""","""hoverOpti/base_link""",,,-0.313443332911,0.0217879433185,0.314636051655,,0.0017006286486,0.0415147473212,-0.00689580190978,0.999112647069
1576079776184389613,,,0,,1576079776,184263491,"""world""","""hoverOpti/base_link""",,,-0.31344461441,0.0217984039336,0.314639389515,,0.00168500459091,0.0415941678015,-0.00679675592884,0.99911004903
1576079776184478510,,,0,,1576079776,184418674,"""world""","""hoverOpti/base_link""",,,-0.313450962305,0.0217595417053,0.314602285624,,0.00187945536705,0.0417272786734,-0.00715977593085,0.999101616189
1576079776184587952,,,0,,1576079776,184531650,"""world""","""hoverOpti/base_link""",,,-0.313366353512,0.0217875223607,0.314621388912,,0.0019634652105,0.0420339100831,-0.00678859919693,0.999091192098
1576079776184697927,,,0,,1576079776,184641662,"""world""","""hoverOpti/base_link""",,,-0.313460439444,0.0217783227563,0.314588040113,,0.00219989614299,0.0419375039137,-0.00674864881799,0.999095021488
1576079776186294309,,,0,,1576079776,186234872,"""world""","""hoverOpti/base_link""",,,-0.313362896442,0.0217995643616,0.314598053694,,0.00239255006581,0.042214502827,-0.00632378430055,0.999085692625
1576079776206331526,,,0,,1576079776,206253258,"""world""","""hoverOpti/base_link""",,,-0.313448935747,0.0217719916254,0.314638435841,,0.00148983539768,0.041701308141,-0.00670743620537,0.999106496621
1576079776411647421,,,0,,1576079776,411428790,"""world""","""hoverOpti/base_link""",,,-0.313389152288,0.0218034479767,0.314656615257,,0.00167714774733,0.0418791941231,-0.00611605425328,0.999102554373
1576079776411650866,,,0,,1576079776,411569464,"""world""","""hoverOpti/base_link""",,,-0.313396185637,0.0217592902482,0.314631164074,,0.00211742065563,0.0418577206972,-0.00669623220269,0.999098898119
1576079776411771470,,,0,,1576079776,411702776,"""world""","""hoverOpti/base_link""",,,-0.313436537981,0.0217675045133,0.314608544111,,0.00177310806679,0.0417882138283,-0.00711642360285,0.99909957351
1576079776411887163,,,0,,1576079776,411823011,"""world""","""hoverOpti/base_link""",,,-0.313431948423,0.0217379499227,0.314623743296,,0.00210304163126,0.0418430791621,-0.00691296907453,0.999098065658
1576079776412026832,,,0,,1576079776,411936436,"""world""","""hoverOpti/base_link""",,,-0.31337428093,0.0217653717846,0.3146263659,,0.00197711934773,0.0420285125027,-0.00691214664513,0.999090545128
1576079776412140376,,,0,,1576079776,412054389,"""world""","""hoverOpti/base_link""",,,-0.313452154398,0.0217755697668,0.314643234015,,0.00231107400917,0.0418799936534,-0.00697809500858,0.999095606666
1576079776412262949,,,0,,1576079776,412176785,"""world""","""hoverOpti/base_link""",,,-0.3134290874,0.0218171924353,0.314610183239,,0.00214709988379,0.0418106307642,-0.00641863731404,0.999102628468
1576079776412399286,,,0,,1576079776,412334906,"""world""","""hoverOpti/base_link""",,,-0.313436061144,0.0217699706554,0.314658492804,,0.00161368936805,0.0414011780131,-0.00705815857968,0.999116370031
1576079776412512375,,,0,,1576079776,412454322,"""world""","""hoverOpti/base_link""",,,-0.313302874565,0.0218634158373,0.314641863108,,0.00181852785844,0.0423818213202,-0.00548253232422,0.999084789203
1576079776412624868,,,0,,1576079776,412567306,"""world""","""hoverOpti/base_link""",,,-0.313428908587,0.0217443965375,0.314610898495,,0.00212883923953,0.0418322119571,-0.00698096205298,0.99909799332
1576079776426456662,,,0,,1576079776,426388730,"""world""","""hoverOpti/base_link""",,,-0.313370496035,0.02176496014,0.314620286226,,0.00197588605563,0.0420045963904,-0.00678883818075,0.999092398846
1576079776446520409,,,0,,1576079776,446429234,"""world""","""hoverOpti/base_link""",,,-0.313431799412,0.0217974893749,0.314629048109,,0.00169326785474,0.0415964473918,-0.00685163825224,0.999109565294
1576079776640116249,,,0,,1576079776,639914488,"""world""","""hoverOpti/base_link""",,,-0.313438206911,0.0218189228326,0.314594477415,,0.00214537373299,0.0417427637031,-0.00636326733416,0.999105824164
1576079776640265388,,,0,,1576079776,640070892,"""world""","""hoverOpti/base_link""",,,-0.313435167074,0.0217594243586,0.314638525248,,0.00210685118766,0.0416516435757,-0.00674038888778,0.999107235948
1576079776640409230,,,0,,1576079776,640333273,"""world""","""hoverOpti/base_link""",,,-0.313380092382,0.0218478087336,0.314678966999,,0.00119812762642,0.0417621468707,-0.00590011800211,0.999109441546
1576079776640538932,,,0,,1576079776,640468808,"""world""","""hoverOpti/base_link""",,,-0.313433110714,0.0217595491558,0.314638137817,,0.00202188226009,0.041699573202,-0.00677461579071,0.999105180733
1576079776640689308,,,0,,1576079776,640616568,"""world""","""hoverOpti/base_link""",,,-0.313431948423,0.0217681750655,0.314645528793,,0.00190104431988,0.0416817884119,-0.00672639373369,0.999106485903
1576079776640850935,,,0,,1576079776,640779305,"""world""","""hoverOpti/base_link""",,,-0.31342869997,0.0217684730887,0.314642220736,,0.00204115727705,0.041758048093,-0.00667961155644,0.999103338942
1576079776641003189,,,0,,1576079776,640907693,"""world""","""hoverOpti/base_link""",,,-0.313367456198,0.0217950921506,0.314593046904,,0.00244238673227,0.0421658573682,-0.00646060387799,0.999086750897
1576079776641141244,,,0,,1576079776,641042163,"""world""","""hoverOpti/base_link""",,,-0.31343087554,0.0218231789768,0.314597994089,,0.00206153114164,0.0418291046778,-0.00642763438621,0.999101977582
1576079776641305337,,,0,,1576079776,641162088,"""world""","""hoverOpti/base_link""",,,-0.313359886408,0.0217548515648,0.314599007368,,0.00211478378054,0.0421762660845,-0.007051708313,0.999083061451
1576079776646396179,,,0,,1576079776,646295109,"""world""","""hoverOpti/base_link""",,,-0.313440173864,0.0218117330223,0.314603328705,,0.00210385972533,0.0418338650713,-0.00633794608141,0.999102263008
1576079776666761637,,,0,,1576079776,666667355,"""world""","""hoverOpti/base_link""",,,-0.313360124826,0.0217879116535,0.314566075802,,0.00253014872223,0.0423170476087,-0.00659588338687,0.999079256191
1576079776867494878,,,0,,1576079776,867258314,"""world""","""hoverOpti/base_link""",,,-0.313431829214,0.0217878744006,0.314647138119,,0.00171117808606,0.0416175019524,-0.00686111898706,0.99910859292
1576079776867503824,,,0,,1576079776,867394539,"""world""","""hoverOpti/base_link""",,,-0.313454657793,0.0218018963933,0.31458812952,,0.00232100164021,0.0419394076885,-0.00692710080866,0.999093446234
1576079776867832713,,,0,,1576079776,867508718,"""world""","""hoverOpti/base_link""",,,-0.313440293074,0.0218295250088,0.314605653286,,0.00205716383838,0.0417921366125,-0.00646378149768,0.999103300426
1576079776867838661,,,0,,1576079776,867633735,"""world""","""hoverOpti/base_link""",,,-0.313436746597,0.0217889193445,0.314628869295,,0.0017117350966,0.0416391291993,-0.00685317745347,0.999107745361
1576079776867846640,,,0,,1576079776,867755620,"""world""","""hoverOpti/base_link""",,,-0.313454806805,0.0217630434781,0.314607560635,,0.00188252434841,0.0417153959045,-0.00724957327227,0.999101459079
1576079776867966064,,,0,,1576079776,867879847,"""world""","""hoverOpti/base_link""",,,-0.313359737396,0.0218103267252,0.314594686031,,0.00235724708032,0.0421274421082,-0.00635508408761,0.999089252727
1576079776868127074,,,0,,1576079776,868002222,"""world""","""hoverOpti/base_link""",,,-0.313443303108,0.0217846278101,0.314627230167,,0.00182717210608,0.0416151814257,-0.00695630858352,0.999107825957
1576079776868261767,,,0,,1576079776,868116105,"""world""","""hoverOpti/base_link""",,,-0.3133880198,0.0218125786632,0.314632594585,,0.00223450675551,0.0421606650084,-0.00694947416216,0.99908417569
1576079776868403822,,,0,,1576079776,868305740,"""world""","""hoverOpti/base_link""",,,-0.313445001841,0.0217356048524,0.314613133669,,0.00224743454035,0.0418230586737,-0.00707560394193,0.999097451018
1576079776868517596,,,0,,1576079776,868438861,"""world""","""hoverOpti/base_link""",,,-0.313444763422,0.0217988919467,0.314632683992,,0.00176871389421,0.0416285582512,-0.00676265439121,0.999108703443
1576079776886235321,,,0,,1576079776,886162230,"""world""","""hoverOpti/base_link""",,,-0.313379108906,0.0218874290586,0.314649701118,,0.00154431664963,0.0418971404739,-0.00551515631781,0.999105513826
