rosbagTimestamp,header,seq,stamp,secs,nsecs,frame_id,pose,position,x,y,z,orientation,x,y,z,w
1576079770886801193,,76505,,1576079770,886691184,"""world""",,,-0.313437819481,0.0217729527503,0.314622610807,,-0.00177863170393,-0.0415451936424,0.00687547773123,-0.99911147356
1576079770906679286,,76506,,1576079770,906564434,"""world""",,,-0.313440531492,0.0217795446515,0.314586430788,,-0.00252212258056,-0.0420597679913,0.00653304625303,-0.999090611935
1576079770926407535,,76507,,1576079770,926322230,"""world""",,,-0.313380658627,0.0218497030437,0.314678937197,,-0.00123979651835,-0.0417015478015,0.00597068294883,-0.999111533165
1576079770946483178,,76508,,1576079770,946408432,"""world""",,,-0.313348680735,0.0217857901007,0.314637005329,,-0.00176780798938,-0.0420157127082,0.0064050978981,-0.999094903469
1576079770967141638,,76509,,1576079770,967056191,"""world""",,,-0.313437283039,0.021763836965,0.314607709646,,-0.00183286913671,-0.0417740494013,0.00705991080031,-0.999100506306
1576079770986523430,,76510,,1576079770,986442001,"""world""",,,-0.313456624746,0.021761463955,0.314608126879,,-0.00194242480211,-0.0417080074549,0.00715663889423,-0.999102294445
1576079771006524923,,76511,,1576079771,6439261,"""world""",,,-0.313379049301,0.0217449963093,0.31459826231,,-0.0022078412585,-0.0421141348779,0.00711013795808,-0.999085128307
1576079771026685935,,76512,,1576079771,26585834,"""world""",,,-0.313374131918,0.0218481086195,0.314669281244,,-0.00124652485829,-0.0416958518326,0.00593259278685,-0.999112010002
1576079771046536657,,76513,,1576079771,46444489,"""world""",,,-0.313437730074,0.0217715986073,0.314637243748,,-0.0015988011146,-0.0416015572846,0.00680492678657,-0.999109864235
1576079771066452162,,76514,,1576079771,66372513,"""world""",,,-0.313371837139,0.0218468271196,0.31467422843,,-0.0011850707233,-0.0417719632387,0.00588534539565,-0.999109208584
1576079771086502325,,76515,,1576079771,86405084,"""world""",,,-0.31344589591,0.02180079557,0.314569950104,,-0.00238253199495,-0.0418957732618,0.00682790437713,-0.999095857143
1576079771107015169,,76516,,1576079771,106926002,"""world""",,,-0.313433408737,0.0217955373228,0.314604640007,,-0.00198735506274,-0.0418004207313,0.00632214918733,-0.999104082584
1576079771126563904,,76517,,1576079771,126443024,"""world""",,,-0.313444823027,0.0217630714178,0.31460788846,,-0.00192076421808,-0.0417492352426,0.00725034438074,-0.999099969864
1576079771146548120,,76518,,1576079771,146413331,"""world""",,,-0.313365072012,0.0218098945916,0.314596384764,,-0.00239439937286,-0.0421107783914,0.00634557753801,-0.999090015888
1576079771166497004,,76519,,1576079771,166392968,"""world""",,,-0.313435912132,0.0218329019845,0.314605563879,,-0.00209522270598,-0.0417917892337,0.0063989344053,-0.999103724957
1576079771186453861,,76520,,1576079771,186361360,"""world""",,,-0.313441604376,0.0217693373561,0.314666509628,,-0.00141418981366,-0.0413859859109,0.00699724908918,-0.999117732048
1576079771206591867,,76521,,1576079771,206498339,"""world""",,,-0.313442796469,0.0217748675495,0.314634799957,,-0.00170586758759,-0.0415793284774,0.00685252808034,-0.999110341072
1576079771226792915,,76522,,1576079771,226684324,"""world""",,,-0.313434004784,0.0218173600733,0.314599961042,,-0.00213930779137,-0.0417423844337,0.0065423543565,-0.999104738235
1576079771246387970,,76523,,1576079771,246300172,"""world""",,,-0.313445746899,0.0218046270311,0.314577072859,,-0.00226206379011,-0.0419244728982,0.00668656826019,-0.999095916748
1576079771267913435,,76524,,1576079771,267835325,"""world""",,,-0.313428193331,0.0217915661633,0.314606189728,,-0.00243949680589,-0.0418266579509,0.00638004438952,-0.999101579189
1576079771287119386,,76525,,1576079771,287011734,"""world""",,,-0.313431471586,0.0218206625432,0.314605146646,,-0.00212729373015,-0.0417690500617,0.00639454927295,-0.999104559422
1576079771306487916,,76526,,1576079771,306381345,"""world""",,,-0.31343755126,0.0218208115548,0.314608186483,,-0.00220128288493,-0.0417455583811,0.00646952120587,-0.999104917049
1576079771327101496,,76527,,1576079771,326970654,"""world""",,,-0.313433408737,0.0218271948397,0.314600497484,,-0.00213961885311,-0.0418015904725,0.00651751598343,-0.99910235405
1576079771346453990,,76528,,1576079771,346353088,"""world""",,,-0.313428342342,0.0218280162662,0.314604967833,,-0.00213210191578,-0.0417655222118,0.00640459451824,-0.999104678631
1576079771366634307,,76529,,1576079771,366545002,"""world""",,,-0.313366562128,0.0218298062682,0.314705431461,,-0.000991466222331,-0.041528493166,0.00607825117186,-0.999118328094
1576079771387213195,,76530,,1576079771,387105262,"""world""",,,-0.313428044319,0.0218209419399,0.314600408077,,-0.00208215997554,-0.0418566055596,0.00637257518247,-0.999101161957
1576079771406451513,,76531,,1576079771,406365549,"""world""",,,-0.313425689936,0.0217877067626,0.314631909132,,-0.00164583942387,-0.0416291430593,0.00674248859286,-0.99910902977
1576079771426503307,,76532,,1576079771,426408464,"""world""",,,-0.31347194314,0.021807430312,0.31462675333,,-0.00208742683753,-0.0418258458376,0.00724563654512,-0.999096512794
1576079771447630916,,76533,,1576079771,447546409,"""world""",,,-0.313439011574,0.0218121260405,0.31459993124,,-0.00221366784535,-0.0417777635157,0.00660207867622,-0.999102652073
1576079771466917873,,76534,,1576079771,466822269,"""world""",,,-0.313370078802,0.0218799524009,0.314646631479,,-0.00159616197925,-0.041859023273,0.00552374497056,-0.999107062817
1576079771486914459,,76535,,1576079771,486808361,"""world""",,,-0.313441216946,0.021771159023,0.314613163471,,-0.00186069670599,-0.0417471081018,0.00719450274482,-0.99910056591
1576079771506706348,,76536,,1576079771,506623076,"""world""",,,-0.313443005085,0.0217468030751,0.314642131329,,-0.00176810228731,-0.041596159339,0.00737112108618,-0.999105811119
1576079771526478625,,76537,,1576079771,526392949,"""world""",,,-0.313428610563,0.0217696726322,0.314665466547,,-0.00149437319487,-0.0414579249918,0.00703185144812,-0.999114453793
1576079771546621549,,76538,,1576079771,546539919,"""world""",,,-0.313448578119,0.0217953454703,0.314610600471,,-0.00208899797872,-0.0418281406164,0.00640463363379,-0.999102115631
1576079771566984249,,76539,,1576079771,566879353,"""world""",,,-0.313379108906,0.0217998921871,0.314625322819,,-0.00217987643555,-0.0421641729772,0.00690414384007,-0.999084532261
1576079771586663442,,76540,,1576079771,586574156,"""world""",,,-0.313364356756,0.0217675901949,0.314573913813,,-0.00259301485494,-0.0423096902668,0.00662825722247,-0.999079287052
1576079771606421848,,76541,,1576079771,606334921,"""world""",,,-0.313376933336,0.0218801014125,0.314645379782,,-0.00162282271776,-0.041859459132,0.00557971186936,-0.999106705189
1576079771626590688,,76542,,1576079771,626496986,"""world""",,,-0.313439458609,0.0217413101345,0.314648807049,,-0.00182827189565,-0.0417234152555,0.00675468053669,-0.999104738235
1576079771646591836,,76543,,1576079771,646509438,"""world""",,,-0.313447594643,0.0217355452478,0.31464228034,,-0.00170257838909,-0.0415756292641,0.00743959611282,-0.999106228352
1576079771666651178,,76544,,1576079771,666543353,"""world""",,,-0.313362956047,0.0217967312783,0.314589291811,,-0.00237525417469,-0.0421910248697,0.00632961001247,-0.999086737633
1576079771686617103,,76545,,1576079771,686507182,"""world""",,,-0.313448250294,0.0217852648348,0.314584553242,,-0.00239266525023,-0.0419315807521,0.00691158743575,-0.999093770981
1576079771706788945,,76546,,1576079771,706699951,"""world""",,,-0.313440293074,0.0218189265579,0.314608752728,,-0.00212120520882,-0.0417355597019,0.00649025849998,-0.999105453491
1576079771726628620,,76547,,1576079771,726536641,"""world""",,,-0.313360959291,0.0218072738498,0.314591884613,,-0.002485106932,-0.0421560332179,0.00642930576578,-0.999087274075
1576079771746401330,,76548,,1576079771,746306242,"""world""",,,-0.313440144062,0.0218230243772,0.314604580402,,-0.00207553664222,-0.0417957231402,0.00641358876601,-0.999103486538
1576079771766622988,,76549,,1576079771,766544514,"""world""",,,-0.313365787268,0.0217623058707,0.31461712718,,-0.00205763219856,-0.0419389009476,0.00678932573646,-0.999095022678
1576079771786941029,,76550,,1576079771,786600051,"""world""",,,-0.313362747431,0.0217707324773,0.314621478319,,-0.00192481360864,-0.0420086197555,0.00684281531721,-0.999091982841
1576079771806873434,,76551,,1576079771,806565157,"""world""",,,-0.313451737165,0.0217337552458,0.314638882875,,-0.00177534285467,-0.0415764972568,0.00738665508106,-0.99910646677
1576079771826554486,,76552,,1576079771,826450302,"""world""",,,-0.313365757465,0.0217428077012,0.314630955458,,-0.00198567914777,-0.0419268906116,0.007209520787,-0.999092757702
1576079771846444972,,76553,,1576079771,846361417,"""world""",,,-0.313450336456,0.0217546764761,0.314637035131,,-0.00172697671223,-0.0415549762547,0.00736747309566,-0.999107599258
1576079771866520604,,76554,,1576079771,866444163,"""world""",,,-0.313439279795,0.0217716619372,0.314659804106,,-0.00147451483645,-0.0414423085749,0.0069528799504,-0.99911570549
1576079771889167748,,76555,,1576079771,889081278,"""world""",,,-0.313464641571,0.0217957496643,0.314591825008,,-0.00298873032443,-0.0421704016626,0.00689633237198,-0.99908220768
1576079771906480710,,76556,,1576079771,906388566,"""world""",,,-0.313432991505,0.0217608977109,0.31463804841,,-0.00198899069801,-0.0417469330132,0.0066692889668,-0.99910402298
1576079771926500310,,76557,,1576079771,926405601,"""world""",,,-0.313442379236,0.0217933338135,0.314609646797,,-0.00199630809948,-0.0418030768633,0.00651717465371,-0.999102592468
1576079771946432065,,76558,,1576079771,946346864,"""world""",,,-0.313377857208,0.0218738242984,0.314642965794,,-0.00169072381686,-0.0418639704585,0.00559510150924,-0.999106228352
1576079771966554449,,76559,,1576079771,966477644,"""world""",,,-0.31338724494,0.0217907726765,0.314620554447,,-0.00241754273884,-0.0420500412583,0.0069569577463,-0.999088406563
1576079771987399434,,76560,,1576079771,987322622,"""world""",,,-0.313405454159,0.0218819212168,0.314648836851,,-0.00216981885023,-0.0421601720154,0.00565261067823,-0.999092578888
1576079772006420336,,76561,,1576079772,6335826,"""world""",,,-0.313473403454,0.0217689033598,0.314618140459,,-0.00207744841464,-0.0419076681137,0.0072757457383,-0.999092876911
1576079772028181089,,76562,,1576079772,28097402,"""world""",,,-0.313432484865,0.0217124763876,0.314623475075,,-0.00196942011826,-0.0419767163694,0.00684690009803,-0.999093234539
1576079772046708850,,76563,,1576079772,46629553,"""world""",,,-0.313456147909,0.0217374321073,0.314657688141,,-0.00228506862186,-0.041763395071,0.00747058773413,-0.999097049236
1576079772066489530,,76564,,1576079772,66413079,"""world""",,,-0.31344884634,0.0218169726431,0.314615666866,,-0.00269349175505,-0.0420670025051,0.00654989061877,-0.99908977747
1576079772086463651,,76565,,1576079772,86386645,"""world""",,,-0.313327252865,0.0218912549317,0.314650893211,,-0.00216106744483,-0.0422942861915,0.00555865513161,-0.999087452888
1576079772106541668,,76566,,1576079772,106461094,"""world""",,,-0.313458502293,0.0218005273491,0.314637750387,,-0.00212599127553,-0.0418086759746,0.00705170072615,-0.999098539352
1576079772126385964,,76567,,1576079772,126302299,"""world""",,,-0.313427835703,0.0217903181911,0.314625680447,,-0.00176425313111,-0.0416499376297,0.00689187133685,-0.999106943607
1576079772146507683,,76568,,1576079772,146423436,"""world""",,,-0.313398778439,0.0217701885849,0.314601957798,,-0.00251262634993,-0.0422473214567,0.00721386959776,-0.99907797575
1576079772166472467,,76569,,1576079772,166388076,"""world""",,,-0.31336030364,0.02176293917,0.314632147551,,-0.00176896806806,-0.0420510061085,0.00657303491607,-0.999092280865
1576079772186746749,,76570,,1576079772,186662069,"""world""",,,-0.313446998596,0.0217874795198,0.314629822969,,-0.00170158431865,-0.0416900999844,0.0068900147453,-0.999105393887
1576079772206932499,,76571,,1576079772,206856686,"""world""",,,-0.313381373882,0.0217425543815,0.314594268799,,-0.00218252022751,-0.0421266369522,0.00717717316002,-0.999084174633
1576079772226558527,,76572,,1576079772,226483422,"""world""",,,-0.31338045001,0.0218333806843,0.314587235451,,-0.00190784863662,-0.0421058572829,0.00652901548892,-0.999090075493
1576079772246436253,,76573,,1576079772,246350547,"""world""",,,-0.313431829214,0.0217888895422,0.314625859261,,-0.00178272067569,-0.0416093245149,0.00676647527143,-0.999109566212
1576079772266959742,,76574,,1576079772,266811264,"""world""",,,-0.313452124596,0.02178215608,0.314580798149,,-0.00230971723795,-0.0419178940356,0.00685283076018,-0.999094963074
1576079772286631723,,76575,,1576079772,286496349,"""world""",,,-0.313457012177,0.0218443404883,0.314606964588,,-0.00238823820837,-0.0419512577355,0.00654811458662,-0.999095439911
1576079772306456352,,76576,,1576079772,306347292,"""world""",,,-0.313449621201,0.0217609852552,0.314607143402,,-0.0020118940156,-0.0417261756957,0.00711585208774,-0.999101698399
1576079772326701170,,76577,,1576079772,326592836,"""world""",,,-0.313295036554,0.0218142140657,0.314676314592,,-0.00125653727446,-0.0422009862959,0.00577293243259,-0.999091744423
1576079772346466974,,76578,,1576079772,346347458,"""world""",,,-0.313444823027,0.0217468682677,0.314601063728,,-0.00249852635898,-0.0420515760779,0.00661253603175,-0.999090492725
1576079772366952828,,76579,,1576079772,366848048,"""world""",,,-0.313448160887,0.0218008309603,0.314583450556,,-0.0022646880243,-0.0419230982661,0.00669777067378,-0.999095916748
1576079772386460592,,76580,,1576079772,386352225,"""world""",,,-0.313359230757,0.0218058545142,0.314593881369,,-0.00237322226167,-0.0422065518796,0.00623642606661,-0.999086678028
1576079772406587258,,76581,,1576079772,406498324,"""world""",,,-0.313371956348,0.0218382328749,0.314679652452,,-0.00123102543876,-0.041736472398,0.00592340528965,-0.999110341072
1576079772426682223,,76582,,1576079772,426556970,"""world""",,,-0.313297778368,0.0218228027225,0.314660996199,,-0.00149546784814,-0.0421900823712,0.00582782318816,-0.999091565609
1576079772446452674,,76583,,1576079772,446372984,"""world""",,,-0.31335863471,0.0217996593565,0.314600408077,,-0.00222416268662,-0.0421573035419,0.00627737957984,-0.9990888834
1576079772467372430,,76584,,1576079772,467295665,"""world""",,,-0.313365936279,0.0218825563788,0.314644962549,,-0.00154780142475,-0.0418973788619,0.00551262870431,-0.999105572701
1576079772486396857,,76585,,1576079772,486304066,"""world""",,,-0.313439637423,0.0218171663582,0.314603447914,,-0.00202512717806,-0.0417672097683,0.00639504566789,-0.999104917049
1576079772506355515,,76586,,1576079772,506269123,"""world""",,,-0.31344011426,0.0218074489385,0.314597129822,,-0.00217360700481,-0.0417561456561,0.00656979670748,-0.999103963375
1576079772526663769,,76587,,1576079772,526560960,"""world""",,,-0.313447326422,0.0217652525753,0.314608097076,,-0.00186951772776,-0.0418141260743,0.00709673343226,-0.999098420143
1576079772547111270,,76588,,1576079772,547038115,"""world""",,,-0.313441812992,0.021811356768,0.314603179693,,-0.00222241342999,-0.0417382717133,0.00647803582251,-0.999105155468
1576079772566483640,,76589,,1576079772,566403324,"""world""",,,-0.313428789377,0.0217446424067,0.314647257328,,-0.00182636571117,-0.0417950376868,0.0066100275144,-0.999102652073
1576079772586490324,,76590,,1576079772,586394688,"""world""",,,-0.313366383314,0.0217874888331,0.314587503672,,-0.00246399501339,-0.0421457849443,0.0064201313071,-0.999087870121
1576079772606635126,,76591,,1576079772,606559803,"""world""",,,-0.313432127237,0.0218106042594,0.314611494541,,-0.00190096104052,-0.0417890101671,0.00638325698674,-0.999104261398
1576079772626463980,,76592,,1576079772,626387902,"""world""",,,-0.313443303108,0.0217499136925,0.314602583647,,-0.00192851177417,-0.0417731106281,0.00723848864436,-0.999099075794
1576079772647847427,,76593,,1576079772,647742951,"""world""",,,-0.313434839249,0.0217800009996,0.314632952213,,-0.00165266229305,-0.041636493057,0.00694817211479,-0.999107301235
1576079772666491831,,76594,,1576079772,666401097,"""world""",,,-0.313361257315,0.0217687338591,0.314623534679,,-0.00190232053865,-0.042070120573,0.00680659012869,-0.999089717865
1576079772686865272,,76595,,1576079772,686761116,"""world""",,,-0.31343203783,0.0217780452222,0.314632356167,,-0.00167189352214,-0.0416159145534,0.00690984679386,-0.999108493328
1576079772707788311,,76596,,1576079772,707688671,"""world""",,,-0.313389539719,0.021760256961,0.314599603415,,-0.00247204303741,-0.0422662347555,0.00727401208133,-0.999076902866
1576079772726426899,,76597,,1576079772,726344019,"""world""",,,-0.313443034887,0.0217906329781,0.314636677504,,-0.00225436198525,-0.0417726896703,0.0074114962481,-0.999097168446
1576079772746380533,,76598,,1576079772,746290203,"""world""",,,-0.313434571028,0.0217778999358,0.314633876085,,-0.00177818513475,-0.0416471064091,0.00692425994202,-0.999106824398
1576079772766587141,,76599,,1576079772,766485909,"""world""",,,-0.313390463591,0.0218639485538,0.314667016268,,-0.00151586683933,-0.0418884456158,0.00626158388332,-0.999101579189
1576079772786566623,,76600,,1576079772,786462106,"""world""",,,-0.313466012478,0.0218404084444,0.314609348774,,-0.00248729228042,-0.0419297665358,0.00672572012991,-0.999094903469
1576079772806492013,,76601,,1576079772,806377016,"""world""",,,-0.313379377127,0.0217792056501,0.314584523439,,-0.00267457962036,-0.0425170958042,0.00690633291379,-0.999068379402
1576079772826497449,,76602,,1576079772,826421001,"""world""",,,-0.313292533159,0.0218068342656,0.3146699965,,-0.00129093928263,-0.0422166399658,0.00576407741755,-0.999091088772
1576079772846571315,,76603,,1576079772,846459279,"""world""",,,-0.313410103321,0.0218585487455,0.314644396305,,-0.00172821606975,-0.041699744761,0.00584866059944,-0.99911159277
1576079772866447384,,76604,,1576079772,866357608,"""world""",,,-0.313449591398,0.0217720959336,0.314667284489,,-0.00150153180584,-0.0414511524141,0.00698316609487,-0.999115049839
1576079772886585821,,76605,,1576079772,886493891,"""world""",,,-0.313453108072,0.021801341325,0.314581662416,,-0.00224115350284,-0.041931591928,0.00672063743696,-0.999095439911
1576079772906394391,,76606,,1576079772,906304701,"""world""",,,-0.313443362713,0.0218306258321,0.314605653286,,-0.00213334010914,-0.0417620800436,0.00637418590486,-0.999105036259
1576079773034955491,,76607,,1576079773,34724304,"""world""",,,-0.31345641613,0.0217378251255,0.31461763382,,-0.00177766592242,-0.0418281778693,0.00716484477744,-0.999097585678
1576079773035196789,,76608,,1576079773,35078318,"""world""",,,-0.313373148441,0.0218791589141,0.314645916224,,-0.00156949984375,-0.0419425815344,0.00557301752269,-0.999103307724
1576079773035454118,,76609,,1576079773,35336212,"""world""",,,-0.313362181187,0.0217620190233,0.314656436443,,-0.00166109506972,-0.041810195893,0.00693046860397,-0.999100208282
1576079773035667701,,76610,,1576079773,35608976,"""world""",,,-0.31338083744,0.0217471309006,0.314602077007,,-0.00217542611063,-0.0420984551311,0.00705134030432,-0.999086260796
1576079773035909789,,76611,,1576079773,35852280,"""world""",,,-0.313442707062,0.0217936504632,0.314576983452,,-0.00230510835536,-0.041975133121,0.00668119685724,-0.999093651772
1576079773046742513,,76612,,1576079773,46637180,"""world""",,,-0.313463151455,0.0218141060323,0.314629077911,,-0.00212037237361,-0.0417350716889,0.00708233797923,-0.999101400375
1576079773068420271,,76613,,1576079773,68289204,"""world""",,,-0.313462287188,0.0217562224716,0.314612448215,,-0.00257529853843,-0.0419359728694,0.00740980403498,-0.999089479446
1576079773172146831,,76614,,1576079773,172067734,"""world""",,,-0.313449949026,0.021800532937,0.314585119486,,-0.00293458811939,-0.0420911461115,0.00675684818998,-0.999086678028
1576079773172297263,,76615,,1576079773,172234476,"""world""",,,-0.313395023346,0.0217539034784,0.314637184143,,-0.00223668082617,-0.0420603901148,0.00760547164828,-0.999083638191
1576079773172428574,,76616,,1576079773,172355586,"""world""",,,-0.313456118107,0.0217915233225,0.314576089382,,-0.00236674351618,-0.0418940410018,0.00677966978401,-0.999096274376
1576079773172559698,,76617,,1576079773,172494966,"""world""",,,-0.313443034887,0.0217856634408,0.314585030079,,-0.00214929971844,-0.0419960394502,0.0065862131305,-0.999093770981
1576079773172668058,,76618,,1576079773,172606983,"""world""",,,-0.313375800848,0.021718967706,0.314625889063,,-0.00193943118211,-0.0419373512268,0.00731452740729,-0.999091625214
1576079773186393715,,76619,,1576079773,186319868,"""world""",,,-0.313442677259,0.0217501167208,0.314621865749,,-0.00175656483043,-0.041818138212,0.00696417875588,-0.999099493027
1576079773206514191,,76620,,1576079773,206397642,"""world""",,,-0.313448190689,0.0217496547848,0.314603686333,,-0.00196567061357,-0.0417113229632,0.00717177754268,-0.999102115631
1576079773311790535,,76621,,1576079773,311583552,"""world""",,,-0.313405752182,0.0218024030328,0.314683258533,,-0.00156607374083,-0.0416224636137,0.00604191794991,-0.999113917351
1576079773311849616,,76622,,1576079773,311743983,"""world""",,,-0.31344628334,0.0218004453927,0.314584702253,,-0.00218436610885,-0.0419389344752,0.0066793859005,-0.999095439911
1576079773311968896,,76623,,1576079773,311895207,"""world""",,,-0.31345140934,0.0217458084226,0.31461417675,,-0.00177940435242,-0.041820500046,0.00711594568565,-0.999098241329
1576079773312128843,,76624,,1576079773,312015907,"""world""",,,-0.313373476267,0.0217373073101,0.314599215984,,-0.00218560453504,-0.0421269796789,0.00713098794222,-0.999084472656
1576079773312267527,,76625,,1576079773,312150422,"""world""",,,-0.313381552696,0.0218599494547,0.314662545919,,-0.00150232913438,-0.0419396199286,0.00544259790331,-0.999104201794
1576079773326734687,,76626,,1576079773,326587807,"""world""",,,-0.313360601664,0.0217380747199,0.314663529396,,-0.00158172240481,-0.041794449091,0.00682628899813,-0.999101698399
1576079773346463473,,76627,,1576079773,346365728,"""world""",,,-0.313373565674,0.0218450725079,0.31466782093,,-0.00125021860003,-0.04174894467,0.00592790916562,-0.999109745026
1576079773387476729,,76628,,1576079773,387386411,"""world""",,,-0.313470065594,0.0217744857073,0.314636409283,,-0.00209109205753,-0.0417011156678,0.00774210318923,-0.999097943306
1576079773387698335,,76629,,1576079773,387537848,"""world""",,,-0.31345975399,0.0218152366579,0.314644753933,,-0.00200523086824,-0.0417900681496,0.00701513141394,-0.99909979105
1576079773407034663,,76630,,1576079773,406916775,"""world""",,,-0.313376158476,0.0218856520951,0.314644366503,,-0.00161951512564,-0.0418689697981,0.00552141247317,-0.999106585979
1576079773426644541,,76631,,1576079773,426499855,"""world""",,,-0.313370496035,0.0217710509896,0.314584940672,,-0.00229760957882,-0.0424128621817,0.00646563293412,-0.999076604843
1576079773483413582,,76632,,1576079773,483328655,"""world""",,,-0.313382893801,0.0218334048986,0.314598292112,,-0.00269541540183,-0.042362626642,0.00644168397412,-0.99907797575
1576079773483573083,,76633,,1576079773,483490526,"""world""",,,-0.313378572464,0.0218571871519,0.314658820629,,-0.00146541534923,-0.0419510826468,0.00544731505215,-0.999103784561
1576079773486426360,,76634,,1576079773,486341329,"""world""",,,-0.313454300165,0.0218473784626,0.314609259367,,-0.00246125413105,-0.04198185727,0.00669092452154,-0.99909299612
1576079773506481052,,76635,,1576079773,506408959,"""world""",,,-0.31335413456,0.0217586290091,0.31465703249,,-0.00167718622833,-0.0417757108808,0.00688006496057,-0.999101936817
1576079773528513326,,76636,,1576079773,528437671,"""world""",,,-0.313466340303,0.021798318252,0.314618706703,,-0.00222968589514,-0.0418905392289,0.00736264977604,-0.999092638493
1576079773715217796,,76637,,1576079773,715089050,"""world""",,,-0.31343922019,0.0217711683363,0.314636826515,,-0.0015643897932,-0.0417142473161,0.00677468487993,-0.999105393887
1576079773715404712,,76638,,1576079773,715266527,"""world""",,,-0.313432782888,0.0218243673444,0.314606428146,,-0.00213382556103,-0.0418558232486,0.00639030849561,-0.999100983143
1576079773715617192,,76639,,1576079773,715547594,"""world""",,,-0.313449680805,0.0217576865107,0.314606398344,,-0.00197778246365,-0.0417696945369,0.00723549770191,-0.999099195004
1576079773715735482,,76640,,1576079773,715667583,"""world""",,,-0.313446193933,0.0217314846814,0.31464022398,,-0.0017353349831,-0.0415756627917,0.00752738071606,-0.999105513096
1576079773715847302,,76641,,1576079773,715785467,"""world""",,,-0.313429921865,0.0218240246177,0.314601510763,,-0.00212704972364,-0.041811902076,0.00638856831938,-0.999102890491
1576079773715995205,,76642,,1576079773,715931865,"""world""",,,-0.313434630632,0.0217902176082,0.314631134272,,-0.00176593381912,-0.0416340231895,0.0067355283536,-0.999108731747
1576079773716121417,,76643,,1576079773,716044486,"""world""",,,-0.313355505466,0.0217756442726,0.314626812935,,-0.00194628152531,-0.0420053862035,0.00674948049709,-0.999092757702
1576079773716231870,,76644,,1576079773,716165022,"""world""",,,-0.313436001539,0.0217843577266,0.314634025097,,-0.00175544724334,-0.0416479855776,0.00681522674859,-0.999107658863
1576079773716343876,,76645,,1576079773,716278571,"""world""",,,-0.313385754824,0.0218373257667,0.314678281546,,-0.00117808370851,-0.0417344979942,0.00597268296406,-0.999110221863
1576079773726574882,,76646,,1576079773,726493901,"""world""",,,-0.313372433186,0.0218505188823,0.314680457115,,-0.00125071441289,-0.0417292937636,0.0059804962948,-0.999110341072
1576079773746718784,,76647,,1576079773,746593408,"""world""",,,-0.313449531794,0.0218016728759,0.314578652382,,-0.00245834118687,-0.041884560138,0.00681320484728,-0.999096274376
1576079773814058543,,76648,,1576079773,813965852,"""world""",,,-0.313434481621,0.0217606890947,0.314649224281,,-0.00203848304227,-0.0417188555002,0.0067371702753,-0.999104678631
1576079773814194902,,76649,,1576079773,814117934,"""world""",,,-0.313434332609,0.0217708479613,0.31465190649,,-0.00196609087288,-0.0417513884604,0.00660258391872,-0.999104321003
1576079773814312875,,76650,,1576079773,814250176,"""world""",,,-0.313436746597,0.0217878427356,0.31463265419,,-0.0017090177862,-0.0416018664837,0.00679713115096,-0.999109685421
1576079773826551620,,76651,,1576079773,826423078,"""world""",,,-0.313317149878,0.021885490045,0.314640700817,,-0.00222485489212,-0.0424841232598,0.00577203696594,-0.99907797575
1576079773846602941,,76652,,1576079773,846528265,"""world""",,,-0.313360273838,0.021757716313,0.314657121897,,-0.0016568453284,-0.0417434647679,0.00679748831317,-0.999103963375
1576079773899246236,,76653,,1576079773,899148071,"""world""",,,-0.313416004181,0.0217674300075,0.314603060484,,-0.00159637141041,-0.0419497787952,0.00663681095466,-0.999096393585
1576079773899374582,,76654,,1576079773,899309988,"""world""",,,-0.313442826271,0.0217627603561,0.31460249424,,-0.00196794630028,-0.0417322143912,0.00724688451737,-0.99910068512
1576079773906470470,,76655,,1576079773,906402268,"""world""",,,-0.313431113958,0.021769464016,0.314595252275,,-0.00259066396393,-0.0420295670629,0.00658960035071,-0.999091267586
1576079773926571564,,76656,,1576079773,926496816,"""world""",,,-0.313438862562,0.0217644162476,0.314636468887,,-0.00165642704815,-0.0416274853051,0.00677353842184,-0.999108970165
1576079774127531434,,76657,,1576079774,127360921,"""world""",,,-0.313378304243,0.021881788969,0.314647436142,,-0.00170216825791,-0.0419029444456,0.005519811064,-0.999105036259
1576079774127667543,,76658,,1576079774,127586501,"""world""",,,-0.313428759575,0.0218160692602,0.314610272646,,-0.00218684691936,-0.0417934432626,0.00632087094709,-0.999103963375
1576079774127804426,,76659,,1576079774,127719521,"""world""",,,-0.313441038132,0.0217973198742,0.314583152533,,-0.00231816223823,-0.0419829301536,0.00670932140201,-0.99909311533
1576079774127912884,,76660,,1576079774,127835807,"""world""",,,-0.313431173563,0.0217882581055,0.314634263515,,-0.00165368826129,-0.0416217967868,0.00671606278047,-0.999109506607
1576079774128054078,,76661,,1576079774,127968967,"""world""",,,-0.313445538282,0.0218043681234,0.31461006403,,-0.00203170184977,-0.0418337956071,0.00633165892214,-0.999102532864
1576079774128166405,,76662,,1576079774,128113265,"""world""",,,-0.313436597586,0.021806159988,0.314605265856,,-0.00215212069452,-0.0417837761343,0.00658843200654,-0.999102711678
1576079774128318937,,76663,,1576079774,128250591,"""world""",,,-0.313453555107,0.0217871312052,0.314586520195,,-0.00231585092843,-0.0419025309384,0.00685064820573,-0.99909555912
1576079774128440325,,76664,,1576079774,128365648,"""world""",,,-0.313437134027,0.021760456264,0.314612627029,,-0.00193698971998,-0.041774597019,0.00710566714406,-0.999099910259
1576079774128554495,,76665,,1576079774,128492916,"""world""",,,-0.313443571329,0.0217364691198,0.314614862204,,-0.00219844118692,-0.0418520569801,0.00706137251109,-0.999096512794
1576079774128675730,,76666,,1576079774,128615876,"""world""",,,-0.313446968794,0.0217925366014,0.314593762159,,-0.00228870264255,-0.041900575161,0.00686000706628,-0.999095618725
1576079774146460320,,76667,,1576079774,146349197,"""world""",,,-0.313366770744,0.0217847656459,0.314603179693,,-0.00213977438398,-0.0422350950539,0.00614551035687,-0.999086558819
1576079774166434643,,76668,,1576079774,166342801,"""world""",,,-0.313443750143,0.0218006409705,0.314584195614,,-0.00226871762425,-0.0419577918947,0.00673425290734,-0.999094128609
1576079774361073278,,76669,,1576079774,360880955,"""world""",,,-0.313376009464,0.0218849424273,0.314653366804,,-0.00158245570492,-0.0418244600296,0.0055529884994,-0.999108374119
1576079774361077000,,76670,,1576079774,361020540,"""world""",,,-0.313437491655,0.0217733643949,0.314583033323,,-0.00213123881258,-0.0419840104878,0.00657418742776,-0.999094426632
1576079774361242290,,76671,,1576079774,361146422,"""world""",,,-0.313446164131,0.0217398293316,0.314634650946,,-0.00165533320978,-0.0415898822248,0.00741865858436,-0.999105870724
1576079774361353947,,76672,,1576079774,361271235,"""world""",,,-0.313451617956,0.0217610802501,0.314610362053,,-0.00199235440232,-0.0417411327362,0.0071926205419,-0.99910056591
1576079774361461988,,76673,,1576079774,361388602,"""world""",,,-0.313439786434,0.0217648018152,0.314610749483,,-0.0019884055946,-0.0417880043387,0.00705144554377,-0.999099612236
1576079774361569585,,76674,,1576079774,361502430,"""world""",,,-0.313368618488,0.0218525771052,0.314667284489,,-0.001868840307,-0.0420195795596,0.00538277532905,-0.99910056591
1576079774361682729,,76675,,1576079774,361613701,"""world""",,,-0.313440412283,0.0218323282897,0.314600110054,,-0.0022382424213,-0.0417937934399,0.00650750985369,-0.999102532864
1576079774361835144,,76676,,1576079774,361728495,"""world""",,,-0.313447415829,0.0217875130475,0.314579248428,,-0.00236312556081,-0.0419000610709,0.00675122207031,-0.999096214771
1576079774361983814,,76677,,1576079774,361848781,"""world""",,,-0.313429921865,0.0217734575272,0.31463187933,,-0.00149244547356,-0.0417019575834,0.00671861786395,-0.99910646677
1576079774366385711,,76678,,1576079774,366313960,"""world""",,,-0.313393056393,0.0218024328351,0.314562857151,,-0.00238142488524,-0.0421795919538,0.00680732680485,-0.999084115028
1576079774386304930,,76679,,1576079774,386183141,"""world""",,,-0.313429176807,0.0218262579292,0.31459993124,,-0.00208258698694,-0.0418125726283,0.00633953046054,-0.999103248119
1576079774587218842,,76680,,1576079774,587085470,"""world""",,,-0.313455849886,0.0217798184603,0.31457978487,,-0.00212551094592,-0.0420200265944,0.00666131824255,-0.999092400074
1576079774587394195,,76681,,1576079774,587310014,"""world""",,,-0.313443869352,0.0217600855976,0.314605027437,,-0.00203177635558,-0.0417511798441,0.00715849129483,-0.999100327492
1576079774587571804,,76682,,1576079774,587480571,"""world""",,,-0.313454627991,0.0218007154763,0.314574033022,,-0.0023453575559,-0.0419114083052,0.00683548534289,-0.999095201492
1576079774587752394,,76683,,1576079774,587638623,"""world""",,,-0.313438922167,0.0218336936086,0.314606040716,,-0.00214327778667,-0.0418096072972,0.00646410603076,-0.999102413654
1576079774587961338,,76684,,1576079774,587820495,"""world""",,,-0.313450068235,0.0217923615128,0.314584583044,,-0.00231648143381,-0.0419464409351,0.00690035894513,-0.999093413353
1576079774589684842,,76685,,1576079774,588031564,"""world""",,,-0.313436150551,0.0218161251396,0.31460505724,,-0.00208990788087,-0.0418205112219,0.00635847169906,-0.999102771282
1576079774589694176,,76686,,1576079774,588156648,"""world""",,,-0.313431233168,0.0218355003744,0.314600676298,,-0.00208150432445,-0.0417995043099,0.00639006029814,-0.999103486538
1576079774589698185,,76687,,1576079774,588274347,"""world""",,,-0.313448935747,0.0218017101288,0.31458106637,,-0.00235911482014,-0.0418669842184,0.00677593192086,-0.999097406864
1576079774589705824,,76688,,1576079774,588384002,"""world""",,,-0.313430249691,0.021805934608,0.314609795809,,-0.00201010704041,-0.0418494157493,0.00631019053981,-0.999102056026
1576079774589910087,,76689,,1576079774,588487262,"""world""",,,-0.313456356525,0.0217933859676,0.314582914114,,-0.00231952150352,-0.0419945120811,0.00679919496179,-0.999092042446
1576079774606450948,,76690,,1576079774,606370919,"""world""",,,-0.313372343779,0.0217854976654,0.314582496881,,-0.00257782777771,-0.0423125252128,0.00671303458512,-0.999078571796
1576079774626680256,,76691,,1576079774,626602700,"""world""",,,-0.313364446163,0.0218522753567,0.314661800861,,-0.00179633474909,-0.0420355834067,0.00541367009282,-0.999099910259
1576079774815453544,,76692,,1576079774,815298855,"""world""",,,-0.31337121129,0.0218452457339,0.314679205418,,-0.00117841828614,-0.0417522825301,0.00592756504193,-0.999109745026
1576079774815560854,,76693,,1576079774,815455109,"""world""",,,-0.31344127655,0.0218000654131,0.314609229565,,-0.00194526684936,-0.0418532863259,0.00623362651095,-0.999102473259
1576079774815708713,,76694,,1576079774,815589370,"""world""",,,-0.313448548317,0.0217909757048,0.314581394196,,-0.00239972933196,-0.0419241413474,0.0068171499297,-0.999094724655
1576079774816440340,,76695,,1576079774,815720794,"""world""",,,-0.313444674015,0.0217814501375,0.314581394196,,-0.00221961876377,-0.0419980362058,0.00663098366931,-0.999093234539
1576079774816443598,,76696,,1576079774,815842446,"""world""",,,-0.313420981169,0.0217715874314,0.314659416676,,-0.00145801063627,-0.0414736680686,0.00699441647157,-0.999114155769
1576079774816446610,,76697,,1576079774,816023630,"""world""",,,-0.313441902399,0.0217864643782,0.314627945423,,-0.00173248664942,-0.0416116043925,0.0068709324114,-0.999108791351
1576079774816449102,,76698,,1576079774,816158134,"""world""",,,-0.313434302807,0.0217705629766,0.314588278532,,-0.00251955166459,-0.0420141518116,0.00656171794981,-0.999092280865
1576079774817636945,,76699,,1576079774,816439042,"""world""",,,-0.313438981771,0.0218005683273,0.3145788908,,-0.00224809814245,-0.0419505685568,0.00672200880945,-0.999094545841
1576079774817640337,,76700,,1576079774,816567191,"""world""",,,-0.313464045525,0.0217981673777,0.314590990543,,-0.00290650734678,-0.041974671185,0.00735159171745,-0.999087452888
1576079774826377178,,76701,,1576079774,826302847,"""world""",,,-0.313470959663,0.0217789076269,0.314611673355,,-0.0021765078418,-0.0419120267034,0.0074164592661,-0.9990914464
1576079774846390542,,76702,,1576079774,846305988,"""world""",,,-0.313433378935,0.0217296648771,0.314648330212,,-0.00191090977751,-0.0416677743196,0.00708261830732,-0.999104678631
1576079775044400366,,76703,,1576079775,44244121,"""world""",,,-0.313376784325,0.0217218883336,0.314604908228,,-0.00209815544076,-0.0421833619475,0.00699101155624,-0.999083280563
1576079775044476907,,76704,,1576079775,44377727,"""world""",,,-0.313441723585,0.0217658393085,0.314613819122,,-0.00183578161523,-0.0417271964252,0.00715542444959,-0.999101758003
1576079775044602805,,76705,,1576079775,44513231,"""world""",,,-0.313370764256,0.0217308141291,0.314606517553,,-0.002031855518,-0.0421694889665,0.00683409394696,-0.999085009098
1576079775044711189,,76706,,1576079775,44647084,"""world""",,,-0.313454657793,0.021758787334,0.314616888762,,-0.00256673619151,-0.0419481061399,0.00721295643598,-0.999090492725
1576079775044854234,,76707,,1576079775,44775124,"""world""",,,-0.313365370035,0.0217277947813,0.314605712891,,-0.00204995414242,-0.0421651005745,0.00688973814249,-0.999084830284
1576079775044980847,,76708,,1576079775,44902338,"""world""",,,-0.313424915075,0.0218000598252,0.314610004425,,-0.00231637107208,-0.0419217646122,0.00623207166791,-0.999098837376
1576079775045095781,,76709,,1576079775,45033981,"""world""",,,-0.313440203667,0.0217892285436,0.314635902643,,-0.00183789804578,-0.0416378825903,0.00693993270397,-0.999107062817
1576079775045239862,,76710,,1576079775,45159745,"""world""",,,-0.313435554504,0.0218177028,0.314604401588,,-0.00207803514786,-0.0417764112353,0.00646794820204,-0.999103963375
1576079775045391507,,76711,,1576079775,45312811,"""world""",,,-0.313434720039,0.0218030977994,0.314578354359,,-0.00232529058121,-0.0419325307012,0.00663145724684,-0.999095797539
1576079775046350452,,76712,,1576079775,46284649,"""world""",,,-0.313450157642,0.0217345450073,0.314635306597,,-0.00167323846836,-0.0415779873729,0.00747626973316,-0.999105930328
1576079775066349577,,76713,,1576079775,66275620,"""world""",,,-0.313362449408,0.0217873603106,0.31462174654,,-0.00194120127708,-0.0420301482081,0.00680887512863,-0.99909132719
1576079775271928077,,76714,,1576079775,271750274,"""world""",,,-0.313437998295,0.021822988987,0.314602434635,,-0.0020930506289,-0.0418270714581,0.00642373831943,-0.999102056026
1576079775272031353,,76715,,1576079775,271924458,"""world""",,,-0.313436955214,0.0217943172902,0.314635396004,,-0.00165778957307,-0.0416618399322,0.00676537398249,-0.999107480049
1576079775272117554,,76716,,1576079775,272040194,"""world""",,,-0.313437998295,0.0217708069831,0.314599066973,,-0.00192389904987,-0.0417958945036,0.00714309280738,-0.999098837376
1576079775272235211,,76717,,1576079775,272157459,"""world""",,,-0.3134316504,0.021799499169,0.314603984356,,-0.00194518035278,-0.0418334119022,0.00629252381623,-0.999102950096
1576079775272342533,,76718,,1576079775,272285022,"""world""",,,-0.313425183296,0.0217877756804,0.314622581005,,-0.00174312479794,-0.0416423007846,0.00686256634071,-0.999107599258
1576079775272491490,,76719,,1576079775,272410677,"""world""",,,-0.313395828009,0.0219070017338,0.314645707607,,-0.00194090697914,-0.0420398190618,0.00581381237134,-0.999097168446
1576079775272632876,,76720,,1576079775,272549102,"""world""",,,-0.313444107771,0.0217562373728,0.314605355263,,-0.00199543172494,-0.0417677946389,0.00724861072376,-0.999099075794
1576079775272776340,,76721,,1576079775,272685361,"""world""",,,-0.313434332609,0.0217916443944,0.31462714076,,-0.00170921441168,-0.041674695909,0.00682522216812,-0.99910646677
1576079775272890592,,76722,,1576079775,272836414,"""world""",,,-0.313371688128,0.0217237323523,0.314633309841,,-0.00203136308119,-0.0419524982572,0.00718535203487,-0.999091684818
1576079775273023600,,76723,,1576079775,272977695,"""world""",,,-0.313445955515,0.0218095257878,0.314582467079,,-0.00229586428031,-0.0419303700328,0.00670029968023,-0.999095439911
1576079775286330242,,76724,,1576079775,286237075,"""world""",,,-0.313443601131,0.0217981766909,0.314584106207,,-0.00224979105406,-0.0419125817716,0.00673778215423,-0.999096095562
1576079775306345829,,76725,,1576079775,306254659,"""world""",,,-0.313449919224,0.0217766351998,0.314583539963,,-0.00231597130187,-0.0419040173292,0.00676838867366,-0.999096095562
1576079775500066718,,76726,,1576079775,499909781,"""world""",,,-0.313444823027,0.0217090062797,0.314624935389,,-0.00201607402414,-0.0419066399336,0.00689972843975,-0.999095737934
1576079775500160024,,76727,,1576079775,500099316,"""world""",,,-0.313446938992,0.0217544715852,0.314614146948,,-0.00193461729214,-0.0417436733842,0.00715372804552,-0.999100923538
1576079775500364170,,76728,,1576079775,500275062,"""world""",,,-0.313440173864,0.0218082163483,0.31460365653,,-0.00195782328956,-0.0418858453631,0.00632069958374,-0.999100506306
1576079775500493383,,76729,,1576079775,500419237,"""world""",,,-0.313451200724,0.02179046534,0.314624816179,,-0.00183561211452,-0.0415745303035,0.00695513561368,-0.999109506607
1576079775500639846,,76730,,1576079775,500556460,"""world""",,,-0.313436925411,0.0218205284327,0.314602434635,,-0.00210352358408,-0.0417512916028,0.0063986228779,-0.999105393887
1576079775500772538,,76731,,1576079775,500692650,"""world""",,,-0.313442766666,0.0217778235674,0.314626246691,,-0.00150408106856,-0.0416974313557,0.00680420314893,-0.999105989933
1576079775500897344,,76732,,1576079775,500820423,"""world""",,,-0.313409864902,0.0217274371535,0.314634472132,,-0.00213262159377,-0.0417977236211,0.00725865876302,-0.999097526073
1576079775501013615,,76733,,1576079775,500953297,"""world""",,,-0.313384413719,0.021818516776,0.314600765705,,-0.0018036008114,-0.042078346014,0.00647487444803,-0.999091804028
1576079775501173850,,76734,,1576079775,501078077,"""world""",,,-0.31330037117,0.021858073771,0.314635187387,,-0.00193744339049,-0.0423891432583,0.00546642718837,-0.999084353447
1576079775506408728,,76735,,1576079775,506317362,"""world""",,,-0.313429832458,0.0218282565475,0.314600348473,,-0.00222816923633,-0.0417926721275,0.00638727284968,-0.999103426933
1576079775526454969,,76736,,1576079775,526360737,"""world""",,,-0.31337916851,0.0217457264662,0.314586281776,,-0.00243056705222,-0.04234046489,0.00660622445866,-0.999078452587
1576079775727761863,,76737,,1576079775,727475174,"""world""",,,-0.31338045001,0.0217701755464,0.314606308937,,-0.00250283768401,-0.0423023998737,0.00713997054845,-0.99907630682
1576079775727914486,,76738,,1576079775,727810943,"""world""",,,-0.313464045525,0.0217801947147,0.314614862204,,-0.00227561336942,-0.041929282248,0.00736966636032,-0.999090790749
1576079775728079885,,76739,,1576079775,728014032,"""world""",,,-0.313435316086,0.0218116249889,0.314610242844,,-0.00216997228563,-0.0417866595089,0.00639833323658,-0.999103784561
1576079775728246730,,76740,,1576079775,728158271,"""world""",,,-0.313426017761,0.0217571668327,0.314644217491,,-0.00196984503418,-0.0417135246098,0.00665956642479,-0.999105572701
1576079775728361517,,76741,,1576079775,728293171,"""world""",,,-0.313433140516,0.0217651091516,0.314641386271,,-0.00212897756137,-0.0416979007423,0.00671701133251,-0.999105453491
1576079775728514887,,76742,,1576079775,728424132,"""world""",,,-0.313381046057,0.0217657834291,0.314580470324,,-0.00240205135196,-0.0423693731427,0.00658248644322,-0.999077439308
1576079775728616190,,76743,,1576079775,728550776,"""world""",,,-0.31336247921,0.0217763986439,0.314625680447,,-0.00192411371972,-0.0420274138451,0.00673307897523,-0.999091982841
1576079775728738455,,76744,,1576079775,728678907,"""world""",,,-0.31336992979,0.0218610465527,0.314658343792,,-0.0014711979311,-0.0419126227498,0.00544695416465,-0.999105393887
1576079775728865115,,76745,,1576079775,728802352,"""world""",,,-0.313385128975,0.0217263083905,0.314600974321,,-0.00196880032308,-0.0422359332442,0.00698833959177,-0.99908131361
1576079775728987353,,76746,,1576079775,728917170,"""world""",,,-0.313436120749,0.021758724004,0.314667284489,,-0.00139937840868,-0.0415317676961,0.00692352280021,-0.999112308025
1576079775746997921,,76747,,1576079775,746918337,"""world""",,,-0.31345012784,0.0217879712582,0.314586937428,,-0.00239440798759,-0.0418993867934,0.00683739455417,-0.999095618725
1576079775766341326,,76748,,1576079775,766247511,"""world""",,,-0.313433974981,0.0218293946236,0.314606696367,,-0.00221028621309,-0.0418249294162,0.00646330835298,-0.999101638794
1576079775956032995,,76749,,1576079775,955812625,"""world""",,,-0.313447445631,0.0217851866037,0.314627170563,,-0.00177680409979,-0.0416165925562,0.00702310027555,-0.999107420444
1576079775956216302,,76750,,1576079775,956003346,"""world""",,,-0.3134585917,0.0217580422759,0.314620584249,,-0.00172381731682,-0.0418437309563,0.00708338990808,-0.999097645283
1576079775956241800,,76751,,1576079775,956163101,"""world""",,,-0.3134329319,0.0217776801437,0.314632058144,,-0.00172338925768,-0.0416276492178,0.00682849390432,-0.999108374119
1576079775956402609,,76752,,1576079775,956322543,"""world""",,,-0.31336247921,0.0217734780163,0.314624577761,,-0.00191976735368,-0.0420220084488,0.0066499193199,-0.999092757702
1576079775956536929,,76753,,1576079775,956448328,"""world""",,,-0.313457131386,0.0217671077698,0.314605295658,,-0.0020128574688,-0.0417844504118,0.00715573690832,-0.99909901619
1576079775956652842,,76754,,1576079775,956575979,"""world""",,,-0.313448607922,0.021803194657,0.314634352922,,-0.00174365320709,-0.0416478924453,0.00670977076516,-0.999108314514
1576079775956755984,,76755,,1576079775,956684561,"""world""",,,-0.313436418772,0.0218310076743,0.314607828856,,-0.00209187623113,-0.0418196730316,0.00647833989933,-0.999101996422
1576079775956857714,,76756,,1576079775,956790744,"""world""",,,-0.313359051943,0.0217532105744,0.314632236958,,-0.00181504746433,-0.0420332327485,0.00655583152547,-0.99909311533
1576079775956969165,,76757,,1576079775,956902525,"""world""",,,-0.313440442085,0.0217608623207,0.31459787488,,-0.00193375477102,-0.0418031178415,0.00705826887861,-0.999099135399
1576079775966368753,,76758,,1576079775,966289487,"""world""",,,-0.313370376825,0.0217294488102,0.314608097076,,-0.00190980127081,-0.0421646311879,0.00689616100863,-0.999085128307
1576079775990842323,,76759,,1576079775,990745082,"""world""",,,-0.313427597284,0.0217789020389,0.314661085606,,-0.00151457311586,-0.0414269566536,0.00707072671503,-0.999115347862
1576079776183740232,,76760,,1576079776,183542449,"""world""",,,-0.313443481922,0.0217466056347,0.314611673355,,-0.00172005523928,-0.0418356619775,0.00704826228321,-0.999098241329
1576079776183762269,,76761,,1576079776,183665187,"""world""",,,-0.313438802958,0.0217300970107,0.314614266157,,-0.00220704893582,-0.0418221242726,0.00697138579562,-0.999098300934
1576079776183858582,,76762,,1576079776,183795295,"""world""",,,-0.313452810049,0.0217544510961,0.314609259367,,-0.00187714677304,-0.0417369306087,0.00716734910384,-0.999101161957
1576079776184166218,,76763,,1576079776,184022232,"""world""",,,-0.313445240259,0.0217764936388,0.314630746841,,-0.00166454317514,-0.0416881293058,0.00672531267628,-0.999106764793
1576079776184185113,,76764,,1576079776,184133061,"""world""",,,-0.313443332911,0.0217879433185,0.314636051655,,-0.00170062878169,-0.0415147505701,0.00689580244943,-0.999112725258
1576079776184322499,,76765,,1576079776,184263491,"""world""",,,-0.31344461441,0.0217984039336,0.314639389515,,-0.00168500468135,-0.0415941700339,0.00679675629362,-0.999110102654
1576079776184491653,,76766,,1576079776,184418674,"""world""",,,-0.313450962305,0.0217595417053,0.314602285624,,-0.0018794555217,-0.0417272821069,0.00715977651998,-0.999101698399
1576079776184592441,,76767,,1576079776,184531650,"""world""",,,-0.313366353512,0.0217875223607,0.314621388912,,-0.00196346524172,-0.0420339107513,0.00678859930485,-0.999091207981
1576079776184702442,,76768,,1576079776,184641662,"""world""",,,-0.313460439444,0.0217783227563,0.314588040113,,-0.00219989614561,-0.0419375039637,0.00674864882603,-0.999095022678
1576079776186298953,,76769,,1576079776,186234872,"""world""",,,-0.313362896442,0.0217995643616,0.314598053694,,-0.00239254999906,-0.0422145016491,0.00632378412411,-0.999085664749
1576079776206337817,,76770,,1576079776,206253258,"""world""",,,-0.313448935747,0.0217719916254,0.314638435841,,-0.00148983544204,-0.0417013093829,0.00670743640512,-0.999106526375
1576079776411630836,,76771,,1576079776,411428790,"""world""",,,-0.313389152288,0.0218034479767,0.314656615257,,-0.00167714781128,-0.04187919572,0.00611605448648,-0.999102592468
1576079776411670643,,76772,,1576079776,411569464,"""world""",,,-0.313396185637,0.0217592902482,0.314631164074,,-0.00211742077954,-0.0418577231467,0.00669623259455,-0.999098956585
1576079776411785225,,76773,,1576079776,411702776,"""world""",,,-0.313436537981,0.0217675045133,0.314608544111,,-0.00177310802974,-0.041788212955,0.00711642345414,-0.999099552631
1576079776411891858,,76774,,1576079776,411823011,"""world""",,,-0.313431948423,0.0217379499227,0.314623743296,,-0.00210304162465,-0.0418430790305,0.00691296905279,-0.999098062515
1576079776412034179,,76775,,1576079776,411936436,"""world""",,,-0.31337428093,0.0217653717846,0.3146263659,,-0.00197711936198,-0.0420285128057,0.00691214669496,-0.99909055233
1576079776412147536,,76776,,1576079776,412054389,"""world""",,,-0.313452154398,0.0217755697668,0.314643234015,,-0.00231107417494,-0.0418799966574,0.00697809550911,-0.999095678329
1576079776412269557,,76777,,1576079776,412176785,"""world""",,,-0.3134290874,0.0218171924353,0.314610183239,,-0.00214709993452,-0.041810631752,0.00641863746569,-0.999102652073
1576079776412406048,,76778,,1576079776,412334906,"""world""",,,-0.313436061144,0.0217699706554,0.314658492804,,-0.00161368935369,-0.0414011776447,0.00705815851688,-0.999116361141
1576079776412518123,,76779,,1576079776,412454322,"""world""",,,-0.313302874565,0.0218634158373,0.314641863108,,-0.00181852793321,-0.0423818230629,0.00548253254965,-0.999084830284
1576079776412630796,,76780,,1576079776,412567306,"""world""",,,-0.313428908587,0.0217443965375,0.314610898495,,-0.00212883925997,-0.0418322123587,0.00698096212,-0.999098002911
1576079776426462372,,76781,,1576079776,426388730,"""world""",,,-0.313370496035,0.02176496014,0.314620286226,,-0.00197588605806,-0.042004596442,0.0067888381891,-0.999092400074
1576079776446527410,,76782,,1576079776,446429234,"""world""",,,-0.313431799412,0.0217974893749,0.314629048109,,-0.00169326795731,-0.0415964499116,0.00685163866729,-0.999109625816
1576079776640127648,,76783,,1576079776,639914488,"""world""",,,-0.313438206911,0.0218189228326,0.314594477415,,-0.00214537396096,-0.0417427681386,0.00636326801032,-0.999105930328
1576079776640249130,,76784,,1576079776,640070892,"""world""",,,-0.313435167074,0.0217594243586,0.314638525248,,-0.00210685119964,-0.0416516438127,0.00674038892612,-0.999107241631
1576079776640416476,,76785,,1576079776,640333273,"""world""",,,-0.313380092382,0.0218478087336,0.314678966999,,-0.00119812763296,-0.0417621470988,0.00590011803433,-0.999109447002
1576079776640545471,,76786,,1576079776,640468808,"""world""",,,-0.313433110714,0.0217595491558,0.314638137817,,-0.00202188245021,-0.0416995771229,0.00677461642772,-0.999105274677
1576079776640716299,,76787,,1576079776,640616568,"""world""",,,-0.313431948423,0.0217681750655,0.314645528793,,-0.0019010445103,-0.041681792587,0.00672639440745,-0.999106585979
1576079776640857676,,76788,,1576079776,640779305,"""world""",,,-0.31342869997,0.0217684730887,0.314642220736,,-0.00204115733504,-0.0417580492795,0.00667961174622,-0.999103367329
1576079776641009634,,76789,,1576079776,640907693,"""world""",,,-0.313367456198,0.0217950921506,0.314593046904,,-0.00244238669984,-0.0421658568084,0.00646060379222,-0.999086737633
1576079776641147367,,76790,,1576079776,641042163,"""world""",,,-0.31343087554,0.0218231789768,0.314597994089,,-0.00206153118052,-0.0418291054666,0.00642763450742,-0.999101996422
1576079776641218315,,76791,,1576079776,641162088,"""world""",,,-0.313359886408,0.0217548515648,0.314599007368,,-0.00211478373967,-0.0421762652695,0.00705170817673,-0.999083042145
1576079776646410109,,76792,,1576079776,646295109,"""world""",,,-0.313440173864,0.0218117330223,0.314603328705,,-0.00210385979153,-0.0418338663876,0.00633794628084,-0.999102294445
1576079776666767792,,76793,,1576079776,666667355,"""world""",,,-0.313360124826,0.0217879116535,0.314566075802,,-0.00253014895134,-0.0423170514405,0.00659588398412,-0.999079346657
1576079776867512845,,76794,,1576079776,867258314,"""world""",,,-0.313431829214,0.0217878744006,0.314647138119,,-0.00171117822174,-0.0416175052524,0.0068611195311,-0.999108672142
1576079776867516404,,76795,,1576079776,867394539,"""world""",,,-0.313454657793,0.0218018963933,0.31458812952,,-0.00232100184076,-0.0419394113123,0.0069271014072,-0.999093532562
1576079776867643406,,76796,,1576079776,867508718,"""world""",,,-0.313440293074,0.0218295250088,0.314605653286,,-0.00205716397613,-0.041792139411,0.00646378193051,-0.999103367329
1576079776867713425,,76797,,1576079776,867633735,"""world""",,,-0.313436746597,0.0217889193445,0.314628869295,,-0.00171173515264,-0.0416391305625,0.00685317767784,-0.999107778072
1576079776867858343,,76798,,1576079776,867755620,"""world""",,,-0.313454806805,0.0217630434781,0.314607560635,,-0.00188252446242,-0.0417153984308,0.00724957371131,-0.999101519585
1576079776867973301,,76799,,1576079776,867879847,"""world""",,,-0.313359737396,0.0218103267252,0.314594686031,,-0.00235724705271,-0.0421274416149,0.00635508401319,-0.999089241028
1576079776868132907,,76800,,1576079776,868002222,"""world""",,,-0.313443303108,0.0217846278101,0.314627230167,,-0.00182717223652,-0.0416151843965,0.00695630908012,-0.999107897282
1576079776868267416,,76801,,1576079776,868116105,"""world""",,,-0.3133880198,0.0218125786632,0.314632594585,,-0.00223450688645,-0.042160667479,0.00694947456941,-0.999084234238
1576079776868439734,,76802,,1576079776,868305740,"""world""",,,-0.313445001841,0.0217356048524,0.314613133669,,-0.00224743457511,-0.0418230593204,0.00707560405135,-0.999097466469
1576079776868501855,,76803,,1576079776,868438861,"""world""",,,-0.313444763422,0.0217988919467,0.314632683992,,-0.00176871404983,-0.041628561914,0.00676265498623,-0.999108791351
1576079776886241478,,76804,,1576079776,886162230,"""world""",,,-0.313379108906,0.0218874290586,0.314649701118,,-0.00154431664851,-0.0418971404433,0.00551515631378,-0.999105513096
1576079776908830217,,76805,,1576079776,908731167,"""world""",,,-0.313363671303,0.0217417627573,0.314664632082,,-0.0015321172541,-0.0418045111001,0.00690963491797,-0.999100744724
1576079777095905914,,76806,,1576079777,95553810,"""world""",,,-0.31342881918,0.021792454645,0.314609616995,,-0.00184934376739,-0.041806936264,0.00636193202808,-0.999103784561
1576079777095912205,,76807,,1576079777,95665099,"""world""",,,-0.313439488411,0.0217940863222,0.314606815577,,-0.00205740821548,-0.0417806096375,0.00642681168392,-0.99910402298
1576079777095914084,,76808,,1576079777,95803543,"""world""",,,-0.313435256481,0.0218125060201,0.314603716135,,-0.00222389469855,-0.0417441464961,0.00653886375949,-0.999104559422
1576079777096033495,,76809,,1576079777,95947255,"""world""",,,-0.313447892666,0.0217589363456,0.314605802298,,-0.00197378732264,-0.0417410172522,0.0072307405062,-0.999100387096
1576079777096181624,,76810,,1576079777,96064513,"""world""",,,-0.313429743052,0.0218284763396,0.314603328705,,-0.00214914814569,-0.0417630448937,0.00647143879905,-0.999104321003
1576079777096302748,,76811,,1576079777,96191961,"""world""",,,-0.313434869051,0.0217698588967,0.314650565386,,-0.00140413234476,-0.0414478033781,0.00702949427068,-0.999114990234
1576079777096449948,,76812,,1576079777,96367079,"""world""",,,-0.313470542431,0.0218160804361,0.314576923847,,-0.00271204300225,-0.0420250706375,0.00700869131833,-0.999088287354
1576079777096560329,,76813,,1576079777,96500005,"""world""",,,-0.313445061445,0.0218057688326,0.31461083889,,-0.00192179600708,-0.041861589998,0.00642049824819,-0.999100923538
1576079777096704004,,76814,,1576079777,96623520,"""world""",,,-0.313455611467,0.0217538457364,0.31460082531,,-0.00195138191339,-0.041813198477,0.00714959623292,-0.999097943306
1576079777106306744,,76815,,1576079777,106213626,"""world""",,,-0.313441604376,0.0218088962138,0.314609497786,,-0.0019340935396,-0.0418500490487,0.0063883215189,-0.999101638794
1576079777126305722,,76816,,1576079777,126233851,"""world""",,,-0.313381642103,0.02183720842,0.314598798752,,-0.0026440047659,-0.0423583909869,0.0065038674511,-0.999077796936
1576079777324735315,,76817,,1576079777,324074160,"""world""",,,-0.313430309296,0.0218306258321,0.314599514008,,-0.00215965136886,-0.0418112017214,0.00639765895903,-0.999102771282
1576079777324738309,,76818,,1576079777,324484167,"""world""",,,-0.313450366259,0.0217555519193,0.314602255821,,-0.00196631159633,-0.0418093986809,0.00720856897533,-0.999097704887
1576079777325416177,,76819,,1576079777,325339354,"""world""",,,-0.313435763121,0.0217847600579,0.314631581306,,-0.00170526106376,-0.0416203178465,0.00681252917275,-0.999108910561
1576079777325711155,,76820,,1576079777,325644530,"""world""",,,-0.313427686691,0.0217486787587,0.314666628838,,-0.001717460691,-0.0415465570986,0.00682094367221,-0.999111890793
1576079777326004111,,76821,,1576079777,325945168,"""world""",,,-0.313435167074,0.0218308642507,0.314601808786,,-0.00208214786835,-0.0417809560895,0.00645876349881,-0.999103844166
1576079777326341715,,76822,,1576079777,326228935,"""world""",,,-0.313460439444,0.0218518022448,0.314604252577,,-0.00241621118039,-0.0419311374426,0.00663199741393,-0.99909555912
1576079777326582330,,76823,,1576079777,326494011,"""world""",,,-0.313427239656,0.0217829402536,0.314631491899,,-0.00178178190254,-0.0416749045253,0.00686744041741,-0.999106109142
1576079777330853241,,76824,,1576079777,326629783,"""world""",,,-0.313361823559,0.0217786245048,0.314603030682,,-0.00220843823627,-0.0421822369099,0.00620830105618,-0.999088227749
1576079777330858930,,76825,,1576079777,326765616,"""world""",,,-0.313434720039,0.0217657927424,0.31460505724,,-0.00201350892894,-0.041790343821,0.00700105261058,-0.999099850655
1576079777330862605,,76826,,1576079777,326898219,"""world""",,,-0.313450723886,0.021791363135,0.314576923847,,-0.00247317762114,-0.0419084355235,0.00684788171202,-0.999095022678
1576079777346721209,,76827,,1576079777,346556638,"""world""",,,-0.313424795866,0.0217336434871,0.314613729715,,-0.00213479250669,-0.0419127270579,0.00694614509121,-0.999094843864
1576079777366466112,,76828,,1576079777,366353345,"""world""",,,-0.313370972872,0.021767674014,0.314620673656,,-0.00192573200911,-0.0420037992299,0.00691773882136,-0.999091744423
1576079777386286650,,76829,,1576079777,386181624,"""world""",,,-0.313454121351,0.0217459630221,0.314609020948,,-0.00177106761839,-0.0418152734637,0.00702893547714,-0.999099135399
1576079777406617207,,76830,,1576079777,406492008,"""world""",,,-0.313443213701,0.0217362139374,0.314607769251,,-0.00180428486783,-0.0417913272977,0.00710826227441,-0.999099493027
1576079777427216693,,76831,,1576079777,426326232,"""world""",,,-0.313357383013,0.0217782799155,0.314618766308,,-0.00201520021074,-0.0420338027179,0.00668540783226,-0.999091863632
1576079777446346251,,76832,,1576079777,446239883,"""world""",,,-0.313428759575,0.0217899084091,0.314616411924,,-0.00237500970252,-0.04187913239,0.00630029384047,-0.999099969864
1576079777466549743,,76833,,1576079777,466468029,"""world""",,,-0.313437670469,0.0217850562185,0.314622730017,,-0.00229665776715,-0.0419148802757,0.0062043145299,-0.999099373817
1576079777486450636,,76834,,1576079777,486372983,"""world""",,,-0.31343510747,0.0217267982662,0.314621150494,,-0.00203747698106,-0.0419669188559,0.00675762072206,-0.999094128609
1576079777506267327,,76835,,1576079777,506181093,"""world""",,,-0.313445746899,0.0217894613743,0.314578652382,,-0.00235212291591,-0.0419161319733,0.00681367376819,-0.999095201492
1576079777526239947,,76836,,1576079777,526149493,"""world""",,,-0.313432365656,0.0217936392874,0.314607977867,,-0.00230282312259,-0.0417664684355,0.00678620347753,-0.999101758003
1576079777546356562,,76837,,1576079777,546254787,"""world""",,,-0.313435286283,0.0218250062317,0.314600735903,,-0.00217149429955,-0.0417825169861,0.00635147327557,-0.999104261398
1576079777566526939,,76838,,1576079777,566388488,"""world""",,,-0.313436806202,0.0217986796051,0.31458351016,,-0.0023140788544,-0.0419280417264,0.00665639899671,-0.999095797539
1576079777586367486,,76839,,1576079777,586260852,"""world""",,,-0.313379824162,0.0218439549208,0.314675092697,,-0.0011880438542,-0.0417330190539,0.00594690488651,-0.999110400677
1576079777606302165,,76840,,1576079777,606205120,"""world""",,,-0.313435852528,0.0218204781413,0.314605355263,,-0.00213220552541,-0.041804317385,0.00632902234793,-0.999103546143
