rosbagTimestamp,transforms,-,header,seq,stamp,secs,nsecs,frame_id,child_frame_id,transform,translation,x,y,z,rotation,x,y,z,w
1576079368298098642,,,0,,1576079368,297955892,"""world""","""hoverOpti/base_link""",,,-1.00874638557,0.0209421813488,1.18524289131,,0.00726436697796,-0.0112997616422,-0.00876134631576,0.999871383314
1576079368317732180,,,0,,1576079368,317638127,"""world""","""hoverOpti/base_link""",,,-1.00876379013,0.0209317114204,1.18525052071,,0.00712060190741,-0.0116364819125,-0.00889398853802,0.999867384349
1576079368337769301,,,0,,1576079368,337687126,"""world""","""hoverOpti/base_link""",,,-1.00880002975,0.0209305677563,1.18524134159,,0.00711089563675,-0.0115604298966,-0.00868326990177,0.999870187798
1576079368357687867,,,0,,1576079368,357606618,"""world""","""hoverOpti/base_link""",,,-1.00876104832,0.0209269169718,1.18524456024,,0.00711646191447,-0.0115613116483,-0.00885199208269,0.999868658514
1576079368377763514,,,0,,1576079368,377667450,"""world""","""hoverOpti/base_link""",,,-1.00884497166,0.0209480207413,1.18522441387,,0.0070821720353,-0.0116092671672,-0.00880214551009,0.999868786386
1576079368397821801,,,0,,1576079368,397741944,"""world""","""hoverOpti/base_link""",,,-1.00880813599,0.0209292136133,1.1852465868,,0.0070271218638,-0.0119424736136,-0.00891023180731,0.999864293118
1576079368417637957,,,0,,1576079368,417560266,"""world""","""hoverOpti/base_link""",,,-1.00880289078,0.0209379717708,1.1852439642,,0.00704681411401,-0.0119522615039,-0.00882177059565,0.999864821973
1576079368437590064,,,0,,1576079368,437506153,"""world""","""hoverOpti/base_link""",,,-1.0087608099,0.0209250673652,1.18524956703,,0.0070360981999,-0.0115794770979,-0.00895014488313,0.999868143276
1576079368457545625,,,0,,1576079368,457463206,"""world""","""hoverOpti/base_link""",,,-1.00877678394,0.0209502093494,1.18525540829,,0.00698387920672,-0.0119082820463,-0.00901540239358,0.999864061145
1576079368477549129,,,0,,1576079368,477481004,"""world""","""hoverOpti/base_link""",,,-1.00877332687,0.0209321379662,1.18526339531,,0.006978599632,-0.0119140042503,-0.00881655862982,0.999865802967
1576079368497715103,,,0,,1576079368,497629510,"""world""","""hoverOpti/base_link""",,,-1.00881254673,0.0209640357643,1.18523716927,,0.00717569176808,-0.0116038694765,-0.00902177133113,0.999866224704
1576079368517996380,,,0,,1576079368,517922954,"""world""","""hoverOpti/base_link""",,,-1.00883960724,0.0209401957691,1.18523144722,,0.00705352579954,-0.0116509193876,-0.00875889749719,0.999868884187
1576079368537983761,,,0,,1576079368,537670717,"""world""","""hoverOpti/base_link""",,,-1.00881206989,0.0209293942899,1.18524873257,,0.00701276162921,-0.0119876107966,-0.00889712601783,0.999863970503
1576079368557932761,,,0,,1576079368,557829281,"""world""","""hoverOpti/base_link""",,,-1.00872349739,0.0209177304059,1.18527293205,,0.00699440806197,-0.0115778641317,-0.00884362679198,0.999869402264
1576079368578204809,,,0,,1576079368,578133167,"""world""","""hoverOpti/base_link""",,,-1.00874114037,0.0209246370941,1.1852492094,,0.0071728786863,-0.0112591653644,-0.00887136050221,0.999871531733
1576079368597695851,,,0,,1576079368,597607550,"""world""","""hoverOpti/base_link""",,,-1.00880384445,0.020926527679,1.1852492094,,0.00704001797332,-0.0119294771541,-0.00886244761969,0.99986478223
1576079368617787272,,,0,,1576079368,617715169,"""world""","""hoverOpti/base_link""",,,-1.0088135004,0.0209515001625,1.18523740768,,0.00710405578258,-0.0115496001181,-0.00903600618536,0.999867236047
1576079368637849131,,,0,,1576079368,637775456,"""world""","""hoverOpti/base_link""",,,-1.00879979134,0.0209349561483,1.18524646759,,0.00711557235712,-0.0115366328782,-0.00877784767616,0.999869603559
1576079368657577389,,,0,,1576079368,657502669,"""world""","""hoverOpti/base_link""",,,-1.00879371166,0.0209348779172,1.18523967266,,0.00713430031759,-0.0112879550308,-0.008753974506,0.999872517754
1576079368677667333,,,0,,1576079368,677573122,"""world""","""hoverOpti/base_link""",,,-1.0087647438,0.0209222193807,1.18527340889,,0.00697309247999,-0.0118861990659,-0.00877358489511,0.999866550326
1576079368698917574,,,0,,1576079368,698840869,"""world""","""hoverOpti/base_link""",,,-1.00879776478,0.0209314543754,1.18525290489,,0.00703240926289,-0.0119056291075,-0.00875557208114,0.999866061617
1576079368717664931,,,0,,1576079368,717568057,"""world""","""hoverOpti/base_link""",,,-1.00883972645,0.0209345147014,1.18523526192,,0.00716904820865,-0.0116023235291,-0.00869227226116,0.999869209067
1576079368737776630,,,0,,1576079368,737701382,"""world""","""hoverOpti/base_link""",,,-1.00875878334,0.0209180470556,1.18526637554,,0.00698897991214,-0.0118698079294,-0.00883803462305,0.999866066513
1576079368757561451,,,0,,1576079368,757480532,"""world""","""hoverOpti/base_link""",,,-1.00877714157,0.0209439061582,1.18525588512,,0.0070380261969,-0.0118218290663,-0.00900273720776,0.999864821497
1576079368778339315,,,0,,1576079368,778258454,"""world""","""hoverOpti/base_link""",,,-1.00882208347,0.020921304822,1.18523597717,,0.00722227410523,-0.0115816599066,-0.00848956753595,0.999870807231
1576079368797705822,,,0,,1576079368,797620864,"""world""","""hoverOpti/base_link""",,,-1.00874722004,0.0209177043289,1.18525934219,,0.00702133500474,-0.0118949452843,-0.00881875719965,0.99986571131
1576079368818024756,,,0,,1576079368,817949347,"""world""","""hoverOpti/base_link""",,,-1.00883340836,0.0209385622293,1.18522512913,,0.00702683410489,-0.011641235511,-0.00870445611854,0.999869660347
1576079368837604313,,,0,,1576079368,837514742,"""world""","""hoverOpti/base_link""",,,-1.00876200199,0.0209492798895,1.18523573875,,0.00720696552397,-0.0112700589919,-0.00894433051416,0.999870513802
1576079368857582377,,,0,,1576079368,857506609,"""world""","""hoverOpti/base_link""",,,-1.00875604153,0.0209203604609,1.18525636196,,0.00705883035851,-0.0118075571678,-0.00878029152224,0.999866821626
1576079368877825754,,,0,,1576079368,877750175,"""world""","""hoverOpti/base_link""",,,-1.00874829292,0.02092060633,1.18526375294,,0.00694653312009,-0.0118662774469,-0.00874610482744,0.999867212578
1576079368897628919,,,0,,1576079368,897558235,"""world""","""hoverOpti/base_link""",,,-1.0087968111,0.0209327805787,1.18523693085,,0.00707771754038,-0.011574424562,-0.0086743122021,0.999870339053
1576079368917981025,,,0,,1576079368,917906095,"""world""","""hoverOpti/base_link""",,,-1.00876820087,0.0209293421358,1.18526172638,,0.0070300522351,-0.0117973146812,-0.00874508743779,0.999867453805
1576079368937964103,,,0,,1576079368,937878926,"""world""","""hoverOpti/base_link""",,,-1.00878715515,0.0209342725575,1.18524718285,,0.00709380182486,-0.0115694848005,-0.00864289704535,0.999870554286
1576079368957586146,,,0,,1576079368,957511154,"""world""","""hoverOpti/base_link""",,,-1.00878787041,0.0209426749498,1.18523347378,,0.00720522945026,-0.0115050520194,-0.00868411143609,0.999870143896
1576079368978050590,,,0,,1576079368,977981233,"""world""","""hoverOpti/base_link""",,,-1.0087338686,0.0209465343505,1.18525576591,,0.00696260252749,-0.0115731973784,-0.00900046531919,0.999868278771
1576079368997852040,,,0,,1576079368,997772203,"""world""","""hoverOpti/base_link""",,,-1.00877296925,0.020938994363,1.18525767326,,0.00702016092897,-0.0119424136173,-0.00893949646204,0.999864081513
1576079369017648002,,,0,,1576079369,17568138,"""world""","""hoverOpti/base_link""",,,-1.00879526138,0.0209308471531,1.18525254726,,0.00706268610007,-0.0115796971201,-0.00870595437356,0.999870109283
1576079369037755511,,,0,,1576079369,37645413,"""world""","""hoverOpti/base_link""",,,-1.00881052017,0.0209309384227,1.18524992466,,0.00698233479126,-0.0119446506391,-0.00891958291322,0.999864497501
1576079369058387460,,,0,,1576079369,58308301,"""world""","""hoverOpti/base_link""",,,-1.00879836082,0.020927503705,1.18524897099,,0.00700624992191,-0.0119984003385,-0.00880525862824,0.999864699983
1576079369077842429,,,0,,1576079369,77761842,"""world""","""hoverOpti/base_link""",,,-1.0087608099,0.0209269300103,1.18526363373,,0.00701573579171,-0.0118360853832,-0.0086997495337,0.999867491667
1576079369097740996,,,0,,1576079369,97629235,"""world""","""hoverOpti/base_link""",,,-1.00883448124,0.0209439042956,1.18522810936,,0.00709701884283,-0.0115780410639,-0.00882245688407,0.999868864173
1576079369118200932,,,0,,1576079369,118090733,"""world""","""hoverOpti/base_link""",,,-1.00881552696,0.0209394693375,1.1852517128,,0.00709245650269,-0.0118694915134,-0.00884819831986,0.999865251731
1576079369137928520,,,0,,1576079369,137773950,"""world""","""hoverOpti/base_link""",,,-1.00878632069,0.020937608555,1.18524801731,,0.00705319254182,-0.0115745474702,-0.00873539483464,0.999869979149
1576079369158079438,,,0,,1576079369,157945064,"""world""","""hoverOpti/base_link""",,,-1.00877523422,0.0209455788136,1.18526744843,,0.00710795911928,-0.0118696653729,-0.00882485822438,0.999865345853
1576079369177600241,,,0,,1576079369,177524792,"""world""","""hoverOpti/base_link""",,,-1.00879263878,0.0209442675114,1.18524539471,,0.00712112019544,-0.0115425019916,-0.00874601221416,0.999869775303
1576079369197739721,,,0,,1576079369,197612701,"""world""","""hoverOpti/base_link""",,,-1.00883412361,0.020949697122,1.18522930145,,0.00712278979595,-0.0115436444782,-0.00879554929662,0.999869315686
1576079369218213678,,,0,,1576079369,217727454,"""world""","""hoverOpti/base_link""",,,-1.0087915659,0.0209400318563,1.18525075912,,0.00708788288804,-0.0114716977599,-0.00869314536016,0.999871287362
1576079369237605050,,,0,,1576079369,237481465,"""world""","""hoverOpti/base_link""",,,-1.00880694389,0.0209324415773,1.18524932861,,0.00699609458449,-0.0119206456109,-0.00886698143799,0.999865155663
1576079369257761489,,,0,,1576079369,257675224,"""world""","""hoverOpti/base_link""",,,-1.00876045227,0.020918590948,1.1852504015,,0.00709262886902,-0.0116453995965,-0.00896874786817,0.999866811553
1576079369278810643,,,0,,1576079369,278717726,"""world""","""hoverOpti/base_link""",,,-1.00880241394,0.0209376420826,1.18524980545,,0.00699897536923,-0.0119472893714,-0.0088262478534,0.999865177896
1576079369297708182,,,0,,1576079369,297635856,"""world""","""hoverOpti/base_link""",,,-1.00877583027,0.0209462307394,1.18525230885,,0.00705354081737,-0.0118406802747,-0.00904227208504,0.999864132354
1576079369317754265,,,0,,1576079369,317673915,"""world""","""hoverOpti/base_link""",,,-1.00875902176,0.0209352001548,1.18525254726,,0.00702713563081,-0.0118384417512,-0.00877706081394,0.999866708049
1576079369337997028,,,0,,1576079369,337929058,"""world""","""hoverOpti/base_link""",,,-1.0087569952,0.0209269914776,1.18525576591,,0.00699727323159,-0.0118517893079,-0.00883637825251,0.999866236892
1576079369357856518,,,0,,1576079369,357782374,"""world""","""hoverOpti/base_link""",,,-1.00881159306,0.0209294203669,1.18524539471,,0.00702771291541,-0.0119403681099,-0.00891055234388,0.999864311253
1576079369377831136,,,0,,1576079369,377764738,"""world""","""hoverOpti/base_link""",,,-1.00884473324,0.0209423974156,1.18522834778,,0.00705243589301,-0.0116149345207,-0.0088048374515,0.999868907048
1576079369397553244,,,0,,1576079369,397487566,"""world""","""hoverOpti/base_link""",,,-1.00876891613,0.0209296680987,1.18525993824,,0.00687161642058,-0.0118850181321,-0.00880992160543,0.999866947405
1576079369417632149,,,0,,1576079369,417549614,"""world""","""hoverOpti/base_link""",,,-1.00883173943,0.0209371242672,1.18522882462,,0.00707719706136,-0.0116330097873,-0.00888105514395,0.99986784788
1576079369437538163,,,0,,1576079369,437460734,"""world""","""hoverOpti/base_link""",,,-1.0088031292,0.0209438558668,1.18525004387,,0.00710515925363,-0.0119254863113,-0.00881690585438,0.999864771686
1576079369457792248,,,0,,1576079369,457721748,"""world""","""hoverOpti/base_link""",,,-1.00880646706,0.0209517609328,1.18524348736,,0.00715293439284,-0.0115817039293,-0.00904915308782,0.999866397321
1576079369477546139,,,0,,1576079369,477446773,"""world""","""hoverOpti/base_link""",,,-1.00875461102,0.0209244228899,1.18526852131,,0.00696008521461,-0.0119312268712,-0.00891857545745,0.999864821889
1576079369497599597,,,0,,1576079369,497524967,"""world""","""hoverOpti/base_link""",,,-1.00876307487,0.0209264289588,1.18525981903,,0.00697925929696,-0.0118644249934,-0.00878431788294,0.999866671671
1576079369517748607,,,0,,1576079369,517636179,"""world""","""hoverOpti/base_link""",,,-1.00879240036,0.0209327396005,1.18524086475,,0.00705425989003,-0.011581966472,-0.00883246665017,0.999869032925
1576079369537557273,,,0,,1576079369,537488659,"""world""","""hoverOpti/base_link""",,,-1.0087647438,0.020925687626,1.18526995182,,0.00699282059141,-0.0118811717657,-0.00885496035845,0.999865754936
1576079369557649207,,,0,,1576079369,557548474,"""world""","""hoverOpti/base_link""",,,-1.00877773762,0.020949460566,1.1852606535,,0.00696895152165,-0.0118545131019,-0.00906434062264,0.999864361783
1576079369578733996,,,0,,1576079369,578664916,"""world""","""hoverOpti/base_link""",,,-1.00879919529,0.0209323260933,1.18525397778,,0.00702333389895,-0.0119260649638,-0.00878412724838,0.999865631404
1576079369597645018,,,0,,1576079369,597566458,"""world""","""hoverOpti/base_link""",,,-1.00872039795,0.0209297146648,1.18526518345,,0.00703158180938,-0.0115316193209,-0.00884076205254,0.999869701281
1576079369628277792,,,0,,1576079369,628184188,"""world""","""hoverOpti/base_link""",,,-1.00874900818,0.0209302715957,1.18524479866,,0.00711472901926,-0.011245480907,-0.00881044114165,0.999872639848
1576079369637907849,,,0,,1576079369,637810311,"""world""","""hoverOpti/base_link""",,,-1.00876843929,0.0209219269454,1.18526875973,,0.00695118377251,-0.0118449038917,-0.00872979038314,0.99986757626
1576079369657598206,,,0,,1576079369,657496097,"""world""","""hoverOpti/base_link""",,,-1.00879299641,0.0209333021194,1.18523263931,,0.00720987739513,-0.0112964595369,-0.00881358261474,0.999871355941
1576079369677537980,,,0,,1576079369,677467170,"""world""","""hoverOpti/base_link""",,,-1.00875771046,0.0209317058325,1.18525111675,,0.00701640852096,-0.0116892369826,-0.00891804669469,0.999867291291
1576079369697567283,,,0,,1576079369,697486517,"""world""","""hoverOpti/base_link""",,,-1.00879561901,0.0209389608353,1.1852427721,,0.00712637613131,-0.0115249624206,-0.00877136842361,0.999869718064
1576079369721480422,,,0,,1576079369,721408595,"""world""","""hoverOpti/base_link""",,,-1.0088416338,0.0209465175867,1.18522429466,,0.00723217046077,-0.0116427112719,-0.00877063653881,0.999867600695
1576079369737594910,,,0,,1576079369,737488902,"""world""","""hoverOpti/base_link""",,,-1.00876009464,0.0209248326719,1.18524420261,,0.0071304234366,-0.0116714220153,-0.00890376252048,0.999866820123
1576079369757535425,,,0,,1576079369,757452967,"""world""","""hoverOpti/base_link""",,,-1.0088070631,0.0209370870143,1.18524372578,,0.00701842783172,-0.011897697258,-0.00881816295334,0.999865704219
1576079369777500899,,,0,,1576079369,777430183,"""world""","""hoverOpti/base_link""",,,-1.00881290436,0.0209400113672,1.18525516987,,0.00701933513937,-0.0119241359804,-0.00882581215602,0.999865315408
1576079369797633450,,,0,,1576079369,797532286,"""world""","""hoverOpti/base_link""",,,-1.00873756409,0.0209528226405,1.18526017666,,0.00711577742095,-0.0116262414657,-0.00914528852129,0.999865270884
1576079369817666717,,,0,,1576079369,817588525,"""world""","""hoverOpti/base_link""",,,-1.0087928772,0.0209407340735,1.18525528908,,0.00712047769824,-0.0116110542132,-0.008817849348,0.99986835521
1576079369837521534,,,0,,1576079369,837440214,"""world""","""hoverOpti/base_link""",,,-1.00871121883,0.0209185443819,1.1852697134,,0.00706490786157,-0.0115864966884,-0.00891625421843,0.9998681616
1576079369857561524,,,0,,1576079369,857488038,"""world""","""hoverOpti/base_link""",,,-1.00884079933,0.0209264345467,1.1852325201,,0.00713041096478,-0.0116198595099,-0.00883549204999,0.999868026384
1576079369878025292,,,0,,1576079369,877955642,"""world""","""hoverOpti/base_link""",,,-1.00883793831,0.0209504496306,1.18522262573,,0.00716832234685,-0.0116259364487,-0.00885692368887,0.999867495051
1576079369897714681,,,0,,1576079369,897609322,"""world""","""hoverOpti/base_link""",,,-1.00876152515,0.0209170654416,1.18527400494,,0.00671246552743,-0.0120524782336,-0.00936922335125,0.999860939445
1576079369917919278,,,0,,1576079369,917834117,"""world""","""hoverOpti/base_link""",,,-1.00876510143,0.0209303144366,1.18524873257,,0.00710159077785,-0.0116685267874,-0.00892144759743,0.999866901474
1576079369937588998,,,0,,1576079369,937520388,"""world""","""hoverOpti/base_link""",,,-1.00881171227,0.0209299065173,1.18525242805,,0.00699482476645,-0.011944493125,-0.00878784049162,0.99986557865
1576079369957740309,,,0,,1576079369,957658387,"""world""","""hoverOpti/base_link""",,,-1.00880551338,0.0209396034479,1.18525016308,,0.00707262888375,-0.0119266099256,-0.00899110820267,0.99986343761
1576079369979858057,,,0,,1576079369,979787817,"""world""","""hoverOpti/base_link""",,,-1.00874495506,0.0209324639291,1.18525505066,,0.00718054725099,-0.0112430258324,-0.00873653802382,0.999872845423
1576079369997580324,,,0,,1576079369,997498627,"""world""","""hoverOpti/base_link""",,,-1.00883936882,0.0209449529648,1.1852247715,,0.0071332958138,-0.0115788684068,-0.00879120403488,0.999868871717
1576079370017750929,,,0,,1576079370,17683056,"""world""","""hoverOpti/base_link""",,,-1.00876665115,0.0209217574447,1.18526518345,,0.00711586666775,-0.0118376736139,-0.00866784638633,0.999867042343
1576079370037644318,,,0,,1576079370,37564151,"""world""","""hoverOpti/base_link""",,,-1.00879788399,0.0209371522069,1.18524861336,,0.00692355607741,-0.0119528803377,-0.00888248687149,0.999865138131
1576079370057615782,,,0,,1576079370,57535694,"""world""","""hoverOpti/base_link""",,,-1.00883555412,0.0209355838597,1.18523001671,,0.00711580982622,-0.0116388251836,-0.00875910514478,0.999868581903
1576079370077742989,,,0,,1576079370,77663373,"""world""","""hoverOpti/base_link""",,,-1.00875604153,0.0209272392094,1.18523991108,,0.00718457223799,-0.0116450912439,-0.00890318362749,0.999866744668
1576079370097575586,,,0,,1576079370,97475788,"""world""","""hoverOpti/base_link""",,,-1.00878596306,0.0209329798818,1.18524956703,,0.00717795918083,-0.0115030370405,-0.00863657237967,0.99987077498
1576079370117559717,,,0,,1576079370,117478472,"""world""","""hoverOpti/base_link""",,,-1.00881445408,0.020939938724,1.18524897099,,0.00708432273041,-0.0119565132469,-0.00873793058042,0.999865242286
1576079370137795218,,,0,,1576079370,137693700,"""world""","""hoverOpti/base_link""",,,-1.0088416338,0.0209371112287,1.18523049355,,0.00711963192437,-0.011646520451,-0.00881377242974,0.999867984695
1576079370157571974,,,0,,1576079370,157493578,"""world""","""hoverOpti/base_link""",,,-1.00876367092,0.0209253579378,1.18526422977,,0.00701522684798,-0.0118943200928,-0.00885865461458,0.999865408933
1576079370178806928,,,0,,1576079370,178738795,"""world""","""hoverOpti/base_link""",,,-1.00880622864,0.0209548491985,1.18524098396,,0.00718690276701,-0.0115195599723,-0.00899880703685,0.999867326018
1576079370197582446,,,0,,1576079370,197515438,"""world""","""hoverOpti/base_link""",,,-1.00877010822,0.0209155771881,1.18526816368,,0.00700998474125,-0.0118166774733,-0.00883543968255,0.999866571725
1576079370217881692,,,0,,1576079370,217791234,"""world""","""hoverOpti/base_link""",,,-1.00883889198,0.0209369510412,1.18523275852,,0.00706170509775,-0.0116779444355,-0.00875101193734,0.999868580227
1576079370238214341,,,0,,1576079370,238145371,"""world""","""hoverOpti/base_link""",,,-1.0087634325,0.0209243390709,1.18527042866,,0.00701177832317,-0.0118526782859,-0.00879401672285,0.999866498215
1576079370258046541,,,0,,1576079370,257970943,"""world""","""hoverOpti/base_link""",,,-1.00879514217,0.0209303405136,1.18524742126,,0.00713509039327,-0.0115942714215,-0.00870931274915,0.999869397085
1576079370278034322,,,0,,1576079370,277968622,"""world""","""hoverOpti/base_link""",,,-1.00876271725,0.0209208093584,1.18526721001,,0.00703298705859,-0.0118640427549,-0.0088203383497,0.999865982627
1576079370297573793,,,0,,1576079370,297499460,"""world""","""hoverOpti/base_link""",,,-1.00875377655,0.0209273453802,1.18526101112,,0.00700652164842,-0.0118661455065,-0.00870902072125,0.999867119273
1576079370317484475,,,0,,1576079370,317388431,"""world""","""hoverOpti/base_link""",,,-1.00881040096,0.0209575966001,1.18523550034,,0.00716758463815,-0.0115863150312,-0.00893758354301,0.999867242505
1576079370337790057,,,0,,1576079370,337722590,"""world""","""hoverOpti/base_link""",,,-1.00881206989,0.0209401510656,1.18524837494,,0.00703661274726,-0.0119347013464,-0.00889665842896,0.999864440039
1576079370357650047,,,0,,1576079370,357563264,"""world""","""hoverOpti/base_link""",,,-1.00876641273,0.0209298878908,1.18526268005,,0.00694681148116,-0.0118485309181,-0.00875121672534,0.999867376371
1576079370377621856,,,0,,1576079370,377551485,"""world""","""hoverOpti/base_link""",,,-1.00877177715,0.0209331586957,1.18526101112,,0.00706382122507,-0.0118584759923,-0.0088169236981,0.99986586142
1576079370397650228,,,0,,1576079370,397580402,"""world""","""hoverOpti/base_link""",,,-1.00879609585,0.0209443960339,1.1852401495,,0.00712801918801,-0.0115166844021,-0.00870329773579,0.999870396567
1576079370417666870,,,0,,1576079370,417594973,"""world""","""hoverOpti/base_link""",,,-1.00880742073,0.0209578964859,1.18523991108,,0.00707938975886,-0.0116256259294,-0.00900975134011,0.999866766846
1576079370437637325,,,0,,1576079370,437567321,"""world""","""hoverOpti/base_link""",,,-1.0087518692,0.0209385380149,1.18524312973,,0.00711497607813,-0.0112485019849,-0.0087288024406,0.999873320139
1576079370457638692,,,0,,1576079370,457481776,"""world""","""hoverOpti/base_link""",,,-1.0087916851,0.0209372173995,1.18524193764,,0.00709745605649,-0.0115694672394,-0.00860851434347,0.99987082517
1576079370477767541,,,0,,1576079370,477691745,"""world""","""hoverOpti/base_link""",,,-1.00879776478,0.0209476128221,1.18523871899,,0.00718000321061,-0.0115371184313,-0.00868945819307,0.999869909422
1576079370497557039,,,0,,1576079370,497474196,"""world""","""hoverOpti/base_link""",,,-1.00874483585,0.0209370702505,1.18524432182,,0.00722883990334,-0.0111969696379,-0.00883211631911,0.999872174563
1576079370517599663,,,0,,1576079370,517524468,"""world""","""hoverOpti/base_link""",,,-1.00881671906,0.0209366343915,1.18524694443,,0.00701457052799,-0.0118965550639,-0.00896053393014,0.999864479122
1576079370537797316,,,0,,1576079370,537713862,"""world""","""hoverOpti/base_link""",,,-1.00877344608,0.0209473464638,1.18525910378,,0.0071236273692,-0.0118375005293,-0.00907906195841,0.999863339736
1576079370557536295,,,0,,1576079370,557438645,"""world""","""hoverOpti/base_link""",,,-1.00879859924,0.0209311638027,1.18524217606,,0.00704370654031,-0.0119011568197,-0.00883674075104,0.99986532127
1576079370578526660,,,0,,1576079370,578450875,"""world""","""hoverOpti/base_link""",,,-1.0087941885,0.0209246538579,1.18524301052,,0.00712155352949,-0.0115879960222,-0.00865476973562,0.999870039947
1576079370598524949,,,0,,1576079370,598452073,"""world""","""hoverOpti/base_link""",,,-1.0088160038,0.020940059796,1.18525063992,,0.00708034778774,-0.0119215688492,-0.00885653315134,0.999864644185
1576079370617770851,,,0,,1576079370,617693930,"""world""","""hoverOpti/base_link""",,,-1.00880563259,0.0209513511509,1.18524694443,,0.00716031020656,-0.0116088122658,-0.00868870172998,0.999869227398
1576079370637570988,,,0,,1576079370,637501855,"""world""","""hoverOpti/base_link""",,,-1.00884187222,0.0209466293454,1.18522489071,,0.00716697825923,-0.0116496010462,-0.00880281641226,0.99986770707
1576079370657480753,,,0,,1576079370,657411973,"""world""","""hoverOpti/base_link""",,,-1.00884532928,0.0209452956915,1.18522691727,,0.00710413883981,-0.0116857215698,-0.00873454100903,0.99986833279
1576079370677804219,,,0,,1576079370,677731313,"""world""","""hoverOpti/base_link""",,,-1.00880026817,0.020945135504,1.18523466587,,0.0070134986866,-0.0115446427743,-0.00870382677913,0.999870879393
1576079370697641269,,,0,,1576079370,697567175,"""world""","""hoverOpti/base_link""",,,-1.00878548622,0.0209302995354,1.18524420261,,0.00716259234877,-0.0115497961179,-0.00869789659996,0.999869814563
1576079370721343198,,,0,,1576079370,721272361,"""world""","""hoverOpti/base_link""",,,-1.00876927376,0.020923897624,1.18527042866,,0.00699125883246,-0.0118339564822,-0.00884347596549,0.999866427433
1576079370737564760,,,0,,1576079370,737496985,"""world""","""hoverOpti/base_link""",,,-1.00879025459,0.0209312122315,1.18525564671,,0.00710210073542,-0.0115573055536,-0.00879003899388,0.9998693535
1576079370758000268,,,0,,1576079370,757929131,"""world""","""hoverOpti/base_link""",,,-1.00879609585,0.0209299996495,1.18524932861,,0.00706366135131,-0.011583474821,-0.00871128173139,0.999870012237
1576079370777399176,,,0,,1576079370,777331480,"""world""","""hoverOpti/base_link""",,,-1.00875556469,0.0209243781865,1.1852735281,,0.00706965533856,-0.011907308695,-0.00882329654282,0.999865183618
1576079370799229253,,,0,,1576079370,799152219,"""world""","""hoverOpti/base_link""",,,-1.00880789757,0.0209329947829,1.18525385857,,0.00699976930701,-0.0119418578734,-0.00894716516304,0.999864162522
1576079370817561327,,,0,,1576079370,817470174,"""world""","""hoverOpti/base_link""",,,-1.00878858566,0.0209278725088,1.18522393703,,0.00721310240346,-0.0112842168471,-0.00878799676219,0.999871696127
1576079370838403358,,,0,,1576079370,838321810,"""world""","""hoverOpti/base_link""",,,-1.00883674622,0.0209398102015,1.18522632122,,0.00712629370189,-0.0116139586637,-0.00879681401025,0.999868465332
1576079370857667305,,,0,,1576079370,857582601,"""world""","""hoverOpti/base_link""",,,-1.00876331329,0.0209235921502,1.18525636196,,0.00709556675583,-0.0118927050486,-0.00888759932628,0.999864604373
1576079370877609651,,,0,,1576079370,877539366,"""world""","""hoverOpti/base_link""",,,-1.00879848003,0.020953854546,1.18523168564,,0.00705558108817,-0.0115841180193,-0.00896072947316,0.999867857425
1576079370897514059,,,0,,1576079370,897439614,"""world""","""hoverOpti/base_link""",,,-1.00874197483,0.0209398455918,1.18524193764,,0.00715930475274,-0.01123827242,-0.00879342324735,0.999872552527
1576079370917769593,,,0,,1576079370,917700838,"""world""","""hoverOpti/base_link""",,,-1.00878560543,0.0209374688566,1.18524134159,,0.00709644749598,-0.0115559800997,-0.00873695719768,0.999869874202
1576079370937927130,,,0,,1576079370,937847242,"""world""","""hoverOpti/base_link""",,,-1.0088044405,0.0209335573018,1.18524205685,,0.00702637487641,-0.0119291155413,-0.0089962505335,0.999863687577
1576079370957666825,,,0,,1576079370,957561671,"""world""","""hoverOpti/base_link""",,,-1.00880455971,0.0209332983941,1.18524837494,,0.00703217459619,-0.0119155953776,-0.00887109091598,0.999864926304
1576079370977500297,,,0,,1576079370,977419058,"""world""","""hoverOpti/base_link""",,,-1.00880539417,0.020955901593,1.18522691727,,0.00713368958473,-0.0115605890504,-0.00899838209243,0.999867237374
1576079370997921228,,,0,,1576079370,997854148,"""world""","""hoverOpti/base_link""",,,-1.00879299641,0.0209405869246,1.18523216248,,0.00709050271265,-0.0115570713624,-0.00869493946519,0.999870270035
1576079371017464260,,,0,,1576079371,17380883,"""world""","""hoverOpti/base_link""",,,-1.00881075859,0.02093388699,1.18524444103,,0.00701900702421,-0.0119062669935,-0.00899430353014,0.999864029181
1576079371037661800,,,0,,1576079371,37582871,"""world""","""hoverOpti/base_link""",,,-1.00879597664,0.0209726486355,1.18522298336,,0.00720128324147,-0.0112622931809,-0.00909508240604,0.99986928233
1576079371057465663,,,0,,1576079371,57392004,"""world""","""hoverOpti/base_link""",,,-1.00877213478,0.0209492761642,1.18525981903,,0.00705577766316,-0.011865567686,-0.00907017053778,0.999863568849
1576079371081361758,,,0,,1576079371,81294027,"""world""","""hoverOpti/base_link""",,,-1.00880384445,0.0209376197308,1.18525969982,,0.00704413481121,-0.0119067192324,-0.00876262651561,0.999865904298
1576079371097791358,,,0,,1576079371,97683114,"""world""","""hoverOpti/base_link""",,,-1.00876736641,0.0209373738617,1.1852645874,,0.00700364388929,-0.0118464983725,-0.00886623079726,0.999865990721
1576079371117604132,,,0,,1576079371,117523252,"""world""","""hoverOpti/base_link""",,,-1.00875878334,0.0209319908172,1.18525838852,,0.00693977627504,-0.011845729507,-0.00873326362644,0.999867615389
1576079371137856160,,,0,,1576079371,137762866,"""world""","""hoverOpti/base_link""",,,-1.0088044405,0.0209592487663,1.18524158001,,0.00707655277408,-0.0115912160661,-0.00895306523822,0.999867695615
1576079371157751780,,,0,,1576079371,157677973,"""world""","""hoverOpti/base_link""",,,-1.00882339478,0.020958263427,1.18525588512,,0.00696484486841,-0.0118752798923,-0.00911962892446,0.999863641219
1576079371177554155,,,0,,1576079371,177482862,"""world""","""hoverOpti/base_link""",,,-1.00875854492,0.020932212472,1.1852619648,,0.00697459992577,-0.0118622336517,-0.00874962523194,0.999867034374
1576079371197607194,,,0,,1576079371,197517707,"""world""","""hoverOpti/base_link""",,,-1.00875532627,0.0209282580763,1.18526446819,,0.00692911397274,-0.0118532832326,-0.0087656052498,0.999867316808
1576079371217564829,,,0,,1576079371,217496603,"""world""","""hoverOpti/base_link""",,,-1.0087890625,0.0209482908249,1.18522572517,,0.00712078318112,-0.0113111758206,-0.00881522582366,0.999871813555
1576079371241496933,,,0,,1576079371,241367572,"""world""","""hoverOpti/base_link""",,,-1.00875782967,0.020938122645,1.1852645874,,0.00706046773446,-0.0118100551604,-0.00881448423503,0.999866479716
1576079371258480359,,,0,,1576079371,258388562,"""world""","""hoverOpti/base_link""",,,-1.00881099701,0.020945219323,1.18524730206,,0.00699007352659,-0.011916715469,-0.00888543306671,0.99986508082
1576079371277477408,,,0,,1576079371,277397628,"""world""","""hoverOpti/base_link""",,,-1.00876116753,0.0209345854819,1.18527269363,,0.00704206694694,-0.0118152637403,-0.00875737344833,0.999867049785
1576079371298671029,,,0,,1576079371,298585225,"""world""","""hoverOpti/base_link""",,,-1.00880086422,0.0209701023996,1.18524074554,,0.00713463522428,-0.0113060705313,-0.00907746705426,0.999869426146
1576079371317953041,,,0,,1576079371,317879898,"""world""","""hoverOpti/base_link""",,,-1.00878751278,0.0209583565593,1.18526446819,,0.00702634914093,-0.011935960551,-0.00917290828412,0.999862000987
1576079371337553140,,,0,,1576079371,337483105,"""world""","""hoverOpti/base_link""",,,-1.00872373581,0.0209373962134,1.18527257442,,0.00702654594937,-0.0115576429404,-0.00890141045782,0.999868898123
1576079371357752205,,,0,,1576079371,357683887,"""world""","""hoverOpti/base_link""",,,-1.00876796246,0.0209524836391,1.18528974056,,0.00667993113328,-0.0121313081027,-0.00972965723974,0.999856761568
1576079371378053703,,,0,,1576079371,377982142,"""world""","""hoverOpti/base_link""",,,-1.00879514217,0.0209392327815,1.18525099754,,0.00713530598741,-0.0115597621858,-0.00883630974065,0.999868680846
1576079371397842797,,,0,,1576079371,397742002,"""world""","""hoverOpti/base_link""",,,-1.00879120827,0.0209443233907,1.18522942066,,0.00721940139261,-0.0113304346425,-0.00879134392217,0.999871098575
1576079371417753966,,,0,,1576079371,417687729,"""world""","""hoverOpti/base_link""",,,-1.00884139538,0.0209641773254,1.18522965908,,0.00710404414017,-0.0116119718894,-0.00882906480318,0.999868362476
1576079371437553088,,,0,,1576079371,437484263,"""world""","""hoverOpti/base_link""",,,-1.00884270668,0.0209524389356,1.18523287773,,0.0070247850418,-0.0116582699182,-0.00888180267536,0.999867916636
1576079371457727596,,,0,,1576079371,457663114,"""world""","""hoverOpti/base_link""",,,-1.00879943371,0.0209955722094,1.18527197838,,0.00705212476394,-0.0118599234472,-0.00944456278537,0.99986019522
1576079371477517635,,,0,,1576079371,477452462,"""world""","""hoverOpti/base_link""",,,-1.008715868,0.020934805274,1.18527066708,,0.00706919785909,-0.0115415210299,-0.00885959610248,0.999869155085
1576079371504095011,,,0,,1576079371,504012399,"""world""","""hoverOpti/base_link""",,,-1.00876176357,0.0209306888282,1.18527030945,,0.00702543986787,-0.011844593432,-0.00878763992557,0.999866554189
1576079371517502607,,,0,,1576079371,517436602,"""world""","""hoverOpti/base_link""",,,-1.00883555412,0.0209440477192,1.18522942066,,0.00706583436745,-0.0116532984939,-0.00880426841759,0.999868371075
1576079371537545224,,,0,,1576079371,537448778,"""world""","""hoverOpti/base_link""",,,-1.00883126259,0.0209436845034,1.18523228168,,0.00714114482954,-0.0116118537106,-0.00883881861909,0.999868013384
1576079371557559344,,,0,,1576079371,557468186,"""world""","""hoverOpti/base_link""",,,-1.00877153873,0.0209430437535,1.18525540829,,0.00705308995724,-0.0118745802471,-0.00907875372314,0.999863402919
1576079371578808307,,,0,,1576079371,578724500,"""world""","""hoverOpti/base_link""",,,-1.00871574879,0.020931314677,1.18526780605,,0.00714210098833,-0.0115644978999,-0.00886327871366,0.999868338869
1576079371598134636,,,0,,1576079371,598048246,"""world""","""hoverOpti/base_link""",,,-1.00870752335,0.0209289342165,1.18526685238,,0.00699320139314,-0.0116215598481,-0.00890467794003,0.999868361932
1576079371618039627,,,0,,1576079371,617965804,"""world""","""hoverOpti/base_link""",,,-1.00871181488,0.0209258664399,1.18526792526,,0.00707332460283,-0.0115717603991,-0.00879630011454,0.999869335236
1576079371639374653,,,0,,1576079371,639303391,"""world""","""hoverOpti/base_link""",,,-1.00882208347,0.0209462307394,1.18522691727,,0.00722001699192,-0.0115575991036,-0.00868436941528,0.999869428968
1576079371657769829,,,0,,1576079371,657686833,"""world""","""hoverOpti/base_link""",,,-1.00878882408,0.0209325160831,1.18523955345,,0.00701228319366,-0.0115676965399,-0.00875130359453,0.99987020706
1576079371677540490,,,0,,1576079371,677446432,"""world""","""hoverOpti/base_link""",,,-1.00877726078,0.0209525302052,1.18526124954,,0.00698223940443,-0.0118993139855,-0.00897223439415,0.999864567664
1576079371697555964,,,0,,1576079371,697471338,"""world""","""hoverOpti/base_link""",,,-1.00875544548,0.0209245309234,1.18524813652,,0.00713876539645,-0.0115720212028,-0.00885099671098,0.999868384444
1576079371717561217,,,0,,1576079371,717491475,"""world""","""hoverOpti/base_link""",,,-1.00882816315,0.0209385063499,1.18522584438,,0.00713094492415,-0.011603383059,-0.00877059043007,0.999868785326
1576079371737952513,,,0,,1576079371,737880054,"""world""","""hoverOpti/base_link""",,,-1.00880563259,0.0209394320846,1.18523836136,,0.00707947708315,-0.0119296426229,-0.00892553028813,0.999863940514
1576079371758301959,,,0,,1576079371,758195766,"""world""","""hoverOpti/base_link""",,,-1.0087441206,0.0209324620664,1.18524801731,,0.00715639456968,-0.0112143684783,-0.00879602560799,0.999872818857
1576079371777498955,,,0,,1576079371,777416281,"""world""","""hoverOpti/base_link""",,,-1.00880432129,0.0209400244057,1.18525111675,,0.00694130001656,-0.0118793429668,-0.00886126937468,0.999866079768
1576079371797616932,,,0,,1576079371,797541647,"""world""","""hoverOpti/base_link""",,,-1.00877773762,0.0209420211613,1.18526303768,,0.00696931656545,-0.0119295198973,-0.0090186862156,0.999863879976
1576079371817514339,,,0,,1576079371,817443942,"""world""","""hoverOpti/base_link""",,,-1.00869393349,0.0208965167403,1.18528628349,,0.00673711509396,-0.0117653464549,-0.00926127345826,0.999865199273
1576079371837519759,,,0,,1576079371,837440266,"""world""","""hoverOpti/base_link""",,,-1.00883579254,0.0209403038025,1.18523001671,,0.00718518246968,-0.0116058754625,-0.00881622910039,0.99986796674
1576079371857539719,,,0,,1576079371,857470294,"""world""","""hoverOpti/base_link""",,,-1.00881493092,0.0209590736777,1.18523418903,,0.0071569581257,-0.0116065748219,-0.00902796264916,0.999866271689
1576079371877460663,,,0,,1576079371,877392090,"""world""","""hoverOpti/base_link""",,,-1.00879836082,0.020930480212,1.18525362015,,0.00710462917007,-0.0115986810753,-0.00878875980163,0.999868867674
1576079371897780474,,,0,,1576079371,897709642,"""world""","""hoverOpti/base_link""",,,-1.00879395008,0.020937634632,1.18524587154,,0.00714160225213,-0.0115789698768,-0.00867553281338,0.999869821579
1576079371918738590,,,0,,1576079371,918665131,"""world""","""hoverOpti/base_link""",,,-1.00874853134,0.0209654420614,1.18525910378,,0.00709254400734,-0.0115506213408,-0.00938830728113,0.999864060086
1576079371937910523,,,0,,1576079371,937830520,"""world""","""hoverOpti/base_link""",,,-1.00880980492,0.0209559928626,1.18524003029,,0.00704756338014,-0.0115490342453,-0.00891166746061,0.999868758309
1576079371957847108,,,0,,1576079371,957778700,"""world""","""hoverOpti/base_link""",,,-1.00871515274,0.0209216270596,1.18526613712,,0.00709066618997,-0.0115177351434,-0.00883449631547,0.999869499437
1576079371978379216,,,0,,1576079371,978295707,"""world""","""hoverOpti/base_link""",,,-1.00883030891,0.0209481175989,1.18523347378,,0.0071582246158,-0.0116033716515,-0.00872335078219,0.999869003789
1576079371997709158,,,0,,1576079371,997610190,"""world""","""hoverOpti/base_link""",,,-1.00876367092,0.0209317896515,1.18525385857,,0.00707456667705,-0.0116010330522,-0.00888254915617,0.999868224747
1576079372017541297,,,0,,1576079372,17471277,"""world""","""hoverOpti/base_link""",,,-1.00884473324,0.0209648925811,1.18524229527,,0.00710872688781,-0.0115133214717,-0.00913654345938,0.999866707619
1576079372041439184,,,0,,1576079372,41357724,"""world""","""hoverOpti/base_link""",,,-1.00876748562,0.0209246128798,1.18527281284,,0.00702102361717,-0.0118510029299,-0.00871308486346,0.999867161732
1576079372057445962,,,0,,1576079372,57375541,"""world""","""hoverOpti/base_link""",,,-1.00873601437,0.02093642205,1.18526113033,,0.0070308926686,-0.0115659237189,-0.00908901265235,0.99986708407
1576079372077455399,,,0,,1576079372,77384075,"""world""","""hoverOpti/base_link""",,,-1.00877428055,0.0209351629019,1.18526256084,,0.00704108990035,-0.0119109206534,-0.00905374529536,0.999863282013
1576079372098477301,,,0,,1576079372,98386406,"""world""","""hoverOpti/base_link""",,,-1.00873637199,0.0209231376648,1.18524515629,,0.00710195728392,-0.0112843758553,-0.00879265318175,0.999872449023
1576079372117564488,,,0,,1576079372,117455422,"""world""","""hoverOpti/base_link""",,,-1.00876116753,0.0209264848381,1.18526411057,,0.00703878898151,-0.0118324676163,-0.00887421380785,0.999865839245
1576079372137594246,,,0,,1576079372,137482028,"""world""","""hoverOpti/base_link""",,,-1.00879907608,0.0209287852049,1.18525516987,,0.0070373743353,-0.0119550045709,-0.00876361743577,0.999865367056
1576079372157521872,,,0,,1576079372,157427543,"""world""","""hoverOpti/base_link""",,,-1.00881016254,0.0209449846298,1.18523943424,,0.0070815363625,-0.0115836436159,-0.00908316923841,0.999866574639
1576079372177716505,,,0,,1576079372,177643819,"""world""","""hoverOpti/base_link""",,,-1.00883412361,0.0209397561848,1.18523299694,,0.00715035881064,-0.0115570015156,-0.00872134711626,0.999869614594
1576079372197883751,,,0,,1576079372,197795442,"""world""","""hoverOpti/base_link""",,,-1.00873291492,0.0209458731115,1.18526124954,,0.0070123760071,-0.0115982208792,-0.00906378950596,0.999867068952
1576079372219208487,,,0,,1576079372,219135370,"""world""","""hoverOpti/base_link""",,,-1.0087594986,0.0209265835583,1.18526804447,,0.00701185811375,-0.0118716245982,-0.00882070990787,0.999866037753
1576079372237742155,,,0,,1576079372,237643043,"""world""","""hoverOpti/base_link""",,,-1.00876653194,0.0209276061505,1.18525874615,,0.00707202537722,-0.0118142626058,-0.00884725796973,0.999866058871
1576079372257748038,,,0,,1576079372,257652108,"""world""","""hoverOpti/base_link""",,,-1.00884485245,0.0209448281676,1.18523013592,,0.00705706082024,-0.0116150592845,-0.00876057073663,0.999869261799
1576079372278396423,,,0,,1576079372,278319775,"""world""","""hoverOpti/base_link""",,,-1.00879633427,0.0209776200354,1.18526732922,,0.00707765933585,-0.0119009529226,-0.00941109017371,0.999859842898
1576079372297991122,,,0,,1576079372,297899471,"""world""","""hoverOpti/base_link""",,,-1.00875616074,0.0209246948361,1.18525397778,,0.00711194312903,-0.0116697993608,-0.00888100986807,0.999867173034
1576079372317515868,,,0,,1576079372,317446397,"""world""","""hoverOpti/base_link""",,,-1.0088365078,0.0209531020373,1.18523168564,,0.00717226859326,-0.0115582345146,-0.00879776952246,0.999868773905
1576079372337568716,,,0,,1576079372,337499234,"""world""","""hoverOpti/base_link""",,,-1.00879621506,0.0209358409047,1.18525373936,,0.00703801591821,-0.011597510503,-0.00882251007657,0.999869055126
1576079372357676887,,,0,,1576079372,357607543,"""world""","""hoverOpti/base_link""",,,-1.00875520706,0.0209145788103,1.18527293205,,0.00699576692977,-0.0119080302063,-0.00884781131051,0.9998654781
1576079372378847539,,,0,,1576079372,378765548,"""world""","""hoverOpti/base_link""",,,-1.00883209705,0.0209365487099,1.18523395061,,0.00711024241199,-0.0116547983484,-0.00874185895335,0.99986858638
1576079372398013421,,,0,,1576079372,397929203,"""world""","""hoverOpti/base_link""",,,-1.00872397423,0.020913342014,1.18527185917,,0.0071265407568,-0.0115036981104,-0.00889016859149,0.999868912533
1576079372417478181,,,0,,1576079372,417394108,"""world""","""hoverOpti/base_link""",,,-1.00880026817,0.0209244266152,1.18524360657,,0.00707463317582,-0.0119519673349,-0.00889503062654,0.999863979985
1576079372438491128,,,0,,1576079372,438379565,"""world""","""hoverOpti/base_link""",,,-1.00883877277,0.0209375713021,1.18522596359,,0.00717614097755,-0.0115960049623,-0.00879259094177,0.999868354342
1576079372457739538,,,0,,1576079372,457672095,"""world""","""hoverOpti/base_link""",,,-1.00883936882,0.0209352541715,1.18522596359,,0.00709954195988,-0.0115899261104,-0.00887029947916,0.999868285278
1576079372477750237,,,0,,1576079372,477681582,"""world""","""hoverOpti/base_link""",,,-1.00881290436,0.0209292918444,1.18524456024,,0.00705149604476,-0.0119265398842,-0.00887837170087,0.999864595116
1576079372497550486,,,0,,1576079372,497477544,"""world""","""hoverOpti/base_link""",,,-1.00882911682,0.0209476705641,1.18522632122,,0.00710562185565,-0.0116448065174,-0.00876929782513,0.999868495371
1576079372518278030,,,0,,1576079372,518201775,"""world""","""hoverOpti/base_link""",,,-1.00881993771,0.0209829360247,1.18524610996,,0.00709815906764,-0.011606760134,-0.00938418323864,0.999863408852
1576079372540307634,,,0,,1576079372,540238746,"""world""","""hoverOpti/base_link""",,,-1.00879430771,0.0209395326674,1.18524229527,,0.00712412596684,-0.011533583707,-0.00875033102762,0.999869819018
1576079372557501739,,,0,,1576079372,557403845,"""world""","""hoverOpti/base_link""",,,-1.00881040096,0.0209506172687,1.18522548676,,0.007124736763,-0.0115158659827,-0.0089570471827,0.999868188444
1576079372578232593,,,0,,1576079372,578159671,"""world""","""hoverOpti/base_link""",,,-1.00878608227,0.0209345910698,1.18522548676,,0.00721627289343,-0.0113473592734,-0.00893652476783,0.999869642187
1576079372598114339,,,0,,1576079372,598012236,"""world""","""hoverOpti/base_link""",,,-1.00883555412,0.0209443662316,1.18522977829,,0.00710291315464,-0.011663471236,-0.00886765206985,0.999867429618
1576079372617784610,,,0,,1576079372,617714757,"""world""","""hoverOpti/base_link""",,,-1.0088082552,0.0209365598857,1.18525290489,,0.00701089848126,-0.0119409747585,-0.0088680798843,0.999864799652
1576079372637613412,,,0,,1576079372,637547110,"""world""","""hoverOpti/base_link""",,,-1.00879108906,0.0209408011287,1.1852427721,,0.00709733292503,-0.0115514635225,-0.00866353105228,0.999870559015
1576079372657509502,,,0,,1576079372,657437474,"""world""","""hoverOpti/base_link""",,,-1.00882124901,0.0209841188043,1.18524038792,,0.00713244767354,-0.0115523029089,-0.0093085764314,0.999864502266
1576079372677820043,,,0,,1576079372,677751373,"""world""","""hoverOpti/base_link""",,,-1.00878584385,0.0209755916148,1.18527746201,,0.00693140069137,-0.0118677119668,-0.00943497080045,0.999861037556
1576079372697488285,,,0,,1576079372,697380874,"""world""","""hoverOpti/base_link""",,,-1.00883698463,0.020947098732,1.18523001671,,0.00711103822287,-0.0115958633204,-0.00886648759808,0.999868168554
1576079372717492155,,,0,,1576079372,717399757,"""world""","""hoverOpti/base_link""",,,-1.00880324841,0.0209281239659,1.18524730206,,0.00703888145913,-0.0118961082906,-0.00893958589004,0.9998645011
1576079372737477124,,,0,,1576079372,737408539,"""world""","""hoverOpti/base_link""",,,-1.00877201557,0.0209450367838,1.18526124954,,0.00705016661805,-0.0119336616252,-0.00912033551807,0.999862341701
1576079372757469228,,,0,,1576079372,757379139,"""world""","""hoverOpti/base_link""",,,-1.00880134106,0.0209323689342,1.18524360657,,0.00706851977114,-0.011919765438,-0.00881800219932,0.999865089928
1576079372777570994,,,0,,1576079372,777465826,"""world""","""hoverOpti/base_link""",,,-1.00880229473,0.0209592394531,1.18523740768,,0.00708938350465,-0.0115669212517,-0.00903476876764,0.999867151139
1576079372797535229,,,0,,1576079372,797455192,"""world""","""hoverOpti/base_link""",,,-1.0087569952,0.0209403112531,1.18526029587,,0.00704604092981,-0.0118770783117,-0.00885929334793,0.99986539156
1576079372817849690,,,0,,1576079372,817773504,"""world""","""hoverOpti/base_link""",,,-1.00876092911,0.0209312215447,1.18525695801,,0.00696957766131,-0.0118324198312,-0.00886232688917,0.999866430075
1576079372837961481,,,0,,1576079372,837887736,"""world""","""hoverOpti/base_link""",,,-1.00873875618,0.0209644697607,1.18526566029,,0.00704751095343,-0.0115730889285,-0.00948813435126,0.999863176394
1576079372857585583,,,0,,1576079372,857507473,"""world""","""hoverOpti/base_link""",,,-1.00880372524,0.0209488719702,1.18523275852,,0.00709321727435,-0.011583445847,-0.00896512105738,0.999867559557
1576079372877675936,,,0,,1576079372,877591182,"""world""","""hoverOpti/base_link""",,,-1.00875675678,0.0209226105362,1.18524718285,,0.0070620338646,-0.0116420697445,-0.0088582971638,0.999868051525
1576079372898476423,,,0,,1576079372,898398792,"""world""","""hoverOpti/base_link""",,,-1.00875234604,0.0209319125861,1.18526554108,,0.00707011996428,-0.011845230286,-0.00880682038617,0.999866062949
1576079372917507849,,,0,,1576079372,917434800,"""world""","""hoverOpti/base_link""",,,-1.00878846645,0.0209391023964,1.18524980545,,0.00708694047747,-0.0115139186539,-0.00871276041123,0.999870638012
1576079372937490266,,,0,,1576079372,937391498,"""world""","""hoverOpti/base_link""",,,-1.00880026817,0.0209325719625,1.18524980545,,0.00706016803545,-0.0119145805954,-0.00884678739054,0.999864956456
1576079372957470722,,,0,,1576079372,957359615,"""world""","""hoverOpti/base_link""",,,-1.00883686543,0.0209307298064,1.18523061275,,0.00713453465391,-0.0116435445662,-0.00881097566064,0.999867937776
1576079372977453108,,,0,,1576079372,977374476,"""world""","""hoverOpti/base_link""",,,-1.00875198841,0.020921593532,1.18524825573,,0.00708463805595,-0.0116440259538,-0.00891861690071,0.999867332618
1576079372997544980,,,0,,1576079372,997463703,"""world""","""hoverOpti/base_link""",,,-1.00878238678,0.0209262408316,1.18522632122,,0.00714348667728,-0.0112841491262,-0.00885557280305,0.99987160046
1576079373017498047,,,0,,1576079373,17427778,"""world""","""hoverOpti/base_link""",,,-1.00877487659,0.020927740261,1.18522977829,,0.00717168220181,-0.0113015653702,-0.00878758220451,0.999871801779
1576079373037568765,,,0,,1576079373,37459106,"""world""","""hoverOpti/base_link""",,,-1.00880813599,0.0209250021726,1.18524456024,,0.00699172793005,-0.011933715538,-0.00890891218409,0.99986465757
1576079373057558951,,,0,,1576079373,57487641,"""world""","""hoverOpti/base_link""",,,-1.00883793831,0.0209449585527,1.18523073196,,0.0070382886533,-0.0115686645805,-0.00880238064114,0.999869564787
1576079373077498914,,,0,,1576079373,77414139,"""world""","""hoverOpti/base_link""",,,-1.00876605511,0.0209235046059,1.18525028229,,0.00714580879465,-0.0115977514663,-0.00884836734737,0.999868059282
1576079373097558151,,,0,,1576079373,97462395,"""world""","""hoverOpti/base_link""",,,-1.00879073143,0.0209351629019,1.18524682522,,0.00712781359962,-0.0115763994965,-0.00878508899072,0.999868993148
1576079373117686326,,,0,,1576079373,117583737,"""world""","""hoverOpti/base_link""",,,-1.00878751278,0.0209232755005,1.18524515629,,0.00707571301012,-0.0115108361246,-0.0087992943546,0.999869995227
1576079373137887713,,,0,,1576079373,137793394,"""world""","""hoverOpti/base_link""",,,-1.00878179073,0.0209435876459,1.18526101112,,0.00706174373388,-0.0118799110155,-0.00905959632578,0.999863452279
1576079373157878807,,,0,,1576079373,157808295,"""world""","""hoverOpti/base_link""",,,-1.00873792171,0.0208943448961,1.18527531624,,0.00670770900831,-0.0118564613902,-0.00929573233407,0.999864000914
1576079373178538741,,,0,,1576079373,178461928,"""world""","""hoverOpti/base_link""",,,-1.00879752636,0.0208960734308,1.1852761507,,0.0066900879944,-0.0121389214056,-0.00930170035196,0.999860674134
1576079373197639407,,,0,,1576079373,197564208,"""world""","""hoverOpti/base_link""",,,-1.00876736641,0.0209444183856,1.18525648117,,0.00700451418141,-0.0118516159412,-0.0090389724681,0.999864377282
1576079373217533896,,,0,,1576079373,217463377,"""world""","""hoverOpti/base_link""",,,-1.00877535343,0.0208913274109,1.18528020382,,0.00665579086545,-0.0121303490666,-0.00921934316,0.999861769842
1576079373237749790,,,0,,1576079373,237676173,"""world""","""hoverOpti/base_link""",,,-1.00877642632,0.0209247171879,1.18523705006,,0.00718253921113,-0.0114067323586,-0.00886444812249,0.999869851104
1576079373257411065,,,0,,1576079373,257346038,"""world""","""hoverOpti/base_link""",,,-1.00869882107,0.0209028422832,1.18526756763,,0.00708729687168,-0.0115396066571,-0.0089329848609,0.999868396082
1576079373277341028,,,0,,1576079373,277275631,"""world""","""hoverOpti/base_link""",,,-1.00876188278,0.0209382791072,1.18523669243,,0.00722162729577,-0.0112833163073,-0.00902926521928,0.999869495105
1576079373297397970,,,0,,1576079373,297321336,"""world""","""hoverOpti/base_link""",,,-1.00876092911,0.0209257751703,1.1852645874,,0.00700902994256,-0.0118645123772,-0.00882087007124,0.999866140589
1576079373317540200,,,0,,1576079373,317459223,"""world""","""hoverOpti/base_link""",,,-1.00883102417,0.0209393501282,1.18522393703,,0.0071378751403,-0.0116850045686,-0.00894316573721,0.999866256653
1576079373337418126,,,0,,1576079373,337349993,"""world""","""hoverOpti/base_link""",,,-1.00882959366,0.0209357962012,1.18522751331,,0.00704751881339,-0.0116872663444,-0.00881719962304,0.999867989924
1576079373358823517,,,0,,1576079373,358710181,"""world""","""hoverOpti/base_link""",,,-1.00878763199,0.0209270007908,1.18522834778,,0.00719560211028,-0.0113228754114,-0.00881740257139,0.999871126303
1576079373377549547,,,0,,1576079373,377479557,"""world""","""hoverOpti/base_link""",,,-1.00879442692,0.0209266077727,1.18523776531,,0.00707271968523,-0.0115715694394,-0.00868148944065,0.999870345174
1576079373397536073,,,0,,1576079373,397456384,"""world""","""hoverOpti/base_link""",,,-1.00877845287,0.020915010944,1.18524539471,,0.00719740358992,-0.011544718231,-0.00881529794267,0.999868595059
1576079373417979674,,,0,,1576079373,417855220,"""world""","""hoverOpti/base_link""",,,-1.00883162022,0.020930590108,1.18522715569,,0.00714103161201,-0.0115759185318,-0.008806053686,0.999868719981
1576079373437784738,,,0,,1576079373,437712855,"""world""","""hoverOpti/base_link""",,,-1.00875508785,0.0209181681275,1.18525993824,,0.00706279327266,-0.0118141381216,-0.00882700869255,0.999866304567
1576079373457429101,,,0,,1576079373,457357490,"""world""","""hoverOpti/base_link""",,,-1.00874590874,0.0209368225187,1.18522703648,,0.00721298964126,-0.0112674100877,-0.0089915390765,0.999870076798
1576079373477488133,,,0,,1576079373,477394732,"""world""","""hoverOpti/base_link""",,,-1.00875246525,0.020912470296,1.18525862694,,0.00719216770092,-0.0117948304823,-0.00885336575666,0.999865377245
1576079373497425069,,,0,,1576079373,497352217,"""world""","""hoverOpti/base_link""",,,-1.00873529911,0.0209580399096,1.18524944782,,0.00715551044106,-0.0115554246397,-0.00935150662556,0.999863900816
1576079373517732823,,,0,,1576079373,517659348,"""world""","""hoverOpti/base_link""",,,-1.00874936581,0.0209411382675,1.18521857262,,0.00729341167633,-0.0111967672038,-0.00906705595049,0.999869605022
1576079373537698211,,,0,,1576079373,537626992,"""world""","""hoverOpti/base_link""",,,-1.00874590874,0.0209169145674,1.18525969982,,0.00711746037217,-0.0118160171476,-0.0088495648034,0.999865695331
1576079373557432826,,,0,,1576079373,557352130,"""world""","""hoverOpti/base_link""",,,-1.00872612,0.0209580417722,1.18525803089,,0.00703181613379,-0.0115656334085,-0.00932155125334,0.999864940063
1576079373578858073,,,0,,1576079373,578747697,"""world""","""hoverOpti/base_link""",,,-1.00875377655,0.0209509432316,1.18522977829,,0.00721759587612,-0.0112907312001,-0.00899968431565,0.999869707202
1576079373597518527,,,0,,1576079373,597445710,"""world""","""hoverOpti/base_link""",,,-1.00883817673,0.0209329109639,1.18522715569,,0.00715050237188,-0.0116296784213,-0.00878617571259,0.999868203321
1576079373617418455,,,0,,1576079373,617344874,"""world""","""hoverOpti/base_link""",,,-1.00878822803,0.0209271814674,1.18523240089,,0.00722276704267,-0.0113656896219,-0.00886039944242,0.999870064587
1576079373637785775,,,0,,1576079373,637697523,"""world""","""hoverOpti/base_link""",,,-1.00881206989,0.0209282301366,1.18525636196,,0.00697984580777,-0.0119555869842,-0.0088392932284,0.999865097194
1576079373658123185,,,0,,1576079373,658050441,"""world""","""hoverOpti/base_link""",,,-1.00879442692,0.0209422912449,1.1852452755,,0.00714691469457,-0.0115735843282,-0.00870289621799,0.999869608176
1576079373678330708,,,0,,1576079373,678257895,"""world""","""hoverOpti/base_link""",,,-1.00882542133,0.0209469012916,1.18522930145,,0.00713264941194,-0.0115978942904,-0.00876083818544,0.999868922347
1576079373698566081,,,0,,1576079373,698491698,"""world""","""hoverOpti/base_link""",,,-1.00880038738,0.0209328792989,1.18523812294,,0.00716865503539,-0.0115430230001,-0.00864301312573,0.999870325257
1576079373717484186,,,0,,1576079373,717412176,"""world""","""hoverOpti/base_link""",,,-1.00884270668,0.020946437493,1.18522524834,,0.00699799975332,-0.0116294930059,-0.0088261971479,0.999868931978
1576079373737541094,,,0,,1576079373,737447013,"""world""","""hoverOpti/base_link""",,,-1.00883412361,0.0209298096597,1.18523550034,,0.00712390106588,-0.0116672126774,-0.00874341318045,0.999868330786
1576079373757428230,,,0,,1576079373,757341217,"""world""","""hoverOpti/base_link""",,,-1.00876033306,0.0209238212556,1.18525016308,,0.00712322718861,-0.011624074643,-0.00891662884212,0.999867308323
1576079373778820051,,,0,,1576079373,778752064,"""world""","""hoverOpti/base_link""",,,-1.00879013538,0.0209283344448,1.18524682522,,0.00715576141176,-0.0115134603255,-0.00871301084785,0.999870150946
1576079373797505978,,,0,,1576079373,797424309,"""world""","""hoverOpti/base_link""",,,-1.00880789757,0.0209398642182,1.18525505066,,0.00696462370217,-0.0119700614206,-0.00894069456366,0.999864128583
1576079373817563313,,,0,,1576079373,817488477,"""world""","""hoverOpti/base_link""",,,-1.00883316994,0.0209417566657,1.18522465229,,0.00709847248232,-0.0115975408425,-0.00870276684267,0.9998696768
1576079373837483738,,,0,,1576079373,837402636,"""world""","""hoverOpti/base_link""",,,-1.00881063938,0.0209549050778,1.18523335457,,0.00711526409362,-0.0116076536834,-0.00894088501448,0.999867339185
1576079373857432297,,,0,,1576079373,857346198,"""world""","""hoverOpti/base_link""",,,-1.00880968571,0.0209568273276,1.18523275852,,0.00712253323568,-0.0114934890676,-0.00892122011471,0.999868781921
1576079373877430948,,,0,,1576079373,877341506,"""world""","""hoverOpti/base_link""",,,-1.00877761841,0.0209359545261,1.18522453308,,0.00721229628115,-0.0112260582442,-0.00888339635188,0.99987151358
1576079373897489803,,,0,,1576079373,897419291,"""world""","""hoverOpti/base_link""",,,-1.00873541832,0.0209607705474,1.18527603149,,0.00713982353469,-0.0115560902522,-0.00939704713691,0.999863578296
1576079373917629295,,,0,,1576079373,917560534,"""world""","""hoverOpti/base_link""",,,-1.00874626637,0.0209316816181,1.18527269363,,0.00709401777673,-0.0115840790255,-0.00896916176201,0.999867510304
1576079373948955394,,,0,,1576079373,948866517,"""world""","""hoverOpti/base_link""",,,-1.0088455677,0.0209399163723,1.1852337122,,0.00703815414801,-0.0116241407848,-0.00885000111225,0.999868501963
1576079373957735068,,,0,,1576079373,957632650,"""world""","""hoverOpti/base_link""",,,-1.00880169868,0.0209316909313,1.18525838852,,0.00701654246955,-0.0119571139425,-0.00886595668874,0.999864586016
1576079373977429037,,,0,,1576079373,977356835,"""world""","""hoverOpti/base_link""",,,-1.00879096985,0.020933829248,1.1852285862,,0.00718208622281,-0.0113283179521,-0.0088898090906,0.99987052069
1576079374001722600,,,0,,1576079374,1620862,"""world""","""hoverOpti/base_link""",,,-1.00881302357,0.0209634397179,1.1852363348,,0.00722308297514,-0.0115103075869,-0.00901184951541,0.999867054393
1576079374018499693,,,0,,1576079374,18408689,"""world""","""hoverOpti/base_link""",,,-1.0087774992,0.0209476612508,1.18526279926,,0.00709879965891,-0.0118974468852,-0.00907341621912,0.999862856055
1576079374037574370,,,0,,1576079374,37493194,"""world""","""hoverOpti/base_link""",,,-1.00880789757,0.0209346469492,1.18525874615,,0.00703108666911,-0.0119442648276,-0.00889536438355,0.999864376228
1576079374057373096,,,0,,1576079374,57303200,"""world""","""hoverOpti/base_link""",,,-1.00874888897,0.0209316555411,1.18524515629,,0.00719309010883,-0.0112354341163,-0.0087452974427,0.999872764029
1576079374077716660,,,0,,1576079374,77632410,"""world""","""hoverOpti/base_link""",,,-1.00883460045,0.0209390390664,1.18523037434,,0.00718262364696,-0.0115933046276,-0.00876113519761,0.999868615227
1576079374098441769,,,0,,1576079374,98348593,"""world""","""hoverOpti/base_link""",,,-1.00881135464,0.0209897346795,1.18524372578,,0.00718776540581,-0.0115085046175,-0.00936542617905,0.999864080334
1576079374117625116,,,0,,1576079374,117538441,"""world""","""hoverOpti/base_link""",,,-1.00880265236,0.0209467038512,1.18524467945,,0.00713065251077,-0.0115546676512,-0.00902209724892,0.999867113776
1576079374137799991,,,0,,1576079374,137671280,"""world""","""hoverOpti/base_link""",,,-1.00883626938,0.0209404341877,1.18523573875,,0.00712535007344,-0.0116163501484,-0.00877789709879,0.999868610527
1576079374157549256,,,0,,1576079374,157480347,"""world""","""hoverOpti/base_link""",,,-1.00876426697,0.0209245607257,1.1852530241,,0.0070793060445,-0.0115994289287,-0.00892245395197,0.999867854514
1576079374178766361,,,0,,1576079374,178700319,"""world""","""hoverOpti/base_link""",,,-1.00883448124,0.0209419988096,1.18522906303,,0.00712359671386,-0.0115343141939,-0.0087805312741,0.99986954961
1576079374198108283,,,0,,1576079374,198028962,"""world""","""hoverOpti/base_link""",,,-1.00884175301,0.0209301151335,1.18523705006,,0.00710278420909,-0.0115951643833,-0.00880183835093,0.999868806525
1576079374217449763,,,0,,1576079374,217358215,"""world""","""hoverOpti/base_link""",,,-1.00884127617,0.020951833576,1.18522870541,,0.00708240168503,-0.0116097871422,-0.00872590138128,0.999869447015
1576079374237434334,,,0,,1576079374,237346420,"""world""","""hoverOpti/base_link""",,,-1.00881075859,0.0209311172366,1.18525481224,,0.00691031385323,-0.0119641283546,-0.00902010873103,0.99986386315
1576079374257843206,,,0,,1576079374,257766685,"""world""","""hoverOpti/base_link""",,,-1.0088095665,0.0209591109306,1.18523561954,,0.00715153251334,-0.0116077159587,-0.0090457537049,0.999866136467
1576079374277442422,,,0,,1576079374,277375567,"""world""","""hoverOpti/base_link""",,,-1.00877892971,0.0209449212998,1.18525052071,,0.00704998926417,-0.0119026254079,-0.00907498857317,0.999863125504
1576079374297456271,,,0,,1576079374,297380595,"""world""","""hoverOpti/base_link""",,,-1.00879979134,0.0209663789719,1.1852285862,,0.0072880332656,-0.0112545382527,-0.00920988017221,0.999867690271
1576079374317405167,,,0,,1576079374,317328867,"""world""","""hoverOpti/base_link""",,,-1.00875413418,0.0209238827229,1.18524682522,,0.00715742263013,-0.0116067948273,-0.00885632730754,0.999867800803
