rosbagTimestamp,x,y,theta
1576079368298112688,-1.00874638557,0.0209421813488,-0.0176899986876
1576079368317739618,-1.00876379013,0.0209317114204,-0.017957110051
1576079368337777221,-1.00880002975,0.0209305677563,-0.0175342298105
1576079368357704190,-1.00876104832,0.0209269169718,-0.0178718863989
1576079368377769693,-1.00884497166,0.0209480207413,-0.0177720925757
1576079368397850477,-1.00880813599,0.0209292136133,-0.0179919358682
1576079368417645308,-1.00880289078,0.0209379717708,-0.0178155857289
1576079368437598199,-1.0087608099,0.0209250673652,-0.018066652449
1576079368457552344,-1.00877678394,0.0209502093494,-0.018200797188
1576079368477568001,-1.00877332687,0.0209321379662,-0.0178029785516
1576079368497747651,-1.00881254673,0.0209640357643,-0.0182135168376
1576079368518003188,-1.00883960724,0.0209401957691,-0.0176855299404
1576079368538011718,-1.00881206989,0.0209293942899,-0.017966039484
1576079368557940653,-1.00872349739,0.0209177304059,-0.0178525868777
1576079368578215104,-1.00874114037,0.0209246370941,-0.0179074081338
1576079368597704849,-1.00880384445,0.020926527679,-0.0178964609992
1576079368617797755,-1.0088135004,0.0209515001625,-0.0182395335766
1576079368637855922,-1.00879979134,0.0209349561483,-0.0177231793662
1576079368657584360,-1.00879371166,0.0209348779172,-0.0176721532078
1576079368677671617,-1.0087647438,0.0209222193807,-0.0177164757639
1576079368698925875,-1.00879776478,0.0209314543754,-0.0176821307148
1576079368717680535,-1.00883972645,0.0209345147014,-0.0175542021575
1576079368737783852,-1.00875878334,0.0209180470556,-0.0178455401928
1576079368757578061,-1.00877714157,0.0209439061582,-0.0181754708254
1576079368778349127,-1.00882208347,0.020921304822,-0.0171496253071
1576079368797716092,-1.00874722004,0.0209177043289,-0.0178081099903
1576079368818042649,-1.00883340836,0.0209385622293,-0.0175758630407
1576079368837615070,-1.00876200199,0.0209492798895,-0.0180543044893
1576079368857591082,-1.00875604153,0.0209203604609,-0.017730759789
1576079368877836451,-1.00874829292,0.02092060633,-0.0176605857593
1576079368897652051,-1.0087968111,0.0209327805787,-0.0175157541997
1576079368917993062,-1.00876820087,0.0209293421358,-0.0176595095635
1576079368937972181,-1.00878715515,0.0209342725575,-0.0174532079657
1576079368957596267,-1.00878787041,0.0209426749498,-0.0175372509975
1576079368978077161,-1.0087338686,0.0209465343505,-0.0181655304115
1576079368997862600,-1.00877296925,0.020938994363,-0.0180503121225
1576079369017708924,-1.00879526138,0.0209308471531,-0.0175787834519
1576079369037768629,-1.00881052017,0.0209309384227,-0.0180096098542
1576079369058401808,-1.00879836082,0.020927503705,-0.0177822657625
1576079369077849868,-1.0087608099,0.0209269300103,-0.0175690461012
1576079369097747597,-1.00883448124,0.0209439042956,-0.0178126041953
1576079369118212735,-1.00881552696,0.0209394693375,-0.0178683113221
1576079369137941199,-1.00878632069,0.020937608555,-0.0176373822862
1576079369158135946,-1.00877523422,0.0209455788136,-0.0178219894557
1576079369177622656,-1.00879263878,0.0209442675114,-0.0176597096089
1576079369197761577,-1.00883412361,0.020949697122,-0.0177588599075
1576079369218159722,-1.0087915659,0.0209400318563,-0.0175521436125
1576079369237619827,-1.00880694389,0.0209324415773,-0.0179043587872
1576079369257792462,-1.00876045227,0.020918590948,-0.0181061454671
1576079369278822153,-1.00880241394,0.0209376420826,-0.0178233316951
1576079369297727763,-1.00877583027,0.0209462307394,-0.0182552012852
1576079369317800012,-1.00875902176,0.0209352001548,-0.0177240059016
1576079369338017354,-1.0087569952,0.0209269914776,-0.0178421589207
1576079369357876685,-1.00881159306,0.0209294203669,-0.017992560172
1576079369377858018,-1.00884473324,0.0209423974156,-0.0177768742694
1576079369397577542,-1.00876891613,0.0209296680987,-0.0177867481919
1576079369417659244,-1.00883173943,0.0209371242672,-0.0179301815942
1576079369437556915,-1.0088031292,0.0209438558668,-0.0178068439903
1576079369457808340,-1.00880646706,0.0209517609328,-0.0182674355679
1576079369477629344,-1.00875461102,0.0209244228899,-0.0180068700934
1576079369497624066,-1.00876307487,0.0209264289588,-0.0177377746166
1576079369517758977,-1.00879240036,0.0209327396005,-0.0178317009092
1576079369537570987,-1.0087647438,0.020925687626,-0.017879656141
1576079369557667828,-1.00877773762,0.020949460566,-0.0182975574127
1576079369578759520,-1.00879919529,0.0209323260933,-0.0177393389023
1576079369597668144,-1.00872039795,0.0209297146648,-0.017847033324
1576079369628291189,-1.00874900818,0.0209302715957,-0.0177840397482
1576079369637921390,-1.00876843929,0.0209219269454,-0.0176277488094
1576079369657615094,-1.00879299641,0.0209333021194,-0.0177932180521
1576079369677566066,-1.00875771046,0.0209317058325,-0.0180035984003
1576079369697578805,-1.00879561901,0.0209389608353,-0.0177102925677
1576079369721491145,-1.0088416338,0.0209465175867,-0.0177130300445
1576079369737622033,-1.00876009464,0.0209248326719,-0.0179774099241
1576079369757547054,-1.0088070631,0.0209370870143,-0.0178068928109
1576079369777512324,-1.00881290436,0.0209400113672,-0.0178226042229
1576079369797698487,-1.00873756409,0.0209528226405,-0.0184595542796
1576079369817690222,-1.0087928772,0.0209407340735,-0.0178044182048
1576079369837546528,-1.00871121883,0.0209185443819,-0.0179996239046
1576079369857589539,-1.00884079933,0.0209264345467,-0.0178400716438
1576079369878045821,-1.00883793831,0.0209504496306,-0.0178839113418
1576079369897742837,-1.00876152515,0.0209170654416,-0.0189042044603
1576079369917937894,-1.00876510143,0.0209303144366,-0.0180120753023
1576079369937617032,-1.00881171227,0.0209299065173,-0.0177463600653
1576079369957765338,-1.00880551338,0.0209396034479,-0.0181545717879
1576079369979914381,-1.00874495506,0.0209324639291,-0.0176376394472
1576079369997602975,-1.00883936882,0.0209449529648,-0.0177509331586
1576079370017772372,-1.00876665115,0.0209217574447,-0.0175076076834
1576079370037661391,-1.00879788399,0.0209371522069,-0.0179341231698
1576079370057660182,-1.00883555412,0.0209355838597,-0.01768720945
1576079370077760654,-1.00875604153,0.0209272392094,-0.0179771141063
1576079370097597492,-1.00878596306,0.0209329798818,-0.0174414988616
1576079370117588510,-1.00881445408,0.020939938724,-0.0176488230163
1576079370137842648,-1.0088416338,0.0209371112287,-0.0177967702581
1576079370157595908,-1.00876367092,0.0209253579378,-0.0178877689281
1576079370178832024,-1.00880622864,0.0209548491985,-0.0181665719157
1576079370197609965,-1.00877010822,0.0209155771881,-0.0178400664946
1576079370217897667,-1.00883889198,0.0209369510412,-0.0176703435421
1576079370238236769,-1.0087634325,0.0209243390709,-0.0177577721466
1576079370258092883,-1.00879514217,0.0209303405136,-0.0175873866335
1576079370278046848,-1.00876271725,0.0209208093584,-0.0178110943778
1576079370297590799,-1.00875377655,0.0209273453802,-0.0175878156924
1576079370317495035,-1.00881040096,0.0209575966001,-0.0180446554453
1576079370337811188,-1.00881206989,0.0209401510656,-0.0179648940956
1576079370357673826,-1.00876641273,0.0209298878908,-0.0176705606162
1576079370377643513,-1.00877177715,0.0209331586957,-0.0178049092525
1576079370397673198,-1.00879609585,0.0209443960339,-0.0175740373195
1576079370417690882,-1.00880742073,0.0209578964859,-0.0181875708167
1576079370437661651,-1.0087518692,0.0209385380149,-0.017620780006
1576079370457651384,-1.0087916851,0.0209372173995,-0.0173845119792
1576079370477788961,-1.00879776478,0.0209476128221,-0.0175478494014
1576079370497578891,-1.00874483585,0.0209370702505,-0.0178292203963
1576079370517628262,-1.00881671906,0.0209366343915,-0.0180915905452
1576079370537811143,-1.00877344608,0.0209473464638,-0.0183304009929
1576079370557553594,-1.00879859924,0.0209311638027,-0.0178447061205
1576079370578550435,-1.0087941885,0.0209246538579,-0.0174778721039
1576079370598544083,-1.0088160038,0.020940059796,-0.0178854696223
1576079370617791272,-1.00880563259,0.0209513511509,-0.0175469548017
1576079370637602138,-1.00884187222,0.0209466293454,-0.0177759966219
1576079370657504166,-1.00884532928,0.0209452956915,-0.0176384958792
1576079370677821977,-1.00880026817,0.020945135504,-0.0175728809146
1576079370697660852,-1.00878548622,0.0209302995354,-0.0175645194932
1576079370721370177,-1.00876927376,0.020923897624,-0.0178559549393
1576079370737590261,-1.00879025459,0.0209312122315,-0.0177475643616
1576079370758021621,-1.00879609585,0.0209299996495,-0.0175895185786
1576079370777420943,-1.00875556469,0.0209243781865,-0.0178185170957
1576079370799253612,-1.00880789757,0.0209329947829,-0.0180651603036
1576079370817578265,-1.00878858566,0.0209278725088,-0.0177419244929
1576079370838415860,-1.00883674622,0.0209398102015,-0.0177625161275
1576079370857684436,-1.00876331329,0.0209235921502,-0.0179475486872
1576079370877637512,-1.00879848003,0.020953854546,-0.0180883433604
1576079370897540699,-1.00874197483,0.0209398455918,-0.0177508866347
1576079370917790781,-1.00878560543,0.0209374688566,-0.0176412287904
1576079370937948882,-1.0088044405,0.0209335573018,-0.0181637980533
1576079370957693403,-1.00880455971,0.0209332983941,-0.0179133611175
1576079370977522001,-1.00880539417,0.020955901593,-0.0181651139239
1576079370997944305,-1.00879299641,0.0209405869246,-0.0175570551212
1576079371017488424,-1.00881075859,0.02093388699,-0.0181593926223
1576079371037686110,-1.00879597664,0.0209726486355,-0.0183556252359
1576079371057503958,-1.00877213478,0.0209492761642,-0.0183114308462
1576079371081378708,-1.00880384445,0.0209376197308,-0.017696536574
1576079371097812483,-1.00876736641,0.0209373738617,-0.0179019500284
1576079371117628014,-1.00875878334,0.0209319908172,-0.0176344399246
1576079371137881189,-1.0088044405,0.0209592487663,-0.0180735998329
1576079371157778755,-1.00882339478,0.020958263427,-0.0184083649855
1576079371177578410,-1.00875854492,0.020932212472,-0.0176682319277
1576079371197629642,-1.00875532627,0.0209282580763,-0.0176989956425
1576079371217589692,-1.0087890625,0.0209482908249,-0.017794721814
1576079371241504236,-1.00875782967,0.020938122645,-0.0177992355854
1576079371258504954,-1.00881099701,0.020945219323,-0.017941070054
1576079371277498636,-1.00876116753,0.0209345854819,-0.0176846331209
1576079371298698616,-1.00880086422,0.0209701023996,-0.0183195466817
1576079371317978437,-1.00878751278,0.0209583565593,-0.0185172939047
1576079371337577785,-1.00872373581,0.0209373962134,-0.0179686222295
1576079371357773109,-1.00876796246,0.0209524836391,-0.0196255732072
1576079371378075848,-1.00879514217,0.0209392327815,-0.0178409254052
1576079371397853864,-1.00879120827,0.0209443233907,-0.0177494568418
1576079371417777889,-1.00884139538,0.0209641773254,-0.0178264879036
1576079371437577918,-1.00884270668,0.0209524389356,-0.017930834803
1576079371457751344,-1.00879943371,0.0209955722094,-0.0190602149549
1576079371477542879,-1.008715868,0.020934805274,-0.0178857184693
1576079371504113755,-1.00876176357,0.0209306888282,-0.0177452191973
1576079371517536131,-1.00883555412,0.0209440477192,-0.0177766116603
1576079371537556005,-1.00883126259,0.0209436845034,-0.0178468549761
1576079371557582852,-1.00877153873,0.0209430437535,-0.0183286706737
1576079371578818650,-1.00871574879,0.020931314677,-0.017895101601
1576079371598153880,-1.00870752335,0.0209289342165,-0.0179753260352
1576079371618059125,-1.00871181488,0.0209258664399,-0.0177596410586
1576079371639400030,-1.00882208347,0.0209462307394,-0.0175388963652
1576079371657792165,-1.00878882408,0.0209325160831,-0.0176681641459
1576079371677577415,-1.00877726078,0.0209525302052,-0.0181142717716
1576079371697580921,-1.00875544548,0.0209245309234,-0.0178705677741
1576079371717587518,-1.00882816315,0.0209385063499,-0.0177100078946
1576079371737991018,-1.00880563259,0.0209394320846,-0.0180235937993
1576079371758336904,-1.0087441206,0.0209324620664,-0.0177556708403
1576079371777522868,-1.00880432129,0.0209400244057,-0.0178910324007
1576079371797633092,-1.00877773762,0.0209420211613,-0.0182073312107
1576079371817538297,-1.00869393349,0.0208965167403,-0.0186847833577
1576079371837543896,-1.00883579254,0.0209403038025,-0.0178025939508
1576079371857603258,-1.00881493092,0.0209590736777,-0.0182255101889
1576079371877476539,-1.00879836082,0.020930480212,-0.0177456771388
1576079371897797923,-1.00879395008,0.020937634632,-0.0175197347806
1576079371918761278,-1.00874853134,0.0209654420614,-0.0189440375144
1576079371937933659,-1.00880980492,0.0209559928626,-0.0179894970923
1576079371957869491,-1.00871515274,0.0209216270596,-0.0178356491453
1576079371978385052,-1.00883030891,0.0209481175989,-0.0176161381501
1576079371997784511,-1.00876367092,0.0209317896515,-0.0179326368428
1576079372017559708,-1.00884473324,0.0209648925811,-0.0184402192341
1576079372041465795,-1.00876748562,0.0209246128798,-0.0175960660429
1576079372057468435,-1.00873601437,0.02093642205,-0.0183441282951
1576079372077481514,-1.00877428055,0.0209351629019,-0.0182788946753
1576079372098502731,-1.00873637199,0.0209231376648,-0.0177487469413
1576079372117574542,-1.00876116753,0.0209264848381,-0.0179185415078
1576079372137618755,-1.00879907608,0.0209287852049,-0.0176990690638
1576079372157533790,-1.00881016254,0.0209449846298,-0.0183338663751
1576079372177723351,-1.00883412361,0.0209397561848,-0.0176112567257
1576079372197890751,-1.00873291492,0.0209458731115,-0.0182937187875
1576079372219219237,-1.0087594986,0.0209265835583,-0.0178114500308
1576079372237750833,-1.00876653194,0.0209276061505,-0.0178651312677
1576079372257768340,-1.00884485245,0.0209448281676,-0.0176884306791
1576079372278420645,-1.00879633427,0.0209776200354,-0.0189944655537
1576079372298014220,-1.00875616074,0.0209246948361,-0.0179314416157
1576079372317533386,-1.0088365078,0.0209531020373,-0.0177646558425
1576079372337592506,-1.00879621506,0.0209358409047,-0.0178116377175
1576079372357698600,-1.00875520706,0.0209145788103,-0.017865817521
1576079372378870319,-1.00883209705,0.0209365487099,-0.0176528178496
1576079372398016556,-1.00872397423,0.020913342014,-0.0179476302226
1576079372417503368,-1.00880026817,0.0209244266152,-0.0179627960985
1576079372438500712,-1.00883877277,0.0209375713021,-0.0177549510585
1576079372457938098,-1.00883936882,0.0209352541715,-0.017908543993
1576079372477768568,-1.00881290436,0.0209292918444,-0.0179285454611
1576079372497571304,-1.00882911682,0.0209476705641,-0.0177074519766
1576079372518312398,-1.00881993771,0.0209829360247,-0.0189367507018
1576079372540340168,-1.00879430771,0.0209395326674,-0.0176682855136
1576079372557543250,-1.00881040096,0.0209506172687,-0.0180815552418
1576079372578255429,-1.00878608227,0.0209345910698,-0.0180400616603
1576079372598144504,-1.00883555412,0.0209443662316,-0.0179044167384
1576079372617810786,-1.0088082552,0.0209365598857,-0.0179072054815
1576079372637628975,-1.00879108906,0.0209408011287,-0.0174942991307
1576079372657533669,-1.00882124901,0.0209841188043,-0.0187854831387
1576079372677840983,-1.00878584385,0.0209755916148,-0.0190382919926
1576079372697540883,-1.00883698463,0.020947098732,-0.0179012718273
1576079372717562588,-1.00880324841,0.0209281239659,-0.0180502539141
1576079372737495947,-1.00877201557,0.0209450367838,-0.0184126560549
1576079372757513077,-1.00880134106,0.0209323689342,-0.0178080832145
1576079372777581497,-1.00880229473,0.0209592394531,-0.0182369777509
1576079372797561977,-1.0087569952,0.0209403112531,-0.0178895219169
1576079372817872776,-1.00876092911,0.0209312215447,-0.0178931322263
1576079372837982935,-1.00873875618,0.0209644697607,-0.0191430321785
1576079372857607195,-1.00880372524,0.0209488719702,-0.0180979857222
1576079372877728653,-1.00875675678,0.0209226105362,-0.0178844386037
1576079372898501300,-1.00875234604,0.0209319125861,-0.0177846510414
1576079372917536800,-1.00878846645,0.0209391023964,-0.0175919845324
1576079372937504997,-1.00880026817,0.0209325719625,-0.0178653918785
1576079372957477517,-1.00883686543,0.0209307298064,-0.0177914764949
1576079372977459539,-1.00875198841,0.020921593532,-0.0180056564889
1576079372997573554,-1.00878238678,0.0209262408316,-0.0178755403269
1576079373017528752,-1.00877487659,0.020927740261,-0.0177404248917
1576079373037592523,-1.00880813599,0.0209250021726,-0.0179883268186
1576079373057581390,-1.00883793831,0.0209449585527,-0.0177709525981
1576079373077541238,-1.00876605511,0.0209235046059,-0.0178658538693
1576079373097590277,-1.00879073143,0.0209351629019,-0.0177385374766
1576079373117710828,-1.00878751278,0.0209232755005,-0.0177647859351
1576079373137912588,-1.00878179073,0.0209435876459,-0.0182906304873
1576079373157899831,-1.00873792171,0.0208943448961,-0.018754311483
1576079373178557727,-1.00879752636,0.0208960734308,-0.0187698057365
1576079373197696830,-1.00876736641,0.0209444183856,-0.0182476059932
1576079373217556510,-1.00877535343,0.0208913274109,-0.0186041035728
1576079373237774553,-1.00877642632,0.0209247171879,-0.0178960070122
1576079373257431644,-1.00869882107,0.0209028422832,-0.0180329142267
1576079373277363132,-1.00876188278,0.0209382791072,-0.0182247365085
1576079373297420491,-1.00876092911,0.0209257751703,-0.0178115993835
1576079373317565710,-1.00883102417,0.0209393501282,-0.0180566089162
1576079373337441107,-1.00882959366,0.0209357962012,-0.017802555056
1576079373358850228,-1.00878763199,0.0209270007908,-0.0178009349662
1576079373377569667,-1.00879442692,0.0209266077727,-0.0175299544734
1576079373397566620,-1.00877845287,0.020915010944,-0.0178000950225
1576079373417996139,-1.00883162022,0.020930590108,-0.0177807729691
1576079373437806256,-1.00875508785,0.0209181681275,-0.0178244049326
1576079373457461337,-1.00874590874,0.0209368225187,-0.0181488358413
1576079373477518705,-1.00875246525,0.020912470296,-0.017879881579
1576079373497446809,-1.00873529911,0.0209580399096,-0.0188719385526
1576079373517758137,-1.00874936581,0.0209411382675,-0.0183006277602
1576079373537724093,-1.00874590874,0.0209169145674,-0.0178708400268
1576079373557456094,-1.00872612,0.0209580417722,-0.0188093226129
1576079373578921672,-1.00875377655,0.0209509432316,-0.018165583876
1576079373597532469,-1.00883817673,0.0209329109639,-0.0177420289379
1576079373617437998,-1.00878822803,0.0209271814674,-0.017888202572
1576079373637805339,-1.00881206989,0.0209282301366,-0.0178490947234
1576079373658145010,-1.00879442692,0.0209422912449,-0.0175745152011
1576079373678355625,-1.00882542133,0.0209469012916,-0.0176904569179
1576079373698578049,-1.00880038738,0.0209328792989,-0.0174547676654
1576079373717506575,-1.00884270668,0.020946437493,-0.0178185577104
1576079373737559626,-1.00883412361,0.0209298096597,-0.0176564282729
1576079373757438587,-1.00876033306,0.0209238212556,-0.0180022765444
1576079373778850959,-1.00879013538,0.0209283344448,-0.0175940550959
1576079373797530419,-1.00880789757,0.0209398642182,-0.0180517922795
1576079373817593843,-1.00883316994,0.0209417566657,-0.0175734958081
1576079373837503979,-1.00881063938,0.0209549050778,-0.0180503710828
1576079373857449238,-1.00880968571,0.0209568273276,-0.0180095027935
1576079373877448932,-1.00877761841,0.0209359545261,-0.0179318696428
1576079373897513160,-1.00873541832,0.0209607705474,-0.0189626886914
1576079373917654626,-1.00874626637,0.0209316816181,-0.0181060966852
1576079373948984373,-1.0088455677,0.0209399163723,-0.0178670262226
1576079373957766145,-1.00880169868,0.0209316909313,-0.0179033291392
1576079373977444995,-1.00879096985,0.020933829248,-0.0179455545011
1576079374001742900,-1.00881302357,0.0209634397179,-0.0181933518045
1576079374018523868,-1.0087774992,0.0209476612508,-0.0183194127576
1576079374037596322,-1.00880789757,0.0209346469492,-0.0179623148662
1576079374057395927,-1.00874888897,0.0209316555411,-0.0176553285037
1576079374077738292,-1.00883460045,0.0209390390664,-0.0176921353445
1576079374098465037,-1.00881135464,0.0209897346795,-0.0188998194913
1576079374117652426,-1.00880265236,0.0209467038512,-0.0182123962801
1576079374137821864,-1.00883626938,0.0209404341877,-0.0177246880224
1576079374157576271,-1.00876426697,0.0209245607257,-0.0180125491321
1576079374178790152,-1.00883448124,0.0209419988096,-0.0177286973879
1576079374198130740,-1.00884175301,0.0209301151335,-0.0177717450761
1576079374217472290,-1.00884127617,0.020951833576,-0.0176195848861
1576079374237441851,-1.00881075859,0.0209311172366,-0.018209277392
1576079374257887217,-1.0088095665,0.0209591109306,-0.0182609917215
1576079374277465461,-1.00877892971,0.0209449212998,-0.0183214792982
1576079374297478138,-1.00879979134,0.0209663789719,-0.0185870920884
1576079374317464607,-1.00875413418,0.0209238827229,-0.0178821802342
1576079374337438206,-1.00883150101,0.0209395624697,-0.0177423115218
1576079374361301812,-1.00875377655,0.0209189485759,-0.0177461055775
1576079374377503135,-1.00882875919,0.0209517944604,-0.0177234025979
1576079374397436885,-1.00880134106,0.0209486763924,-0.0182035778944
1576079374418161574,-1.00875914097,0.0209436826408,-0.0183163981873
1576079374437756789,-1.00880146027,0.0209512207657,-0.01809725372
1576079374457541483,-1.00881850719,0.0209662858397,-0.0182040061957
1576079374477488864,-1.00880873203,0.0209529679269,-0.0181812082776
1576079374497439094,-1.00881624222,0.0209362674505,-0.0178759605821
1576079374517577066,-1.00879895687,0.020929839462,-0.0177170711152
1576079374537433558,-1.00877976418,0.0209227409214,-0.0176822453311
1576079374557508652,-1.00879490376,0.020914638415,-0.0178180547889
1576079374580405830,-1.00877845287,0.0209165625274,-0.0177907784304
1576079374598273886,-1.00872993469,0.0209119617939,-0.0178573495658
1576079374617772252,-1.00883352757,0.0209577064961,-0.0184786479802
1576079374637721316,-1.0087531805,0.0209186095744,-0.0178786769309
1576079374658023442,-1.00881946087,0.0209797210991,-0.0188191766891
1576079374678057066,-1.00875306129,0.020916827023,-0.0178517361581
1576079374697680868,-1.00878942013,0.0209385957569,-0.017866240338
1576079374717542021,-1.00880503654,0.020928485319,-0.0178352845181
1576079374737401288,-1.0088429451,0.0209343470633,-0.0176836376974
1576079374759067328,-1.00881111622,0.0209553744644,-0.0185999723824
1576079374777431383,-1.00879848003,0.020938269794,-0.0179362771971
1576079374797747268,-1.00883817673,0.0209397450089,-0.0177157762082
1576079374817415997,-1.00881075859,0.0209496151656,-0.0179270123423
1576079374841247749,-1.00879347324,0.0209254138172,-0.0175702550743
1576079374857367019,-1.00883448124,0.0209493301809,-0.017647338063
1576079374877587048,-1.00884187222,0.0209373738617,-0.0178732635435
1576079374897533249,-1.00873351097,0.0209305826575,-0.0185358972578
1576079374917368361,-1.00876379013,0.0209261253476,-0.0178663419175
1576079374937721352,-1.00880420208,0.020936332643,-0.0179712462658
1576079374957455749,-1.00884664059,0.0209699179977,-0.0185867473383
1576079374977782816,-1.00883173943,0.0209851674736,-0.0187879725742
1576079374997522530,-1.00877630711,0.0209485832602,-0.0182460317936
1576079375017580916,-1.0087723732,0.0209374781698,-0.0182636816672
1576079375044294980,-1.00878298283,0.0209454800934,-0.0181586968653
1576079375057822097,-1.00882935524,0.0209394954145,-0.0176409620391
1576079375077494585,-1.00876832008,0.0209228843451,-0.0177278498209
1576079375099712788,-1.00880491734,0.0209300275892,-0.017850455423
1576079375117396304,-1.00880718231,0.0209335945547,-0.0177524764584
1576079375137507301,-1.00880765915,0.0209301952273,-0.0178194055882
1576079375158468812,-1.0088031292,0.0209208969027,-0.0179680792441
1576079375177800172,-1.0087928772,0.0209309794009,-0.0176379253653
1576079375197567684,-1.00881576538,0.0209601763636,-0.0181421590648
1576079375218157212,-1.00881612301,0.0209478531033,-0.0183123978262
1576079375237502071,-1.00874578953,0.0209261160344,-0.0177296995503
1576079375257358455,-1.00878965855,0.020929209888,-0.0176616984234
1576079375277422532,-1.00884592533,0.0209754295647,-0.0184369130172
1576079375297909244,-1.00883078575,0.0209343396127,-0.0177858866131
1576079375317378241,-1.00873732567,0.0209388062358,-0.0184624328255
1576079375338026757,-1.0088429451,0.0209378004074,-0.0180525935193
1576079375357728825,-1.00884521008,0.0209462530911,-0.0177709725938
1576079375377392490,-1.00877249241,0.0209798589349,-0.0188496441432
1576079375400267759,-1.00881707668,0.0209595486522,-0.0184898236007
1576079375417432288,-1.00875747204,0.0209166686982,-0.0179133348754
1576079375437878434,-1.00875067711,0.0209287405014,-0.0179452864081
1576079375457429197,-1.00880885124,0.0209560524672,-0.0181985586386
1576079375477720927,-1.00878560543,0.0209323968738,-0.0175283897814
1576079375497660007,-1.00883936882,0.0209417436272,-0.0176507933973
1576079375517518471,-1.00879657269,0.020940059796,-0.0175552140521
1576079375537592184,-1.00880777836,0.0209469534457,-0.017643807775
1576079375557419796,-1.00879371166,0.020936448127,-0.0176470887941
1576079375578240873,-1.00881028175,0.0209400337189,-0.0178449060465
1576079375597321445,-1.00881993771,0.0209635198116,-0.0186573728898
1576079375617477749,-1.00881183147,0.0209592543542,-0.0180928952438
1576079375638125036,-1.00880694389,0.0209616851062,-0.0181286106525
1576079375657411915,-1.00880455971,0.0209265965968,-0.0177994235062
1576079375681528229,-1.00878310204,0.0209507383406,-0.0183826837992
1576079375697489999,-1.00883245468,0.0209936313331,-0.0189620753823
1576079375717545940,-1.00884246826,0.0209415089339,-0.0178481758504
1576079375737429010,-1.00880074501,0.020932758227,-0.0177638506356
1576079375757513713,-1.00879633427,0.0209307484329,-0.0176426689134
1576079375777606938,-1.00876379013,0.0209487751126,-0.0183670361842
1576079375797551776,-1.00880885124,0.0209327172488,-0.0177541770814
1576079375818506050,-1.00883460045,0.0209358464926,-0.0177616724314
1576079375838153075,-1.00885307789,0.0209674146026,-0.0183542191053
1576079375857864186,-1.0087376833,0.0209460556507,-0.0184664412686
1576079375877660050,-1.00880646706,0.020930768922,-0.018028977223
1576079375898219629,-1.00879728794,0.0209335312247,-0.0179530710628
1576079375918744725,-1.00878870487,0.0209553390741,-0.0183551248088
1576079375937467126,-1.00874388218,0.0209048185498,-0.0173234558856
1576079375959219593,-1.00875818729,0.0209617093205,-0.0178499450743
1576079375977761466,-1.00880849361,0.0209791120142,-0.018801591888
1576079375997687166,-1.00869131088,0.0209048483521,-0.0190928602595
1576079376017493748,-1.00878226757,0.0209455359727,-0.0178086077728
1576079376037317868,-1.00874900818,0.0210008937865,-0.0190875224945
1576079376058471089,-1.00873982906,0.0209603048861,-0.0178971575252
1576079376078553181,-1.00857901573,0.0209547001868,-0.0179353009451
1576079376097534315,-1.00828063488,0.0210044942796,-0.0172293969873
1576079376117447559,-1.00777459145,0.0212742313743,-0.0209360476236
1576079376137612790,-1.00717628002,0.0213096812367,-0.0200786572888
1576079376157429080,-1.0064330101,0.0214048605412,-0.0213675084477
1576079376177521003,-1.00552022457,0.0213269032538,-0.0188154854536
1576079376197783509,-1.0043836832,0.0210703536868,-0.0156282727922
1576079376218068613,-1.00327074528,0.0212041921914,-0.0152567539704
1576079376237912755,-1.00197803974,0.0213501043618,-0.0141953293149
1576079376257795532,-1.00057339668,0.0213319342583,-0.0176987359881
1576079376277506802,-0.998839020729,0.0212154146284,-0.0191518538531
1576079376297576093,-0.99701654911,0.0212577022612,-0.0170041340678
1576079376317423414,-0.995224237442,0.0211420021951,-0.0157196057169
1576079376337469540,-0.993082404137,0.0212649274617,-0.0182522081512
1576079376357713059,-0.991049706936,0.0212184246629,-0.0180549575251
1576079376377576528,-0.988551080227,0.0211033672094,-0.0184923336346
1576079376397704427,-0.986118853092,0.0211603268981,-0.0163530481668
1576079376417660515,-0.983305335045,0.0211249738932,-0.0187610316561
1576079376438515385,-0.980474829674,0.0210661347955,-0.0172079793548
1576079376461247372,-0.977751970291,0.0211227815598,-0.0168715292504
1576079376477895819,-0.974422037601,0.0212187953293,-0.0170413289156
1576079376497615504,-0.971234560013,0.0209396742284,-0.0137390750364
1576079376518248380,-0.96783220768,0.0209936052561,-0.0150932121026
1576079376537606757,-0.964543282986,0.0212024860084,-0.0173785636615
1576079376557564144,-0.960950374603,0.0211291797459,-0.0168130308326
1576079376578584077,-0.957425653934,0.0211383793503,-0.0155113685265
1576079376598074422,-0.954133987427,0.0213721264154,-0.00608700608472
1576079376617857419,-0.950918316841,0.0212587360293,-0.0104465858277
1576079376637251109,-0.947668135166,0.0208101440221,-0.0127636980639
1576079376657363121,-0.944370090961,0.0208737514913,-0.0147158906847
1576079376677297694,-0.940641701221,0.0211024731398,-0.0170065335941
1576079376697277694,-0.937123000622,0.0209348909557,-0.0187393226729
1576079376717613646,-0.933285832405,0.0210228096694,-0.0182890290034
1576079376737935313,-0.929669320583,0.021018801257,-0.0214531303999
1576079376757269499,-0.925852060318,0.0210570413619,-0.0180035795007
1576079376777652630,-0.921790838242,0.0210638884455,-0.0191060813318
1576079376797630170,-0.91771042347,0.0209876410663,-0.0175858956214
1576079376817457213,-0.913860321045,0.0209538023919,-0.0136176023216
1576079376837547318,-0.909954845905,0.0210592802614,-0.0179423806286
1576079376857294382,-0.905780732632,0.0213588681072,-0.00921582323737
1576079376877258446,-0.90224802494,0.0212875958532,-0.00847118928156
1576079376897611261,-0.898285090923,0.0212251599878,-0.0249729842324
1576079376917317202,-0.894622504711,0.0213942620903,-0.00197491098819
1576079376938179550,-0.891039669514,0.0214387252927,-0.00480336593878
1576079376957360691,-0.887515902519,0.0213321186602,-0.0101997983654
1576079376977835147,-0.883900821209,0.0212947502732,-0.00593255682302
1576079376997321356,-0.879951357841,0.0211938489228,-0.0077316928139
1576079377017289209,-0.876938998699,0.0213427115232,-0.0217848001573
1576079377037513439,-0.873226642609,0.0211582500488,-0.0175713365545
1576079377057908503,-0.869482696056,0.0214660335332,-0.00437509216607
1576079377077939877,-0.866352856159,0.0215549189597,0.00132491412164
1576079377097577042,-0.862851917744,0.0213509183377,-0.00772364720731
1576079377117271082,-0.859440267086,0.0211777407676,-0.00719161861778
1576079377137369026,-0.8561668396,0.0211010985076,-0.0199421761636
1576079377157480058,-0.852550625801,0.0214101523161,-0.0166361413289
1576079377177364476,-0.849233806133,0.0214832834899,-0.0192924237486
1576079377197622573,-0.845906019211,0.0214185938239,-0.0261069854389
1576079377217674546,-0.842396736145,0.0213959217072,-0.0277611226692
1576079377237744457,-0.839028120041,0.0213006716222,-0.0215471693223
1576079377257363272,-0.835501670837,0.0212218202651,-0.015125145405
1576079377278146097,-0.832130432129,0.021261241287,0.0045883729824
1576079377297379759,-0.82875007391,0.0212576799095,-0.0016189269452
1576079377317496527,-0.825716257095,0.0217647403479,-0.0127155166394
1576079377337529669,-0.822735607624,0.0217644069344,-0.00146597819785
1576079377357632799,-0.820226192474,0.0213011857122,-0.00490603390826
1576079377377470564,-0.817330062389,0.021340508014,-0.0176773644281
1576079377397708680,-0.814832925797,0.0214030537754,-0.0320353041106
1576079377417711950,-0.811950445175,0.0212802365422,-0.0127463535004
1576079377437342363,-0.809240043163,0.0213433373719,-0.00545115491733
1576079377457528588,-0.806570112705,0.0214885156602,-0.0118928377771
1576079377478058409,-0.80408346653,0.0215485263616,-0.0200010061078
1576079377497557143,-0.801913499832,0.0215939097106,-0.0356120706559
1576079377517626168,-0.799200177193,0.0218062270433,-0.0448615684119
1576079377541853563,-0.796677589417,0.0215778332204,-0.0740834416122
1576079377558797120,-0.794285416603,0.0214751046151,-0.0105697478312
1576079377578517837,-0.792230188847,0.0215354878455,0.0011992724001
1576079377597645924,-0.790103256702,0.0215450264513,0.00817618673805
1576079377617639267,-0.787772715092,0.0217745229602,-0.0292208096292
1576079377637664278,-0.78661853075,0.0215534251183,-0.0469145682877
1576079377659819005,-0.785084545612,0.0215176716447,-0.00469412010435
1576079377681026268,-0.782902002335,0.0215471144766,0.0125791316503
1576079377698335099,-0.781561434269,0.0214542467147,-0.0282056884493
1576079377717632290,-0.77975165844,0.0216480232775,-0.0298063471342
1576079377737880449,-0.778046369553,0.0218139309436,-0.0206000419202
1576079377767010043,-0.776752412319,0.0221960507333,-0.0551584166281
1576079377777891326,-0.775775671005,0.02215831168,-0.0143532789545
1576079377797560143,-0.775329113007,0.0224093981087,-0.0187447709216
1576079377817526390,-0.774381697178,0.0216837432235,-0.0157256420967
1576079377837811836,-0.773766815662,0.0216984581202,-0.00591822177231
1576079377857947325,-0.77270168066,0.0223069414496,-0.00738000428928
1576079377877436687,-0.772060990334,0.0225911866874,-0.0310076042825
1576079377897541601,-0.771381556988,0.0222506783903,-0.00117389556522
1576079377917408424,-0.770919859409,0.0219486374408,0.0124651385426
1576079377937897026,-0.770186960697,0.0223821587861,-0.0170275596031
1576079377958295978,-0.76953291893,0.0228691902012,-0.0212901267346
1576079377977419480,-0.768863558769,0.0225796308368,0.00163384950024
1576079377998081003,-0.768943727016,0.0223440863192,0.0097395126924
1576079378017402765,-0.768771827221,0.0226537361741,-0.0211360713031
1576079378037458476,-0.768450140953,0.0222047902644,-0.00392034196868
1576079378057739240,-0.767830371857,0.0218784790486,-0.00156984747294
1576079378078634519,-0.767914056778,0.0220637023449,-0.00590035154265
1576079378097521937,-0.767677664757,0.0222132559866,-0.00642903298781
1576079378117333756,-0.767237365246,0.0227397941053,-0.0128712246644
1576079378137807320,-0.767175137997,0.0226459875703,0.00171681538284
1576079378157747088,-0.76692122221,0.0223661325872,0.0109159183819
1576079378177526067,-0.766610860825,0.0223771557212,0.00093633179604
1576079378197443214,-0.766440808773,0.0224410779774,-0.0100889451873
1576079378217345570,-0.766248464584,0.0224389825016,-0.00624682127431
1576079378237421321,-0.766753196716,0.0225424915552,0.015590545341
1576079378257914133,-0.767169475555,0.0224564205855,0.0146763325659
1576079378277306502,-0.767304480076,0.0222972109914,0.0157791638322
1576079378297410128,-0.767862379551,0.022590348497,0.00982236373915
1576079378317260234,-0.768335878849,0.0225731153041,-0.00262109139686
1576079378337436408,-0.768848180771,0.0222674719989,-0.000472868825193
1576079378357258712,-0.76926523447,0.0225098393857,7.90717419909e-05
1576079378377213025,-0.769651293755,0.0227400809526,-0.00383082087349
1576079378397390085,-0.769886314869,0.0226900875568,-0.00587834082722
1576079378417483174,-0.771015048027,0.0226997453719,0.00290660636394
1576079378437364480,-0.772424757481,0.0225739702582,0.00488722969302
1576079378457990947,-0.773664653301,0.0225413944572,0.00398147807898
1576079378478688662,-0.774965047836,0.0225176028907,0.00795681000343
1576079378497548899,-0.776252150536,0.0226619020104,0.00398449255575
1576079378517270203,-0.777474939823,0.0225408412516,0.00508333627196
1576079378537650087,-0.779224216938,0.0226274952292,-0.0017621735101
1576079378557525100,-0.78066855669,0.0226447619498,-0.00143386785293
1576079378578493492,-0.781939029694,0.0226392168552,6.16045537034e-05
1576079378597386703,-0.783468425274,0.0226600654423,-0.00423995922005
1576079378617525283,-0.785135149956,0.022249288857,-0.0119645997471
1576079378637969618,-0.786263108253,0.0226448476315,-0.00409768099133
1576079378657399122,-0.787483036518,0.0225669685751,0.00069885657118
1576079378677354707,-0.788694381714,0.0227809492499,-0.00239393827283
1576079378697385627,-0.789590954781,0.0226137414575,0.00219671487405
1576079378717526507,-0.790614247322,0.0224813483655,-0.000770816912021
1576079378741333703,-0.791863739491,0.0225907079875,0.00211672663566
1576079378757491609,-0.79267257452,0.0228122845292,0.000744973061962
1576079378777389099,-0.7937759161,0.0231056492776,-0.00487407065579
1576079378797317793,-0.794794797897,0.0229003895074,-0.00404403762509
1576079378817484629,-0.795546591282,0.0224486105144,0.000605398203517
1576079378837618374,-0.796269178391,0.022407528013,-0.00175040613608
1576079378857311671,-0.796830534935,0.0225656554103,-0.00817020676999
1576079378878270564,-0.797124385834,0.0224749930203,-0.00155188037056
1576079378898288555,-0.797615945339,0.0225345026702,-0.0013226364446
1576079378918163537,-0.798138320446,0.0226561184973,-0.00473365513912
1576079378937408312,-0.798333287239,0.0226414352655,-0.00444693374612
1576079378957575207,-0.798691570759,0.0225363653153,-0.00258618691889
1576079378977374560,-0.798932313919,0.0224263835698,-0.000263031571243
1576079378998740967,-0.799105346203,0.0227657426149,-0.0060565693533
1576079379017545604,-0.799131453037,0.0228064768016,-0.00919193110997
1576079379037442489,-0.79880875349,0.0225622672588,-0.00609837599738
1576079379057695142,-0.798542261124,0.022595576942,-0.00959581280452
1576079379077552404,-0.798194050789,0.0226028878242,-0.00859080831
1576079379098246991,-0.797845482826,0.0226020030677,-0.00767263311888
1576079379118252042,-0.797209501266,0.0227045249194,-0.00714179614935
1576079379137485632,-0.796678006649,0.0228002239019,-0.0105113586012
1576079379161404140,-0.796317219734,0.0227176249027,-0.0056203170525
1576079379177547040,-0.795983970165,0.0227994136512,-0.00654696246166
1576079379197570680,-0.795542418957,0.0229643303901,-0.00774009200593
1576079379217794146,-0.795138180256,0.0228256490082,-0.00604463426075
1576079379242121322,-0.794670879841,0.0228787623346,-0.00559010561188
1576079379257357037,-0.794247686863,0.0228817537427,-0.00497647367935
1576079379277570308,-0.793936192989,0.0229472406209,-0.00663669998036
1576079379297924954,-0.793536186218,0.0229416936636,-0.00619561209601
1576079379317315739,-0.792985200882,0.0229530185461,-0.00775474825356
1576079379337347486,-0.792546451092,0.0228773318231,-0.00747570365216
1576079379357796291,-0.791945338249,0.0228265076876,-0.00769884740574
1576079379377259930,-0.791453480721,0.0228305533528,-0.00911079285622
1576079379397497468,-0.791372358799,0.0231277011335,-0.01453914283
1576079379417371724,-0.790965557098,0.0231897160411,-0.00917058683029
1576079379437388520,-0.790727496147,0.0232980344445,-0.0119388190507
1576079379457758168,-0.790240526199,0.0231772959232,-0.0118631777235
1576079379477789126,-0.789843082428,0.0231176540256,-0.0138237147649
1576079379497432999,-0.789406061172,0.0230553913862,-0.0126468803077
1576079379517319796,-0.788718104362,0.0230667758733,-0.0120741967401
1576079379537510087,-0.787999629974,0.0228798966855,-0.0115524074052
1576079379557480118,-0.787248194218,0.0227842610329,-0.0121572658992
1576079379578177311,-0.786546826363,0.0230050906539,-0.0134393484584
1576079379597863497,-0.785943210125,0.0229493975639,-0.0100598348046
1576079379617404228,-0.785382568836,0.0230754557997,-0.0112848024029
1576079379637627937,-0.784716010094,0.0230848286301,-0.0094019835631
1576079379657320567,-0.784157812595,0.0230271480978,-0.00895784486781
1576079379677452635,-0.783603727818,0.0228868480772,-0.0106322996948
1576079379697315167,-0.78293043375,0.0228227544576,-0.00857304765595
1576079379717632084,-0.782177209854,0.0228414945304,-0.00796399608501
1576079379739226020,-0.781439363956,0.0230047740042,-0.00788663309905
1576079379757326938,-0.780523359776,0.0231231972575,-0.0102668545108
1576079379777576179,-0.779607832432,0.0230345558375,-0.0120554279298
1576079379797437201,-0.778706789017,0.0228921566159,-0.0145203261945
1576079379817177776,-0.77756267786,0.0228885412216,-0.0118103552792
1576079379837163722,-0.776275873184,0.0229921061546,-0.0126196703941
1576079379857254674,-0.774988412857,0.0229268353432,-0.0114859661626
1576079379877308747,-0.773834049702,0.0231773089617,-0.0155261229388
1576079379898597852,-0.772841334343,0.023499801755,-0.0127398960562
1576079379917453197,-0.771833300591,0.0230940058827,-0.012680447242
1576079379937188365,-0.771281898022,0.0231959205121,-0.0184522120289
1576079379957320328,-0.770163297653,0.0231446921825,-0.0140592163099
1576079379977385981,-0.769175112247,0.0230205785483,-0.0120061481088
1576079379997301526,-0.767912268639,0.0227651819587,-0.0135792621663
1576079380017811776,-0.766948401928,0.0231021530926,-0.0194225543995
1576079380037321282,-0.765456438065,0.023039130494,-0.0195404199072
1576079380057284779,-0.764003574848,0.0229755174369,-0.0174575380367
1576079380077579122,-0.762681007385,0.0230662506074,-0.0184339468657
1576079380097553405,-0.76112061739,0.0230852290988,-0.0159958178342
1576079380117662935,-0.759432673454,0.0229793339968,-0.0175061465463
1576079380137484019,-0.757714867592,0.0228298865259,-0.0187188520659
1576079380157398969,-0.755836427212,0.0230520498008,-0.0116470271568
1576079380177317778,-0.754000246525,0.0231379903853,-0.00838327610977
1576079380197591469,-0.752606809139,0.0233176872134,-0.0110337209664
1576079380220127531,-0.751325726509,0.0232042539865,-0.0138084397913
1576079380241811833,-0.749764442444,0.0229777507484,-0.0153009649579
1576079380257309206,-0.74823564291,0.0230542290956,-0.0149309955809
1576079380277301642,-0.746783018112,0.0230692028999,-0.018553792548
1576079380297407337,-0.744947254658,0.0228230915964,-0.0187114639624
1576079380317404117,-0.743047654629,0.0228985212743,-0.0121206299304
1576079380337729152,-0.741235554218,0.0230993423611,-0.00536981336462
1576079380357545974,-0.739763796329,0.0232560429722,-0.00712930869781
1576079380377345422,-0.737749755383,0.023075921461,-0.00900937334055
1576079380397663402,-0.735820889473,0.0230557769537,-0.0139807335532
1576079380418079571,-0.733948111534,0.0230786558241,-0.0151492264143
1576079380437427788,-0.732188880444,0.0233754105866,-0.00997512691547
1576079380457539508,-0.730270862579,0.0231988038868,-0.0127453290325
1576079380477250030,-0.728310823441,0.0230839513242,-0.0198135890922
1576079380497712885,-0.726391255856,0.0230556521565,-0.017197875487
1576079380517604118,-0.724431872368,0.0231845322996,-0.0186048967634
1576079380537690429,-0.722260713577,0.0232186727226,-0.0144601607931
1576079380557645441,-0.720562338829,0.0232766438276,-0.0126204561461
1576079380578336799,-0.718815803528,0.0231173392385,-0.0145409919507
1576079380597303381,-0.716717720032,0.0231341719627,-0.0206254001245
1576079380617226182,-0.714810967445,0.0232979599386,-0.0196739656827
1576079380642814389,-0.713005423546,0.0232295393944,-0.0215167963648
1576079380657459455,-0.711071431637,0.0230934359133,-0.0205253076589
1576079380678003271,-0.709001779556,0.023185255006,-0.00334319175251
1576079380697406966,-0.707194209099,0.0231251511723,-0.0011505931581
1576079380717285716,-0.705491364002,0.0232585854828,-0.0124063435999
1576079380737426651,-0.70329028368,0.0230359584093,-0.0191107936842
1576079380757438716,-0.701280415058,0.0231181699783,-0.0173278904375
1576079380777510892,-0.699601888657,0.0232543610036,-0.0280569872799
1576079380797477727,-0.697499454021,0.0231938827783,-0.022481719163
1576079380817235875,-0.695514082909,0.0230870079249,-0.0157256610807
1576079380837766948,-0.693572282791,0.0230456423014,-0.0203452765644
1576079380861506250,-0.691096961498,0.0229829251766,-0.0183001610129
1576079380877274550,-0.689013123512,0.0230650361627,-0.0184139691744
1576079380897490640,-0.686932742596,0.0232354849577,-0.0194101649719
1576079380917424440,-0.684685349464,0.0230702552944,-0.0190435864366
1576079380937304952,-0.681976914406,0.023120386526,-0.0195486428907
1576079380957452703,-0.679662525654,0.0232305563986,-0.014678596281
1576079380977252279,-0.67791312933,0.0231043174863,-0.0136705625533
1576079380997367178,-0.675716996193,0.0231886841357,-0.0153849177115
1576079381017177252,-0.673700988293,0.0231966804713,-0.0183832193031
1576079381040417368,-0.671566188335,0.0231085401028,-0.0184949788331
1576079381057122296,-0.669206798077,0.0230425260961,-0.0195495957286
1576079381078500616,-0.667051136494,0.0232948996127,-0.0202463397851
1576079381098821581,-0.664645731449,0.0230960529298,-0.0207474606532
1576079381117400884,-0.663714885712,0.0234300345182,-0.0154323951335
1576079381137234318,-0.664212346077,0.0234978757799,-0.0220923888366
1576079381157517018,-0.664337515831,0.0230708178133,-0.0180212630104
1576079381177938966,-0.664134144783,0.0231283884495,-0.0144199569413
1576079381197274435,-0.663923919201,0.0232290904969,-0.0154849851719
1576079381217409984,-0.663520216942,0.0232168063521,-0.0185518854168
1576079381237406540,-0.662911713123,0.0231435149908,-0.0169717268924
1576079381257389889,-0.662507593632,0.0231316573918,-0.016054440224
1576079381277717153,-0.661740124226,0.0232387892902,-0.0148014504153
1576079381297419814,-0.660887539387,0.0234541278332,-0.0181572270333
1576079381317897161,-0.659749269485,0.0232968702912,-0.0170441957995
1576079381337589276,-0.658524930477,0.0230612438172,-0.0138568947642
1576079381357411776,-0.657392382622,0.0230681784451,-0.00721016530056
1576079381377288557,-0.656344771385,0.023531164974,-0.0138537328652
1576079381397463189,-0.65520888567,0.0235962066799,-0.0115208951648
1576079381417535033,-0.65439748764,0.0230364575982,-0.0144635369836
1576079381437706538,-0.653096020222,0.0229603443295,-0.0133834983418
1576079381457400590,-0.65190076828,0.0233410280198,-0.0182895400707
1576079381477544581,-0.65076893568,0.023367267102,-0.0165795942361
1576079381497451641,-0.649135529995,0.0230016987771,-0.0123234671909
1576079381517452612,-0.647487640381,0.0228510610759,-0.00935759255589
1576079381537833058,-0.645546674728,0.0229557268322,-0.0120995272899
1576079381557501162,-0.643875598907,0.0229306016117,-0.0115451886452
1576079381579103424,-0.641806125641,0.0229017529637,-0.0120229153489
1576079381597529083,-0.639382183552,0.0230858419091,-0.0150845131686
1576079381617832849,-0.636972486973,0.0229012705386,-0.00659787563281
1576079381649939862,-0.634606301785,0.0229596551508,-0.00785292383112
1576079381657344119,-0.632062554359,0.0228267330676,-0.0103701311209
1576079381678444265,-0.629238903522,0.0225677769631,-0.00908830126949
1576079381698177552,-0.626758158207,0.0226377230138,-0.0113738255855
1576079381717349328,-0.624183654785,0.0231693014503,-0.0125813019374
1576079381749305951,-0.62200397253,0.0230186935514,-0.0212267446413
1576079381757379302,-0.619498610497,0.0224275495857,-0.016864606045
1576079381777284760,-0.616943955421,0.0223862193525,-0.00895410317835
1576079381797545834,-0.614234209061,0.0229400359094,-0.0136968526277
1576079381817364826,-0.611653327942,0.0230369549245,-0.0157987417757
1576079381843879057,-0.608673214912,0.0229030754417,-0.0179379184199
1576079381858602571,-0.605713188648,0.0227547790855,-0.0105051646268
1576079381877415961,-0.60291737318,0.0226636882871,-0.0110206202547
1576079381897285251,-0.599991440773,0.0228852611035,-0.0155593646473
1576079381917305979,-0.596898436546,0.0227302499115,-0.0197841847009
1576079381937553919,-0.593620836735,0.0225330516696,-0.0202164484922
1576079381957619987,-0.590401887894,0.0225589461625,-0.0180678544308
1576079381977270112,-0.586644053459,0.0230755880475,-0.0089888469399
1576079381997735004,-0.58315128088,0.0229789614677,-0.0104386785158
1576079382017364710,-0.580171763897,0.0223749279976,-0.0145156627664
1576079382037279754,-0.576003968716,0.0228348225355,-0.00706210710586
1576079382057304396,-0.572483181953,0.0229630470276,-0.00686751451152
1576079382077311828,-0.568810462952,0.0230700131506,-0.00688144094836
1576079382097431140,-0.564972341061,0.0226999204606,-0.00554570088175
1576079382117249842,-0.561182796955,0.022727875039,-0.000398580615295
1576079382141076205,-0.557191848755,0.0228213630617,-0.0108166149688
1576079382158025749,-0.553538143635,0.0230399761349,-0.0120932484222
1576079382177744037,-0.549591004848,0.022800873965,-0.00442328534027
1576079382197498458,-0.545598268509,0.0225250609219,-0.0152210407974
1576079382217447217,-0.54170101881,0.022846294567,-0.0122989855485
1576079382238470816,-0.537978172302,0.0225206781179,-0.00629602825827
1576079382257541795,-0.534442305565,0.022778628394,-0.0181448293323
1576079382277698623,-0.53156375885,0.0229138080031,-0.0073379187085
1576079382297653546,-0.528108716011,0.0224928986281,-0.0101455478982
1576079382317412378,-0.524631142616,0.0228086579591,0.00598567018905
1576079382338020959,-0.5220246315,0.0230164248496,-0.0173606674972
1576079382357453748,-0.518076956272,0.0226728990674,-0.027447212918
1576079382378860950,-0.515346169472,0.0224957130849,-0.020321735095
1576079382398044345,-0.512440085411,0.0226357392967,0.0407274420973
1576079382417798938,-0.509425878525,0.0227581560612,0.0790989505924
1576079382437769149,-0.506086230278,0.0226425807923,-0.144284427461
1576079382458469931,-0.503284275532,0.0224816501141,-2.27724563845
1576079382477468378,-0.50018876791,0.0220684669912,-3.13332230236
1576079382497797793,-0.497727394104,0.0228023026139,-3.05153688469
1576079382518033647,-0.495271384716,0.0226876698434,3.13550697322
1576079382537990636,-0.493261873722,0.0224155467004,-3.13063065145
1576079382557330980,-0.49103680253,0.0225395150483,-3.11700624722
1576079382578604177,-0.489418208599,0.0223986022174,-3.09640839849
1576079382597233230,-0.487340152264,0.0224899481982,-3.09970361665
1576079382617326382,-0.485553920269,0.0220440998673,-3.12877361803
1576079382637507690,-0.483995199203,0.0222030878067,-3.13936300557
1576079382657509226,-0.482320100069,0.0224931742996,-3.12797465267
1576079382677561197,-0.480823099613,0.0222961194813,-3.12983070263
1576079382697373622,-0.47942429781,0.0224182717502,-3.1201628107
1576079382718284007,-0.477863401175,0.0222385767847,-3.11536041221
1576079382738694422,-0.476912409067,0.0219888221473,-3.13401407991
1576079382757743772,-0.475613772869,0.0222417116165,-3.14083072901
1576079382780130547,-0.474508821964,0.0222868323326,3.13903646887
1576079382798821809,-0.473595410585,0.0219084527344,3.124906898
1576079382817430656,-0.472744375467,0.021880691871,3.12616973533
1576079382837693987,-0.471709251404,0.0218938868493,3.13697011141
1576079382857588535,-0.471211522818,0.0218013003469,3.13381938618
1576079382877631878,-0.470137625933,0.0220808088779,-3.13633217806
1576079382897326269,-0.469870656729,0.0218719001859,3.13891443192
1576079382917583477,-0.469306439161,0.0218673031777,-3.14142764227
1576079382937337662,-0.468847483397,0.0217514783144,3.13378347293
1576079382959223780,-0.468453288078,0.0216985195875,3.13227940648
1576079382977623793,-0.468248873949,0.0220275614411,3.13424104164
1576079382997416014,-0.467558860779,0.0221842508763,3.14154361142
1576079383017352009,-0.467492341995,0.0218008626252,3.13911132166
1576079383037415965,-0.46735137701,0.0217881109565,3.138501469
1576079383057559690,-0.467233985662,0.022195385769,-3.13066088839
1576079383077272214,-0.467412382364,0.0220198798925,-3.13830398961
1576079383097614810,-0.467351615429,0.0222302619368,-3.1343615319
1576079383117955414,-0.467303067446,0.0220465939492,3.13856182363
1576079383137512904,-0.466992527246,0.0221683494747,3.1410874171
1576079383157336437,-0.467251956463,0.0221074614674,3.14150111429
1576079383177429327,-0.467446118593,0.0221728328615,-3.13617694386
1576079383197535454,-0.467474579811,0.0221579987556,-3.13201903959
1576079383217323126,-0.467449426651,0.0222319047898,-3.12205914453
1576079383237314628,-0.46797940135,0.0222749151289,-3.12437511175
1576079383258187847,-0.46820473671,0.0218383464962,-3.13740470823
1576079383277307706,-0.468577742577,0.0219867620617,-3.13790208856
1576079383310540594,-0.4687730968,0.0219873264432,-3.14029613477
1576079383317544679,-0.468856871128,0.0219666808844,3.13915398471
1576079383342715477,-0.469350427389,0.0218428540975,3.13381767277
1576079383357689181,-0.469664722681,0.0217709206045,3.13651086591
1576079383377394446,-0.470175474882,0.0220160316676,-3.13994692954
1576079383397371628,-0.470311522484,0.0217449124902,3.13862178106
1576079383417614817,-0.470805436373,0.0217590853572,3.13675136925
1576079383440271245,-0.471134364605,0.021736100316,3.13959806027
1576079383457882027,-0.471198379993,0.0218767281622,3.14139850604
1576079383477545176,-0.471730113029,0.0218461193144,3.13640478392
1576079383497815694,-0.472228646278,0.0217566955835,3.13442404729
1576079383517456826,-0.472465574741,0.0218938961625,-3.13969373443
1576079383542870505,-0.473018109798,0.0218770354986,-3.13883404195
1576079383559483999,-0.473619431257,0.0220001358539,3.13971190333
1576079383578352344,-0.474396258593,0.0220893342048,3.13490748043
1576079383598551538,-0.47494584322,0.0220045652241,-3.13833732013
1576079383618263324,-0.475424259901,0.0222811046988,-3.1259841721
1576079383637795659,-0.476146131754,0.0221891738474,-3.13019112103
1576079383657751172,-0.476702302694,0.0223671235144,-3.12118807211
1576079383677592564,-0.477072328329,0.0222172364593,-3.1249684294
1576079383697651231,-0.478097200394,0.0219672787935,-3.13860214951
1576079383719581557,-0.47854039073,0.0224213693291,-3.11867616279
1576079383737801590,-0.479591608047,0.0220373328775,-3.13764418851
1576079383758593420,-0.480173557997,0.0221017245203,-3.13718436717
1576079383777438087,-0.481131732464,0.0220693051815,3.13816826184
1576079383797456149,-0.481773555279,0.0222367551178,-3.13689623323
1576079383817515868,-0.482752621174,0.0221089255065,3.14157478716
1576079383838185042,-0.48338201642,0.0222962610424,-3.13470183143
1576079383857550887,-0.484161645174,0.0222094506025,-3.13263224255
1576079383877386518,-0.484935939312,0.0222989898175,-3.13384145058
1576079383897562666,-0.485742866993,0.0223137494177,-3.13234615831
1576079383917304035,-0.486920982599,0.0223391484469,-3.12795529071
1576079383937259703,-0.487992733717,0.0224544461817,-3.11450103863
1576079383957402799,-0.488968878984,0.0224384199828,-3.11217266779
1576079383977351623,-0.489982366562,0.0223246179521,-3.13311173733
1576079383997251203,-0.490895301104,0.022384531796,-3.13310181287
1576079384017328829,-0.491984307766,0.0224645528942,-3.12345450837
1576079384037580802,-0.49335488677,0.0222655776888,-3.11324629531
1576079384057585808,-0.494473308325,0.0223411098123,-3.09906515292
1576079384077632256,-0.4955303967,0.0222185514867,-3.10888459182
1576079384097718824,-0.496377170086,0.0226007290184,-3.04800769141
1576079384117817411,-0.497707813978,0.0222351495177,-3.06868920161
1576079384137489624,-0.499015331268,0.0222950372845,-3.07532546582
1576079384157618329,-0.500194251537,0.0223660264164,-3.10204082737
1576079384177878027,-0.501375198364,0.0222755577415,-3.10821232201
1576079384197923251,-0.502746701241,0.0224404651672,-3.06275249403
1576079384217630682,-0.503671526909,0.0222262553871,-3.10555006749
1576079384238099898,-0.505720555782,0.0225294679403,-2.96460302981
1576079384258546059,-0.507229924202,0.0223197657615,3.12786093847
1576079384277467394,-0.508563816547,0.022268421948,0.339980129253
1576079384297675902,-0.509926080704,0.0223954040557,0.00231180776597
1576079384317445546,-0.511831700802,0.0224469508976,0.0395995220996
1576079384337492640,-0.513593673706,0.0225456021726,0.0575791864022
1576079384357695931,-0.515469789505,0.0227104090154,0.0569641864815
1576079384378361747,-0.516930699348,0.0226190648973,0.0201277512799
1576079384399107061,-0.518782317638,0.0226168595254,-0.00844458878169
1576079384417844738,-0.520666360855,0.022413643077,-7.33577814728e-05
1576079384437521664,-0.52314645052,0.0226578805596,0.00460215916721
1576079384457542350,-0.524815678596,0.0226526632905,-0.0176887303416
1576079384477503071,-0.52705937624,0.0226543843746,-0.027689836435
1576079384497506731,-0.52827835083,0.022592600435,0.0117676459956
1576079384517513456,-0.530364871025,0.0227303430438,0.00521033170729
1576079384537442719,-0.532652497292,0.0228137169033,0.00242672467647
1576079384557575239,-0.53441286087,0.022813713178,-0.00154927585238
1576079384578283488,-0.535908102989,0.0227159708738,0.00137096272902
1576079384598014850,-0.537958443165,0.022692354396,0.00729573409634
1576079384617497884,-0.540008366108,0.022846179083,-0.00887529308515
1576079384637559981,-0.541568040848,0.0226738452911,-0.00403087982255
1576079384657233255,-0.54363656044,0.0226922575384,-0.00841211470001
1576079384677539969,-0.545746803284,0.0228668414056,0.00405136627783
1576079384697245047,-0.547881245613,0.0228374879807,0.0008151193068
1576079384717609806,-0.549649953842,0.0230133980513,-0.0153364271734
1576079384737401321,-0.551803290844,0.023125205189,-0.0148636907856
1576079384757822317,-0.553918242455,0.0229268092662,-0.00138528781183
1576079384777186825,-0.555876493454,0.0232961121947,-0.0101139193594
1576079384797395888,-0.557799935341,0.0231740996242,-0.00631681802706
1576079384817964670,-0.559847176075,0.0229634679854,-0.00289227638126
1576079384837449450,-0.561897039413,0.0231310911477,-0.00567623642333
1576079384857425793,-0.563837945461,0.0233049597591,-0.00701125017825
1576079384877467516,-0.565654397011,0.0231468528509,0.00141545136052
1576079384897315257,-0.567228555679,0.0231646560133,0.00016454497166
1576079384917174147,-0.568964362144,0.0233548525721,0.00016148827369
1576079384937300002,-0.570475816727,0.0232387892902,6.86527303564e-05
1576079384958150538,-0.571962893009,0.0234815720469,-0.00430782879069
1576079384977329519,-0.573600113392,0.0234371498227,-0.00413702523802
1576079384997622532,-0.57516169548,0.0232142731547,-0.00291132308701
1576079385017265725,-0.576893687248,0.0229520648718,-0.013170616012
1576079385037815133,-0.577979385853,0.023281538859,-0.00709907454598
1576079385057437243,-0.579345405102,0.0229937955737,-0.0147342874245
1576079385077420413,-0.580046057701,0.0232157092541,-0.00654157736242
1576079385097355924,-0.581496655941,0.0232138093561,-0.0103316211783
1576079385117774502,-0.582749724388,0.02328370139,-0.0153785906337
1576079385137447310,-0.583644032478,0.023103652522,-0.0165946503222
1576079385157174812,-0.584835648537,0.0233428366482,-0.0110591298492
1576079385177430891,-0.586143434048,0.0229293610901,-0.0126893148171
1576079385197273518,-0.587564647198,0.023046001792,-0.0112914792801
1576079385217571978,-0.589063942432,0.0231544431299,-0.0115289085394
1576079385237345363,-0.590428709984,0.0230999626219,-0.00951581889333
1576079385257396882,-0.592054009438,0.0231527816504,-0.0109684301586
1576079385277691614,-0.59346139431,0.0233391579241,-0.0146810853766
1576079385297457721,-0.594898164272,0.0232245326042,-0.00999270014658
1576079385317318773,-0.596623659134,0.0234055425972,-0.0123907542082
1576079385339370057,-0.598141789436,0.0233763922006,-0.00970269400153
1576079385357878742,-0.600123941898,0.0232229400426,-0.0122263631261
1576079385377437761,-0.601764559746,0.0232552327216,-0.0060752142421
1576079385397983687,-0.603714466095,0.0232109148055,-0.00562537862468
1576079385417505233,-0.605741143227,0.0233601517975,-0.00995843274153
1576079385437253157,-0.607868552208,0.0232743062079,-0.0089106951791
1576079385458179265,-0.61022400856,0.0232940502465,-0.00877502014971
1576079385477459282,-0.612677335739,0.0233038254082,-0.00984930909925
1576079385497277228,-0.615370750427,0.023595534265,-0.00503615603897
1576079385517332107,-0.617956161499,0.0235313232988,-0.00317513244405
1576079385537728660,-0.620683789253,0.0233200024813,-0.00833780254919
1576079385558173700,-0.623586177826,0.0232377778739,-0.00995550456225
1576079385578302630,-0.626708090305,0.0232429932803,-0.0123213507587
1576079385597176512,-0.630029976368,0.0234398916364,-0.0119960952747
1576079385617143654,-0.632994115353,0.0234215352684,-0.00244019359187
1576079385637068148,-0.636348366737,0.0235052462667,-0.00326137797676
1576079385657426557,-0.639943242073,0.023304482922,-0.012009830301
1576079385677089103,-0.643189847469,0.0231698378921,-0.00832251031965
1576079385697388689,-0.646798312664,0.0234393514693,-0.00225741536963
1576079385717700659,-0.650775432587,0.0234045181423,-0.00755712189344
1576079385741917360,-0.65484303236,0.023156022653,-0.00805790255269
1576079385757108576,-0.658900916576,0.0232131388038,-0.013259838808
1576079385777725278,-0.663024902344,0.0234774854034,-0.0146726106989
1576079385797301606,-0.667365670204,0.0231492966413,-0.0153744461034
1576079385817292417,-0.671568751335,0.0232466720045,-0.0120480768756
1576079385837559817,-0.675877869129,0.0233344975859,-0.00591123413697
1576079385857306132,-0.680475354195,0.0233369786292,-0.00806456174714
1576079385877356220,-0.685042440891,0.0235203318298,-0.0215881271681
