rosbagTimestamp,header,seq,stamp,secs,nsecs,frame_id,pose,position,x,y,z,orientation,x,y,z,w
1576079368298109350,,56446,,1576079368,297955892,"""world""",,,-1.00874638557,0.0209421813488,1.18524289131,,-0.0072643677704,0.0112997628748,0.0087613472715,-0.999871492386
1576079368317735437,,56447,,1576079368,317638127,"""world""",,,-1.00876379013,0.0209317114204,1.18525052071,,-0.00712060229853,0.0116364825517,0.00889398902655,-0.99986743927
1576079368337769950,,56448,,1576079368,337687126,"""world""",,,-1.00880002975,0.0209305677563,1.18524134159,,-0.00711089558899,0.0115604298189,0.00868326984346,-0.999870181084
1576079368357698842,,56449,,1576079368,357606618,"""world""",,,-1.00876104832,0.0209269169718,1.18524456024,,-0.00711646256968,0.0115613127127,0.00885199289769,-0.999868750572
1576079368377763512,,56450,,1576079368,377667450,"""world""",,,-1.00884497166,0.0209480207413,1.18522441387,,-0.00708217220381,0.0116092674434,0.00880214571953,-0.999868810177
1576079368397845783,,56451,,1576079368,397741944,"""world""",,,-1.00880813599,0.0209292136133,1.1852465868,,-0.00702712219208,0.0119424741715,0.00891023222357,-0.999864339828
1576079368417644092,,56452,,1576079368,417560266,"""world""",,,-1.00880289078,0.0209379717708,1.1852439642,,-0.0070468140766,0.0119522614405,0.00882177054882,-0.999864816666
1576079368437593881,,56453,,1576079368,437506153,"""world""",,,-1.0087608099,0.0209250673652,1.18524956703,,-0.00703609827906,0.0115794772282,0.00895014498383,-0.999868154526
1576079368457550750,,56454,,1576079368,457463206,"""world""",,,-1.00877678394,0.0209502093494,1.18525540829,,-0.00698387948796,0.0119082825258,0.00901540275663,-0.99986410141
1576079368477556750,,56455,,1576079368,477481004,"""world""",,,-1.00877332687,0.0209321379662,1.18526339531,,-0.00697859982029,0.0119140045717,0.00881655886769,-0.999865829945
1576079368497742961,,56456,,1576079368,497629510,"""world""",,,-1.00881254673,0.0209640357643,1.18523716927,,-0.00717569235712,0.0116038704291,0.00902177207172,-0.999866306782
1576079368518003844,,56457,,1576079368,517922954,"""world""",,,-1.00883960724,0.0209401957691,1.18523144722,,-0.0070535261184,0.0116509199142,0.00875889789313,-0.999868929386
1576079368538003633,,56458,,1576079368,537670717,"""world""",,,-1.00881206989,0.0209293942899,1.18524873257,,-0.00701276212931,0.0119876116514,0.0088971266523,-0.999864041805
1576079368557940725,,56459,,1576079368,557829281,"""world""",,,-1.00872349739,0.0209177304059,1.18527293205,,-0.00699440808967,0.0115778641775,0.008843626827,-0.999869406223
1576079368578211753,,56460,,1576079368,578133167,"""world""",,,-1.00874114037,0.0209246370941,1.1852492094,,-0.00717287883162,0.0112591655925,0.00887136068195,-0.999871551991
1576079368597695853,,56461,,1576079368,597607550,"""world""",,,-1.00880384445,0.020926527679,1.1852492094,,-0.00704001821578,0.011929477565,0.00886244792491,-0.999864816666
1576079368617794263,,56462,,1576079368,617715169,"""world""",,,-1.0088135004,0.0209515001625,1.18523740768,,-0.00710405595601,0.0115496004,0.00903600640595,-0.999867260456
1576079368637854395,,56463,,1576079368,637775456,"""world""",,,-1.00879979134,0.0209349561483,1.18524646759,,-0.0071155722253,0.0115366326645,0.00877784751356,-0.999869585037
1576079368657582455,,56464,,1576079368,657502669,"""world""",,,-1.00879371166,0.0209348779172,1.18523967266,,-0.00713430065662,0.0112879555672,0.008753974922,-0.999872565269
1576079368677667577,,56465,,1576079368,677573122,"""world""",,,-1.0087647438,0.0209222193807,1.18527340889,,-0.00697309244424,0.0118861990049,0.00877358485013,-0.9998665452
1576079368698923634,,56466,,1576079368,698840869,"""world""",,,-1.00879776478,0.0209314543754,1.18525290489,,-0.00703240931034,0.0119056291878,0.00875557214022,-0.999866068363
1576079368717674454,,56467,,1576079368,717568057,"""world""",,,-1.00883972645,0.0209345147014,1.18523526192,,-0.00716904876754,0.0116023244336,0.00869227293879,-0.999869287014
1576079368737783474,,56468,,1576079368,737701382,"""world""",,,-1.00875878334,0.0209180470556,1.18526637554,,-0.0069889803417,0.011869808659,0.00883803516626,-0.999866127968
1576079368757568709,,56469,,1576079368,757480532,"""world""",,,-1.00877714157,0.0209439061582,1.18525588512,,-0.00703802658245,0.0118218297139,0.00900273770094,-0.99986487627
1576079368778345776,,56470,,1576079368,778258454,"""world""",,,-1.00882208347,0.020921304822,1.18523597717,,-0.00722227431834,0.0115816602483,0.00848956778646,-0.999870836735
1576079368797713321,,56471,,1576079368,797620864,"""world""",,,-1.00874722004,0.0209177043289,1.18525934219,,-0.00702133541927,0.0118949459866,0.00881875772029,-0.99986577034
1576079368818037819,,56472,,1576079368,817949347,"""world""",,,-1.00883340836,0.0209385622293,1.18522512913,,-0.00702683441341,0.0116412360221,0.00870445650071,-0.999869704247
1576079368837611514,,56473,,1576079368,837514742,"""world""",,,-1.00876200199,0.0209492798895,1.18523573875,,-0.00720696570352,0.0112700592726,0.00894433073699,-0.999870538712
1576079368857596489,,56474,,1576079368,857506609,"""world""",,,-1.00875604153,0.0209203604609,1.18525636196,,-0.00705883093178,0.0118075581267,0.00878029223531,-0.999866902828
1576079368877832715,,56475,,1576079368,877750175,"""world""",,,-1.00874829292,0.02092060633,1.18526375294,,-0.00694653345272,0.0118662780151,0.00874610524625,-0.999867260456
1576079368897639433,,56476,,1576079368,897558235,"""world""",,,-1.0087968111,0.0209327805787,1.18523693085,,-0.00707771768793,0.0115744248033,0.00867431238294,-0.999870359898
1576079368917987564,,56477,,1576079368,917906095,"""world""",,,-1.00876820087,0.0209293421358,1.18526172638,,-0.0070300521329,0.0117973145097,0.00874508731067,-0.99986743927
1576079368937967459,,56478,,1576079368,937878926,"""world""",,,-1.00878715515,0.0209342725575,1.18524718285,,-0.00709380256012,0.0115694859996,0.00864289794117,-0.999870657921
1576079368957592876,,56479,,1576079368,957511154,"""world""",,,-1.00878787041,0.0209426749498,1.18523347378,,-0.00720522971824,0.0115050524473,0.00868411175907,-0.999870181084
1576079368978060511,,56480,,1576079368,977981233,"""world""",,,-1.0087338686,0.0209465343505,1.18525576591,,-0.00696260249242,0.0115731973201,0.00900046527386,-0.999868273735
1576079368997858992,,56481,,1576079368,997772203,"""world""",,,-1.00877296925,0.020938994363,1.18525767326,,-0.00702016148716,0.0119424145669,0.00893949717283,-0.999864161015
1576079369017676449,,56482,,1576079369,17568138,"""world""",,,-1.00879526138,0.0209308471531,1.18525254726,,-0.00706268660724,0.0115796979517,0.00870595499873,-0.999870181084
1576079369037764458,,56483,,1576079369,37645413,"""world""",,,-1.00881052017,0.0209309384227,1.18524992466,,-0.00698233535513,0.0119446516037,0.00891958363354,-0.999864578247
1576079369058393570,,56484,,1576079369,58308301,"""world""",,,-1.00879836082,0.020927503705,1.18524897099,,-0.00700625032187,0.0119984010234,0.0088052591309,-0.999864757061
1576079369077842426,,56485,,1576079369,77761842,"""world""",,,-1.0087608099,0.0209269300103,1.18526363373,,-0.00701573584229,0.0118360854685,0.00869974959642,-0.999867498875
1576079369097740993,,56486,,1576079369,97629235,"""world""",,,-1.00883448124,0.0209439042956,1.18522810936,,-0.00709701888263,0.0115780411288,0.00882245693356,-0.999868869781
1576079369118207524,,56487,,1576079369,118090733,"""world""",,,-1.00881552696,0.0209394693375,1.1852517128,,-0.007092456799,0.0118694920093,0.00884819868952,-0.999865293503
1576079369137937332,,56488,,1576079369,137773950,"""world""",,,-1.00878632069,0.020937608555,1.18524801731,,-0.00705319270492,0.0115745477378,0.00873539503664,-0.99987000227
1576079369158111228,,56489,,1576079369,157945064,"""world""",,,-1.00877523422,0.0209455788136,1.18526744843,,-0.00710795959458,0.0118696661666,0.00882485881448,-0.999865412712
1576079369177613644,,56490,,1576079369,177524792,"""world""",,,-1.00879263878,0.0209442675114,1.18524539471,,-0.00712112011388,0.0115425018594,0.00874601211399,-0.999869763851
1576079369197756308,,56491,,1576079369,197612701,"""world""",,,-1.00883412361,0.020949697122,1.18522930145,,-0.00712279044092,0.0115436455235,0.00879555009305,-0.999869406223
1576079369218159719,,56492,,1576079369,217727454,"""world""",,,-1.0087915659,0.0209400318563,1.18525075912,,-0.00708788307384,0.0114716980606,0.00869314558804,-0.999871313572
1576079369237613254,,56493,,1576079369,237481465,"""world""",,,-1.00880694389,0.0209324415773,1.18524932861,,-0.00699609471485,0.011920645833,0.00886698160321,-0.999865174294
1576079369257781798,,56494,,1576079369,257675224,"""world""",,,-1.00876045227,0.020918590948,1.1852504015,,-0.00709262909368,0.0116453999653,0.00896874815226,-0.999866843224
1576079369278817893,,56495,,1576079369,278717726,"""world""",,,-1.00880241394,0.0209376420826,1.18524980545,,-0.00699897576123,0.0119472900406,0.00882624834776,-0.999865233898
1576079369297722828,,56496,,1576079369,297635856,"""world""",,,-1.00877583027,0.0209462307394,1.18525230885,,-0.00705354101956,0.0118406806141,0.00904227234423,-0.999864161015
1576079369317798347,,56497,,1576079369,317673915,"""world""",,,-1.00875902176,0.0209352001548,1.18525254726,,-0.00702713616192,0.011838442646,0.0087770614773,-0.999866783619
1576079369338009101,,56498,,1576079369,337929058,"""world""",,,-1.0087569952,0.0209269914776,1.18525576591,,-0.00699727330357,0.0118517894298,0.0088363783434,-0.999866247177
1576079369357865277,,56499,,1576079369,357782374,"""world""",,,-1.00881159306,0.0209294203669,1.18524539471,,-0.00702771311626,0.0119403684512,0.00891055259854,-0.999864339828
1576079369377853213,,56500,,1576079369,377764738,"""world""",,,-1.00884473324,0.0209423974156,1.18522834778,,-0.00705243647099,0.0116149354726,0.00880483817309,-0.999868988991
1576079369397571363,,56501,,1576079369,397487566,"""world""",,,-1.00876891613,0.0209296680987,1.18525993824,,-0.00687161693349,0.0118850190192,0.00880992226303,-0.999867022038
1576079369417638510,,56502,,1576079369,417549614,"""world""",,,-1.00883173943,0.0209371242672,1.18522882462,,-0.00707719754428,0.0116330105811,0.00888105574995,-0.999867916107
1576079369437553454,,56503,,1576079369,437460734,"""world""",,,-1.0088031292,0.0209438558668,1.18525004387,,-0.00710515957326,0.0119254868478,0.00881690625101,-0.999864816666
1576079369457800217,,56504,,1576079369,457721748,"""world""",,,-1.00880646706,0.0209517609328,1.18524348736,,-0.00715293502435,0.0115817049518,0.00904915388674,-0.999866485596
1576079369477552951,,56505,,1576079369,477446773,"""world""",,,-1.00875461102,0.0209244228899,1.18526852131,,-0.00696008559316,0.0119312275201,0.00891857594252,-0.99986487627
1576079369497614380,,56506,,1576079369,497524967,"""world""",,,-1.00876307487,0.0209264289588,1.18525981903,,-0.00697925966233,0.0118644256145,0.0087843183428,-0.999866724014
1576079369517755912,,56507,,1576079369,517636179,"""world""",,,-1.00879240036,0.0209327396005,1.18524086475,,-0.00705426000059,0.0115819666535,0.00883246678859,-0.999869048595
1576079369537563963,,56508,,1576079369,537488659,"""world""",,,-1.0087647438,0.020925687626,1.18526995182,,-0.006992821116,0.011881172657,0.00885496102273,-0.999865829945
1576079369557657974,,56509,,1576079369,557548474,"""world""",,,-1.00877773762,0.020949460566,1.1852606535,,-0.00696895178407,0.0118545135483,0.00906434096396,-0.999864399433
1576079369578739877,,56510,,1576079369,578664916,"""world""",,,-1.00879919529,0.0209323260933,1.18525397778,,-0.00702333403751,0.0119260651991,0.00878412742168,-0.999865651131
1576079369597663385,,56511,,1576079369,597566458,"""world""",,,-1.00872039795,0.0209297146648,1.18526518345,,-0.00703158183023,0.0115316193551,0.00884076207876,-0.999869704247
1576079369628284684,,56512,,1576079369,628184188,"""world""",,,-1.00874900818,0.0209302715957,1.18524479866,,-0.00711472891271,0.0112454807386,0.0088104410097,-0.999872624874
1576079369637914856,,56513,,1576079369,637810311,"""world""",,,-1.00876843929,0.0209219269454,1.18526875973,,-0.00695118447766,0.0118449050933,0.00872979126871,-0.999867677689
1576079369657604819,,56514,,1576079369,657496097,"""world""",,,-1.00879299641,0.0209333021194,1.18523263931,,-0.00720987794921,0.011296460405,0.00881358329207,-0.999871432781
1576079369677552686,,56515,,1576079369,677467170,"""world""",,,-1.00875771046,0.0209317058325,1.18525111675,,-0.00701640872285,0.0116892373189,0.00891804695129,-0.999867320061
1576079369697575115,,56516,,1576079369,697486517,"""world""",,,-1.00879561901,0.0209389608353,1.1852427721,,-0.00712637603283,0.0115249622613,0.0087713683024,-0.999869704247
1576079369721487765,,56517,,1576079369,721408595,"""world""",,,-1.0088416338,0.0209465175867,1.18522429466,,-0.00723217101768,0.0116427121684,0.00877063721418,-0.999867677689
1576079369737602377,,56518,,1576079369,737488902,"""world""",,,-1.00876009464,0.0209248326719,1.18524420261,,-0.0071304240264,0.0116714229807,0.00890376325697,-0.999866902828
1576079369757542384,,56519,,1576079369,757452967,"""world""",,,-1.0088070631,0.0209370870143,1.18524372578,,-0.00701842829585,0.0118976980448,0.00881816353649,-0.99986577034
1576079369777508071,,56520,,1576079369,777430183,"""world""",,,-1.00881290436,0.0209400113672,1.18525516987,,-0.00701933540404,0.01192413643,0.00882581248879,-0.999865353107
1576079369797639929,,56521,,1576079369,797532286,"""world""",,,-1.00873756409,0.0209528226405,1.18526017666,,-0.00711577758193,0.0116262417287,0.00914528872818,-0.999865293503
1576079369817673025,,56522,,1576079369,817588525,"""world""",,,-1.0087928772,0.0209407340735,1.18525528908,,-0.00712047796696,0.0116110546514,0.00881784968078,-0.999868392944
1576079369837530207,,56523,,1576079369,837440214,"""world""",,,-1.00871121883,0.0209185443819,1.1852697134,,-0.00706490781158,0.0115864966065,0.00891625415534,-0.999868154526
1576079369857576411,,56524,,1576079369,857488038,"""world""",,,-1.00884079933,0.0209264345467,1.1852325201,,-0.00713041145355,0.0116198603064,0.00883549265563,-0.999868094921
1576079369878031304,,56525,,1576079369,877955642,"""world""",,,-1.00883793831,0.0209504496306,1.18522262573,,-0.00716832280159,0.0116259371862,0.00885692425072,-0.999867558479
1576079369897728148,,56526,,1576079369,897609322,"""world""",,,-1.00876152515,0.0209170654416,1.18527400494,,-0.00671246554703,0.0120524782687,0.0093692233786,-0.999860942364
1576079369917934082,,56527,,1576079369,917834117,"""world""",,,-1.00876510143,0.0209303144366,1.18524873257,,-0.00710159121081,0.0116685274988,0.00892144814134,-0.999866962433
1576079369937602139,,56528,,1576079369,937520388,"""world""",,,-1.00881171227,0.0209299065173,1.18525242805,,-0.00699482485652,0.0119444932789,0.00878784060478,-0.999865591526
1576079369957754816,,56529,,1576079369,957658387,"""world""",,,-1.00880551338,0.0209396034479,1.18525016308,,-0.00707262894139,0.0119266100228,0.00899110827595,-0.999863445759
1576079369979892593,,56530,,1576079369,979787817,"""world""",,,-1.00874495506,0.0209324639291,1.18525505066,,-0.00718054780737,0.0112430267036,0.00873653870076,-0.999872922897
1576079369997593328,,56531,,1576079369,997498627,"""world""",,,-1.00883936882,0.0209449529648,1.1852247715,,-0.00713329622522,0.0115788690746,0.00879120454192,-0.999868929386
1576079370017764248,,56532,,1576079370,17683056,"""world""",,,-1.00876665115,0.0209217574447,1.18526518345,,-0.00711586652324,0.0118376733735,0.0086678462103,-0.999867022038
1576079370037650848,,56533,,1576079370,37564151,"""world""",,,-1.00879788399,0.0209371522069,1.18524861336,,-0.00692355632782,0.01195288077,0.00888248719275,-0.999865174294
1576079370057652564,,56534,,1576079370,57535694,"""world""",,,-1.00883555412,0.0209355838597,1.18523001671,,-0.00711581017822,0.0116388257593,0.00875910557806,-0.999868631363
1576079370077750169,,56535,,1576079370,77663373,"""world""",,,-1.00875604153,0.0209272392094,1.18523991108,,-0.00718457251787,0.0116450916976,0.00890318397433,-0.999866783619
1576079370097584091,,56536,,1576079370,97475788,"""world""",,,-1.00878596306,0.0209329798818,1.18524956703,,-0.00717795919627,0.0115030370653,0.00863657239825,-0.99987077713
1576079370117575099,,56537,,1576079370,117478472,"""world""",,,-1.00881445408,0.020939938724,1.18524897099,,-0.0070843230933,0.0119565138593,0.00873793102801,-0.999865293503
1576079370137835399,,56538,,1576079370,137693700,"""world""",,,-1.0088416338,0.0209371112287,1.18523049355,,-0.00711963186041,0.0116465203464,0.00881377235055,-0.999867975712
1576079370157586747,,56539,,1576079370,157493578,"""world""",,,-1.00876367092,0.0209253579378,1.18526422977,,-0.0070152268745,0.0118943201378,0.00885865464807,-0.999865412712
1576079370178812250,,56540,,1576079370,178738795,"""world""",,,-1.00880622864,0.0209548491985,1.18524098396,,-0.00718690315261,0.0115195605904,0.00899880751967,-0.999867379665
1576079370197588354,,56541,,1576079370,197515438,"""world""",,,-1.00877010822,0.0209155771881,1.18526816368,,-0.00700998539105,0.0118166785687,0.00883544050157,-0.99986666441
1576079370217883575,,56542,,1576079370,217791234,"""world""",,,-1.00883889198,0.0209369510412,1.18523275852,,-0.00706170545891,0.0116779450327,0.00875101238489,-0.999868631363
1576079370238220671,,56543,,1576079370,238145371,"""world""",,,-1.0087634325,0.0209243390709,1.18527042866,,-0.00701177865267,0.0118526788428,0.0087940171361,-0.9998665452
1576079370258061956,,56544,,1576079370,257970943,"""world""",,,-1.00879514217,0.0209303405136,1.18524742126,,-0.00713509088382,0.0115942722186,0.00870931334794,-0.999869465828
1576079370278040506,,56545,,1576079370,277968622,"""world""",,,-1.00876271725,0.0209208093584,1.18526721001,,-0.00703298766166,0.0118640437722,0.00882033910602,-0.999866068363
1576079370297579998,,56546,,1576079370,297499460,"""world""",,,-1.00875377655,0.0209273453802,1.18526101112,,-0.0070065218024,0.0118661457673,0.00870902091265,-0.999867141247
1576079370317490904,,56547,,1576079370,317388431,"""world""",,,-1.00881040096,0.0209575966001,1.18523550034,,-0.00716758519411,0.0115863159299,0.00893758423626,-0.999867320061
1576079370337796049,,56548,,1576079370,337722590,"""world""",,,-1.00881206989,0.0209401510656,1.18524837494,,-0.00703661330044,0.0119347022846,0.00889665912837,-0.999864518642
1576079370357663951,,56549,,1576079370,357563264,"""world""",,,-1.00876641273,0.0209298878908,1.18526268005,,-0.00694681191817,0.0118485316634,0.00875121727586,-0.99986743927
1576079370377635070,,56550,,1576079370,377551485,"""world""",,,-1.00877177715,0.0209331586957,1.18526101112,,-0.0070638214238,0.0118584763259,0.00881692394614,-0.999865889549
1576079370397656338,,56551,,1576079370,397580402,"""world""",,,-1.00879609585,0.0209443960339,1.1852401495,,-0.00712801935151,0.0115166846663,0.00870329793543,-0.999870419502
1576079370417672634,,56552,,1576079370,417594973,"""world""",,,-1.00880742073,0.0209578964859,1.18523991108,,-0.00707938987762,0.0116256261244,0.00900975149125,-0.999866783619
1576079370437643261,,56553,,1576079370,437567321,"""world""",,,-1.0087518692,0.0209385380149,1.18524312973,,-0.00711497664452,0.0112485028803,0.00872880313545,-0.999873399734
1576079370457647129,,56554,,1576079370,457481776,"""world""",,,-1.0087916851,0.0209372173995,1.18524193764,,-0.00709745613858,0.0115694673732,0.00860851444304,-0.999870836735
1576079370477784527,,56555,,1576079370,477691745,"""world""",,,-1.00879776478,0.0209476128221,1.18523871899,,-0.00718000344932,0.0115371188149,0.00868945848197,-0.999869942665
1576079370497575254,,56556,,1576079370,497474196,"""world""",,,-1.00874483585,0.0209370702505,1.18524432182,,-0.00722884014249,0.0111969700083,0.0088321166113,-0.999872207642
1576079370517613543,,56557,,1576079370,517524468,"""world""",,,-1.00881671906,0.0209366343915,1.18524694443,,-0.00701457122341,0.0118965562433,0.00896053481847,-0.999864578247
1576079370537804899,,56558,,1576079370,537713862,"""world""",,,-1.00877344608,0.0209473464638,1.18525910378,,-0.00712362769991,0.0118375010788,0.0090790623799,-0.999863386154
1576079370557542951,,56559,,1576079370,557438645,"""world""",,,-1.00879859924,0.0209311638027,1.18524217606,,-0.00704370718449,0.0119011579081,0.00883674155921,-0.999865412712
1576079370578543770,,56560,,1576079370,578450875,"""world""",,,-1.0087941885,0.0209246538579,1.18524301052,,-0.0071215541102,0.0115879969671,0.00865477044135,-0.999870121479
1576079370598540598,,56561,,1576079370,598452073,"""world""",,,-1.0088160038,0.020940059796,1.18525063992,,-0.00708034774289,0.0119215687737,0.00885653309524,-0.999864637852
1576079370617778954,,56562,,1576079370,617693930,"""world""",,,-1.00880563259,0.0209513511509,1.18524694443,,-0.00716031063348,0.011608812958,0.00868870224804,-0.999869287014
1576079370637577319,,56563,,1576079370,637501855,"""world""",,,-1.00884187222,0.0209466293454,1.18522489071,,-0.00716697890311,0.0116496020928,0.0088028172031,-0.999867796898
1576079370657501863,,56564,,1576079370,657411973,"""world""",,,-1.00884532928,0.0209452956915,1.18522691727,,-0.00710413884372,0.0116857215762,0.00873454101384,-0.99986833334
1576079370677809050,,56565,,1576079370,677731313,"""world""",,,-1.00880026817,0.020945135504,1.18523466587,,-0.00701349880546,0.01154464297,0.00870382692665,-0.999870896339
1576079370697657497,,56566,,1576079370,697567175,"""world""",,,-1.00878548622,0.0209302995354,1.18524420261,,-0.00716259283945,0.0115497969091,0.00869789719582,-0.99986988306
1576079370721349277,,56567,,1576079370,721272361,"""world""",,,-1.00876927376,0.020923897624,1.18527042866,,-0.00699125882238,0.0118339564651,0.00884347595274,-0.999866425991
1576079370737571584,,56568,,1576079370,737496985,"""world""",,,-1.00879025459,0.0209312122315,1.18525564671,,-0.00710210110992,0.011557306163,0.00879003945738,-0.999869406223
1576079370758006109,,56569,,1576079370,757929131,"""world""",,,-1.00879609585,0.0209299996495,1.18524932861,,-0.00706366170198,0.011583475396,0.00871128216386,-0.999870061874
1576079370777412277,,56570,,1576079370,777331480,"""world""",,,-1.00875556469,0.0209243781865,1.1852735281,,-0.00706965569407,0.0119073092937,0.00882329698652,-0.999865233898
1576079370799236003,,56571,,1576079370,799152219,"""world""",,,-1.00880789757,0.0209329947829,1.18525385857,,-0.00699976971373,0.0119418585673,0.00894716568291,-0.999864220619
1576079370817565545,,56572,,1576079370,817470174,"""world""",,,-1.00878858566,0.0209278725088,1.18522393703,,-0.00721310265362,0.0112842172384,0.00878799706697,-0.999871730804
1576079370838411632,,56573,,1576079370,838321810,"""world""",,,-1.00883674622,0.0209398102015,1.18522632122,,-0.00712629361078,0.0116139585152,0.00879681389779,-0.999868452549
1576079370857676151,,56574,,1576079370,857582601,"""world""",,,-1.00876331329,0.0209235921502,1.18525636196,,-0.0070955674164,0.0118927061558,0.00888760015368,-0.999864697456
1576079370877624562,,56575,,1576079370,877539366,"""world""",,,-1.00879848003,0.020953854546,1.18523168564,,-0.00705558108166,0.0115841180086,0.00896072946489,-0.999867856503
1576079370897528087,,56576,,1576079370,897439614,"""world""",,,-1.00874197483,0.0209398455918,1.18524193764,,-0.00715930527076,0.0112382732332,0.00879342388362,-0.999872624874
1576079370917777154,,56577,,1576079370,917700838,"""world""",,,-1.00878560543,0.0209374688566,1.18524134159,,-0.00709644798189,0.011555980891,0.00873695779592,-0.999869942665
1576079370937944529,,56578,,1576079370,937847242,"""world""",,,-1.0088044405,0.0209335573018,1.18524205685,,-0.00702637527138,0.0119291162118,0.00899625103921,-0.999863743782
1576079370957672922,,56579,,1576079370,957561671,"""world""",,,-1.00880455971,0.0209332983941,1.18524837494,,-0.00703217508271,0.011915596202,0.00887109152973,-0.99986499548
1576079370977517916,,56580,,1576079370,977419058,"""world""",,,-1.00880539417,0.020955901593,1.18522691727,,-0.00713369017467,0.0115605900064,0.00899838283658,-0.999867320061
1576079370997928055,,56581,,1576079370,997854148,"""world""",,,-1.00879299641,0.0209405869246,1.18523216248,,-0.0070905033499,0.011557072401,0.00869494024664,-0.999870359898
1576079371017470743,,56582,,1576079371,17380883,"""world""",,,-1.00881075859,0.02093388699,1.18524444103,,-0.00701900711283,0.0119062671438,0.0089943036437,-0.999864041805
1576079371037668300,,56583,,1576079371,37582871,"""world""",,,-1.00879597664,0.0209726486355,1.18522298336,,-0.00720128370449,0.011262293905,0.00909508299083,-0.999869346619
1576079371057479999,,56584,,1576079371,57392004,"""world""",,,-1.00877213478,0.0209492761642,1.18525981903,,-0.00705577805638,0.0118655683473,0.00907017104328,-0.999863624573
1576079371081374763,,56585,,1576079371,81294027,"""world""",,,-1.00880384445,0.0209376197308,1.18525969982,,-0.00704413512722,0.0119067197666,0.00876262690872,-0.999865949154
1576079371097808284,,56586,,1576079371,97683114,"""world""",,,-1.00876736641,0.0209373738617,1.1852645874,,-0.00700364401564,0.0118464985862,0.00886623095721,-0.999866008759
1576079371117623597,,56587,,1576079371,117523252,"""world""",,,-1.00875878334,0.0209319908172,1.18525838852,,-0.00693977670744,0.0118457302451,0.00873326417059,-0.999867677689
1576079371137876577,,56588,,1576079371,137762866,"""world""",,,-1.0088044405,0.0209592487663,1.18524158001,,-0.00707655306906,0.0115912165493,0.00895306561142,-0.999867737293
1576079371157766820,,56589,,1576079371,157677973,"""world""",,,-1.00882339478,0.020958263427,1.18525588512,,-0.00696484558284,0.0118752811104,0.00911962985992,-0.999863743782
1576079371177568894,,56590,,1576079371,177482862,"""world""",,,-1.00875854492,0.020932212472,1.1852619648,,-0.00697460025549,0.0118622342125,0.00874962564558,-0.999867081642
1576079371197613032,,56591,,1576079371,197517707,"""world""",,,-1.00875532627,0.0209282580763,1.18526446819,,-0.00692911399528,0.0118532832712,0.00876560527831,-0.999867320061
1576079371217570224,,56592,,1576079371,217496603,"""world""",,,-1.0087890625,0.0209482908249,1.18522572517,,-0.00712078344077,0.011311176233,0.00881522614509,-0.999871850014
1576079371241499052,,56593,,1576079371,241367572,"""world""",,,-1.00875782967,0.020938122645,1.1852645874,,-0.00706046819687,0.0118100559339,0.00881448481232,-0.9998665452
1576079371258485277,,56594,,1576079371,258388562,"""world""",,,-1.00881099701,0.020945219323,1.18524730206,,-0.00699007418007,0.0119167165831,0.00888543389738,-0.999865174294
1576079371277494446,,56595,,1576079371,277397628,"""world""",,,-1.00876116753,0.0209345854819,1.18527269363,,-0.0070420675911,0.0118152648211,0.0087573742494,-0.999867141247
1576079371298678466,,56596,,1576079371,298585225,"""world""",,,-1.00880086422,0.0209701023996,1.18524074554,,-0.00713463593274,0.011306071654,0.00907746795565,-0.999869525433
1576079371317958150,,56597,,1576079371,317879898,"""world""",,,-1.00878751278,0.0209583565593,1.18526446819,,-0.00702634966001,0.0119359614328,0.00917290896177,-0.999862074852
1576079371337559222,,56598,,1576079371,337483105,"""world""",,,-1.00872373581,0.0209373962134,1.18527257442,,-0.00702654616907,0.0115576433018,0.00890141073614,-0.999868929386
1576079371357763593,,56599,,1576079371,357683887,"""world""",,,-1.00876796246,0.0209524836391,1.18528974056,,-0.00667993118986,0.0121313082054,0.00972965732217,-0.999856770039
1576079371378060983,,56600,,1576079371,377982142,"""world""",,,-1.00879514217,0.0209392327815,1.18525099754,,-0.007135306485,0.011559762992,0.00883631035686,-0.999868750572
1576079371397842795,,56601,,1576079371,397742002,"""world""",,,-1.00879120827,0.0209443233907,1.18522942066,,-0.00721940165386,0.0113304350525,0.00879134424031,-0.999871134758
1576079371417759864,,56602,,1576079371,417687729,"""world""",,,-1.00884139538,0.0209641773254,1.18522965908,,-0.00710404478014,0.0116119729355,0.00882906559855,-0.999868452549
1576079371437569348,,56603,,1576079371,437484263,"""world""",,,-1.00884270668,0.0209524389356,1.18523287773,,-0.00702478503808,0.011658269912,0.00888180267066,-0.999867916107
1576079371457732610,,56604,,1576079371,457663114,"""world""",,,-1.00879943371,0.0209955722094,1.18527197838,,-0.00705212540925,0.0118599245325,0.00944456364959,-0.999860286713
1576079371477523124,,56605,,1576079371,477452462,"""world""",,,-1.008715868,0.020934805274,1.18527066708,,-0.00706919794902,0.0115415211767,0.00885959621519,-0.999869167805
1576079371504100685,,56606,,1576079371,504012399,"""world""",,,-1.00876176357,0.0209306888282,1.18527030945,,-0.00702544022352,0.0118445940316,0.00878764037043,-0.999866604805
1576079371517530267,,56607,,1576079371,517436602,"""world""",,,-1.00883555412,0.0209440477192,1.18522942066,,-0.00706583494321,0.0116532994434,0.008804269135,-0.999868452549
1576079371537552595,,56608,,1576079371,537448778,"""world""",,,-1.00883126259,0.0209436845034,1.18523228168,,-0.00714114541188,0.0116118546575,0.00883881933987,-0.999868094921
1576079371557573543,,56609,,1576079371,557468186,"""world""",,,-1.00877153873,0.0209430437535,1.18525540829,,-0.00705309025943,0.0118745807558,0.00907875411212,-0.999863445759
1576079371578794888,,56610,,1576079371,578724500,"""world""",,,-1.00871574879,0.020931314677,1.18526780605,,-0.00714210094884,0.0115644978359,0.00886327866465,-0.99986833334
1576079371598141424,,56611,,1576079371,598048246,"""world""",,,-1.00870752335,0.0209289342165,1.18526685238,,-0.00699320202693,0.0116215609014,0.00890467874706,-0.999868452549
1576079371618055697,,56612,,1576079371,617965804,"""world""",,,-1.00871181488,0.0209258664399,1.18526792526,,-0.00707332510501,0.0115717612207,0.00879630073905,-0.999869406223
1576079371639389564,,56613,,1576079371,639303391,"""world""",,,-1.00882208347,0.0209462307394,1.18522691727,,-0.00722001725808,0.0115575995296,0.00868436973542,-0.999869465828
1576079371657783672,,56614,,1576079371,657686833,"""world""",,,-1.00878882408,0.0209325160831,1.18523955345,,-0.0070122834295,0.011567696929,0.00875130388886,-0.999870240688
1576079371677547128,,56615,,1576079371,677446432,"""world""",,,-1.00877726078,0.0209525302052,1.18526124954,,-0.00698223989457,0.0118993148208,0.00897223502398,-0.999864637852
1576079371697571526,,56616,,1576079371,697471338,"""world""",,,-1.00875544548,0.0209245309234,1.18524813652,,-0.0071387658827,0.011572021991,0.00885099731386,-0.999868452549
1576079371717577469,,56617,,1576079371,717491475,"""world""",,,-1.00882816315,0.0209385063499,1.18522584438,,-0.00713094510138,0.0116033833474,0.00877059064806,-0.999868810177
1576079371737968082,,56618,,1576079371,737880054,"""world""",,,-1.00880563259,0.0209394320846,1.18523836136,,-0.00707947695628,0.0119296424091,0.00892553012818,-0.999863922596
1576079371758330635,,56619,,1576079371,758195766,"""world""",,,-1.0087441206,0.0209324620664,1.18524801731,,-0.00715639488772,0.0112143689767,0.00879602599889,-0.999872863293
1576079371777505353,,56620,,1576079371,777416281,"""world""",,,-1.00880432129,0.0209400244057,1.18525111675,,-0.00694130035117,0.0118793435395,0.00886126980186,-0.999866127968
1576079371797627954,,56621,,1576079371,797541647,"""world""",,,-1.00877773762,0.0209420211613,1.18526303768,,-0.00696931686252,0.0119295204058,0.00901868660003,-0.999863922596
1576079371817533562,,56622,,1576079371,817443942,"""world""",,,-1.00869393349,0.0208965167403,1.18528628349,,-0.00673711532727,0.0117653468624,0.00926127377898,-0.999865233898
1576079371837526971,,56623,,1576079371,837440266,"""world""",,,-1.00883579254,0.0209403038025,1.18523001671,,-0.00718518253416,0.0116058755666,0.0088162291795,-0.999867975712
1576079371857549650,,56624,,1576079371,857470294,"""world""",,,-1.00881493092,0.0209590736777,1.18523418903,,-0.00715695880353,0.0116065759212,0.0090279635042,-0.999866366386
1576079371877466736,,56625,,1576079371,877392090,"""world""",,,-1.00879836082,0.020930480212,1.18525362015,,-0.00710462918505,0.0115986810997,0.00878875982016,-0.999868869781
1576079371897787495,,56626,,1576079371,897709642,"""world""",,,-1.00879395008,0.020937634632,1.18524587154,,-0.00714160269126,0.0115789705887,0.00867553334683,-0.99986988306
1576079371918750587,,56627,,1576079371,918665131,"""world""",,,-1.00874853134,0.0209654420614,1.18525910378,,-0.00709254387766,0.0115506211296,0.00938830710948,-0.999864041805
1576079371937924207,,56628,,1576079371,937830520,"""world""",,,-1.00880980492,0.0209559928626,1.18524003029,,-0.00704756332561,0.0115490341559,0.00891166739166,-0.999868750572
1576079371957860401,,56629,,1576079371,957778700,"""world""",,,-1.00871515274,0.0209216270596,1.18526613712,,-0.00709066679701,0.0115177361295,0.0088344970718,-0.999869585037
1576079371978371538,,56630,,1576079371,978295707,"""world""",,,-1.00883030891,0.0209481175989,1.18523347378,,-0.00715822493657,0.0116033721715,0.0087233511731,-0.999869048595
1576079371997715632,,56631,,1576079371,997610190,"""world""",,,-1.00876367092,0.0209317896515,1.18525385857,,-0.00707456702366,0.0116010336205,0.00888254959136,-0.999868273735
1576079372017548792,,56632,,1576079372,17471277,"""world""",,,-1.00884473324,0.0209648925811,1.18524229527,,-0.00710872700438,0.0115133216605,0.0091365436092,-0.999866724014
1576079372041446168,,56633,,1576079372,41357724,"""world""",,,-1.00876748562,0.0209246128798,1.18527281284,,-0.00702102389187,0.0118510033935,0.00871308520436,-0.999867200851
1576079372057453092,,56634,,1576079372,57375541,"""world""",,,-1.00873601437,0.02093642205,1.18526113033,,-0.00703089265153,0.0115659236908,0.00908901263028,-0.999867081642
1576079372077469489,,56635,,1576079372,77384075,"""world""",,,-1.00877428055,0.0209351629019,1.18526256084,,-0.00704109063372,0.011910921894,0.00905374623835,-0.999863386154
1576079372098485526,,56636,,1576079372,98386406,"""world""",,,-1.00873637199,0.0209231376648,1.18524515629,,-0.00710195768625,0.0112843764946,0.00879265367985,-0.999872505665
1576079372117564486,,56637,,1576079372,117455422,"""world""",,,-1.00876116753,0.0209264848381,1.18526411057,,-0.00703878933564,0.0118324682117,0.00887421425432,-0.999865889549
1576079372137603177,,56638,,1576079372,137482028,"""world""",,,-1.00879907608,0.0209287852049,1.18525516987,,-0.00703737465665,0.0119550051168,0.00876361783594,-0.999865412712
1576079372157530082,,56639,,1576079372,157427543,"""world""",,,-1.00881016254,0.0209449846298,1.18523943424,,-0.00708153657615,0.0115836439654,0.00908316951245,-0.999866604805
1576079372177723453,,56640,,1576079372,177643819,"""world""",,,-1.00883412361,0.0209397561848,1.18523299694,,-0.00715035945177,0.0115570025519,0.00872134789824,-0.999869704247
1576079372197887319,,56641,,1576079372,197795442,"""world""",,,-1.00873291492,0.0209458731115,1.18526124954,,-0.0070123760961,0.0115982210264,0.009063789621,-0.999867081642
1576079372219215840,,56642,,1576079372,219135370,"""world""",,,-1.0087594986,0.0209265835583,1.18526804447,,-0.00701185874641,0.0118716256693,0.00882071070373,-0.999866127968
1576079372237745189,,56643,,1576079372,237643043,"""world""",,,-1.00876653194,0.0209276061505,1.18525874615,,-0.00707202544436,0.011814262718,0.00884725805372,-0.999866068363
1576079372257754416,,56644,,1576079372,257652108,"""world""",,,-1.00884485245,0.0209448281676,1.18523013592,,-0.00705706141889,0.0116150602698,0.0087605714798,-0.999869346619
1576079372278411941,,56645,,1576079372,278319775,"""world""",,,-1.00879633427,0.0209776200354,1.18526732922,,-0.00707765994594,0.0119009539485,0.00941109098494,-0.999859929085
1576079372297997711,,56646,,1576079372,297899471,"""world""",,,-1.00875616074,0.0209246948361,1.18525397778,,-0.00711194332689,0.0116697996855,0.00888101011515,-0.999867200851
1576079372317522901,,56647,,1576079372,317446397,"""world""",,,-1.0088365078,0.0209531020373,1.18523168564,,-0.007172269281,0.0115582356229,0.00879777036607,-0.999868869781
1576079372337575114,,56648,,1576079372,337499234,"""world""",,,-1.00879621506,0.0209358409047,1.18525373936,,-0.00703801587224,0.0115975104272,0.00882251001894,-0.999869048595
1576079372357687804,,56649,,1576079372,357607543,"""world""",,,-1.00875520706,0.0209145788103,1.18527293205,,-0.0069957668893,0.0119080301374,0.00884781125933,-0.999865472317
1576079372378853988,,56650,,1576079372,378765548,"""world""",,,-1.00883209705,0.0209365487099,1.18523395061,,-0.00711024273187,0.0116547988728,0.00874185934663,-0.999868631363
1576079372398006821,,56651,,1576079372,397929203,"""world""",,,-1.00872397423,0.020913342014,1.18527185917,,-0.00712654087692,0.0115036983043,0.00889016874135,-0.999868929386
1576079372417484637,,56652,,1576079372,417394108,"""world""",,,-1.00880026817,0.0209244266152,1.18524360657,,-0.00707463361323,0.0119519680738,0.00889503117651,-0.999864041805
1576079372438497669,,56653,,1576079372,438379565,"""world""",,,-1.00883877277,0.0209375713021,1.18522596359,,-0.0071761412546,0.01159600541,0.00879259128124,-0.999868392944
1576079372457746472,,56654,,1576079372,457672095,"""world""",,,-1.00883936882,0.0209352541715,1.18522596359,,-0.00709954230115,0.0115899266675,0.00887029990554,-0.99986833334
1576079372477756688,,56655,,1576079372,477681582,"""world""",,,-1.00881290436,0.0209292918444,1.18524456024,,-0.00705149676651,0.0119265411049,0.00887837260962,-0.999864697456
1576079372497566586,,56656,,1576079372,497477544,"""world""",,,-1.00882911682,0.0209476705641,1.18522632122,,-0.00710562197492,0.0116448067129,0.00876929797232,-0.999868512154
1576079372518307095,,56657,,1576079372,518201775,"""world""",,,-1.00881993771,0.0209829360247,1.18524610996,,-0.00709815975279,0.0116067612544,0.00938418414444,-0.999863505363
1576079372540312981,,56658,,1576079372,540238746,"""world""",,,-1.00879430771,0.0209395326674,1.18524229527,,-0.00712412642315,0.0115335844457,0.00875033158809,-0.99986988306
1576079372557537873,,56659,,1576079372,557403845,"""world""",,,-1.00881040096,0.0209506172687,1.18522548676,,-0.00712473737076,0.0115158669651,0.00895704794675,-0.999868273735
1576079372578246849,,56660,,1576079372,578159671,"""world""",,,-1.00878608227,0.0209345910698,1.18522548676,,-0.00721627334133,0.0113473599777,0.0089365253225,-0.999869704247
1576079372598120933,,56661,,1576079372,598012236,"""world""",,,-1.00883555412,0.0209443662316,1.18522977829,,-0.00710291322321,0.0116634713486,0.00886765215546,-0.99986743927
1576079372617801895,,56662,,1576079372,617714757,"""world""",,,-1.0088082552,0.0209365598857,1.18525290489,,-0.0070108990185,0.0119409756735,0.00886808056384,-0.99986487627
1576079372637619488,,56663,,1576079372,637547110,"""world""",,,-1.00879108906,0.0209408011287,1.1852427721,,-0.007097333204,0.0115514639765,0.00866353139281,-0.999870598316
1576079372657519309,,56664,,1576079372,657437474,"""world""",,,-1.00882124901,0.0209841188043,1.18524038792,,-0.00713244779035,0.0115523030981,0.00930857658386,-0.999864518642
1576079372677827479,,56665,,1576079372,677751373,"""world""",,,-1.00878584385,0.0209755916148,1.18527746201,,-0.00693140085787,0.0118677122518,0.00943497102708,-0.999861061573
1576079372697517240,,56666,,1576079372,697380874,"""world""",,,-1.00883698463,0.020947098732,1.18523001671,,-0.00711103854701,0.0115958638489,0.00886648800224,-0.99986821413
1576079372717499250,,56667,,1576079372,717399757,"""world""",,,-1.00880324841,0.0209281239659,1.18524730206,,-0.00703888200223,0.0118961092085,0.0089395865798,-0.999864578247
1576079372737485091,,56668,,1576079372,737408539,"""world""",,,-1.00877201557,0.0209450367838,1.18526124954,,-0.00705016683787,0.0119336619973,0.00912033580244,-0.999862372875
1576079372757487540,,56669,,1576079372,757379139,"""world""",,,-1.00880134106,0.0209323689342,1.18524360657,,-0.00706851994619,0.0119197657332,0.00881800241768,-0.999865114689
1576079372777578204,,56670,,1576079372,777465826,"""world""",,,-1.00880229473,0.0209592394531,1.18523740768,,-0.0070893834345,0.0115669211373,0.00903476867825,-0.999867141247
1576079372797550295,,56671,,1576079372,797455192,"""world""",,,-1.0087569952,0.0209403112531,1.18526029587,,-0.00704604107887,0.011877078563,0.00885929353535,-0.999865412712
1576079372817863827,,56672,,1576079372,817773504,"""world""",,,-1.00876092911,0.0209312215447,1.18525695801,,-0.00696957763284,0.0118324197829,0.00886232685298,-0.999866425991
1576079372837973601,,56673,,1576079372,837887736,"""world""",,,-1.00873875618,0.0209644697607,1.18526566029,,-0.00704751117155,0.0115730892867,0.00948813464493,-0.99986320734
1576079372857592849,,56674,,1576079372,857507473,"""world""",,,-1.00880372524,0.0209488719702,1.18523275852,,-0.00709321768954,0.011583446525,0.00896512158215,-0.999867618084
1576079372877668754,,56675,,1576079372,877591182,"""world""",,,-1.00875675678,0.0209226105362,1.18524718285,,-0.00706203375012,0.0116420695558,0.0088582970202,-0.999868035316
1576079372898484968,,56676,,1576079372,898398792,"""world""",,,-1.00875234604,0.0209319125861,1.18526554108,,-0.00707012042403,0.0118452310562,0.00880682095885,-0.999866127968
1576079372917514597,,56677,,1576079372,917434800,"""world""",,,-1.00878846645,0.0209391023964,1.18524980545,,-0.00708694104105,0.0115139195696,0.00871276110411,-0.999870717525
1576079372937499512,,56678,,1576079372,937391498,"""world""",,,-1.00880026817,0.0209325719625,1.18524980545,,-0.007060168311,0.0119145810604,0.00884678773582,-0.99986499548
1576079372957479006,,56679,,1576079372,957359615,"""world""",,,-1.00883686543,0.0209307298064,1.18523061275,,-0.00713453534991,0.0116435457021,0.00881097652018,-0.999868035316
1576079372977461206,,56680,,1576079372,977374476,"""world""",,,-1.00875198841,0.020921593532,1.18524825573,,-0.00708463881165,0.0116440271959,0.00891861785203,-0.99986743927
1576079372997552339,,56681,,1576079372,997463703,"""world""",,,-1.00878238678,0.0209262408316,1.18522632122,,-0.00714348675683,0.0112841492519,0.00885557290167,-0.999871611595
1576079373017505125,,56682,,1576079373,17427778,"""world""",,,-1.00877487659,0.020927740261,1.18522977829,,-0.00717168254778,0.0113015659153,0.00878758262843,-0.999871850014
1576079373037575763,,56683,,1576079373,37459106,"""world""",,,-1.00880813599,0.0209250021726,1.18524456024,,-0.00699172820896,0.011933716014,0.00890891253948,-0.999864697456
1576079373057576691,,56684,,1576079373,57487641,"""world""",,,-1.00883793831,0.0209449585527,1.18523073196,,-0.00703828921542,0.0115686655045,0.00880238134414,-0.999869644642
1576079373077512796,,56685,,1576079373,77414139,"""world""",,,-1.00876605511,0.0209235046059,1.18525028229,,-0.00714580947533,0.0115977525711,0.00884836819023,-0.999868154526
1576079373097566395,,56686,,1576079373,97462395,"""world""",,,-1.00879073143,0.0209351629019,1.18524682522,,-0.00712781399488,0.0115764001384,0.0087850894779,-0.999869048595
1576079373117705028,,56687,,1576079373,117583737,"""world""",,,-1.00878751278,0.0209232755005,1.18524515629,,-0.00707571348175,0.0115108368918,0.00879929494113,-0.999870061874
1576079373137907290,,56688,,1576079373,137793394,"""world""",,,-1.00878179073,0.0209435876459,1.18526101112,,-0.0070617441088,0.0118799116462,0.00905959680676,-0.999863505363
1576079373157895802,,56689,,1576079373,157808295,"""world""",,,-1.00873792171,0.0208943448961,1.18527531624,,-0.00670770928264,0.0118564618751,0.00929573271424,-0.999864041805
1576079373178554167,,56690,,1576079373,178461928,"""world""",,,-1.00879752636,0.0208960734308,1.1852761507,,-0.00669008819386,0.0121389217675,0.00930170062929,-0.999860703945
1576079373197675514,,56691,,1576079373,197564208,"""world""",,,-1.00876736641,0.0209444183856,1.18525648117,,-0.00700451433659,0.0118516162038,0.00903897266835,-0.999864399433
1576079373217547325,,56692,,1576079373,217463377,"""world""",,,-1.00877535343,0.0208913274109,1.18528020382,,-0.00665579130873,0.0121303498745,0.00921934377402,-0.999861836433
1576079373237764405,,56693,,1576079373,237676173,"""world""",,,-1.00877642632,0.0209247171879,1.18523705006,,-0.00718253944069,0.0114067327231,0.0088644484058,-0.99986988306
1576079373257423100,,56694,,1576079373,257346038,"""world""",,,-1.00869882107,0.0209028422832,1.18526756763,,-0.00708729727194,0.0115396073088,0.00893298536539,-0.999868452549
1576079373277354317,,56695,,1576079373,277275631,"""world""",,,-1.00876188278,0.0209382791072,1.18523669243,,-0.00722162751481,0.0112833166495,0.00902926549315,-0.999869525433
1576079373297416895,,56696,,1576079373,297321336,"""world""",,,-1.00876092911,0.0209257751703,1.1852645874,,-0.00700902985409,0.0118645122275,0.00882086995989,-0.999866127968
1576079373317555317,,56697,,1576079373,317459223,"""world""",,,-1.00883102417,0.0209393501282,1.18522393703,,-0.00713787507266,0.0116850044578,0.00894316565245,-0.999866247177
1576079373337431188,,56698,,1576079373,337349993,"""world""",,,-1.00882959366,0.0209357962012,1.18522751331,,-0.00704751955345,0.0116872675717,0.00881720054895,-0.999868094921
1576079373358845360,,56699,,1576079373,358710181,"""world""",,,-1.00878763199,0.0209270007908,1.18522834778,,-0.00719560217112,0.0113228755072,0.00881740264595,-0.999871134758
1576079373377565995,,56700,,1576079373,377479557,"""world""",,,-1.00879442692,0.0209266077727,1.18523776531,,-0.007072720211,0.0115715702996,0.00868149008602,-0.999870419502
1576079373397528470,,56701,,1576079373,397456384,"""world""",,,-1.00877845287,0.020915010944,1.18524539471,,-0.0071974042803,0.0115447193384,0.00881529878825,-0.999868690968
1576079373417921014,,56702,,1576079373,417855220,"""world""",,,-1.00883162022,0.020930590108,1.18522715569,,-0.00714103225619,0.011575919576,0.00880605448037,-0.999868810177
1576079373437802121,,56703,,1576079373,437712855,"""world""",,,-1.00875508785,0.0209181681275,1.18525993824,,-0.00706279370934,0.0118141388521,0.0088270092383,-0.999866366386
1576079373457441123,,56704,,1576079373,457357490,"""world""",,,-1.00874590874,0.0209368225187,1.18522703648,,-0.00721298996359,0.0112674105912,0.0089915394783,-0.999870121479
1576079373477495001,,56705,,1576079373,477394732,"""world""",,,-1.00875246525,0.020912470296,1.18525862694,,-0.00719216838479,0.0117948316038,0.00885336659849,-0.999865472317
1576079373497442201,,56706,,1576079373,497352217,"""world""",,,-1.00873529911,0.0209580399096,1.18524944782,,-0.00715551059693,0.0115554248914,0.00935150682926,-0.999863922596
1576079373517746182,,56707,,1576079373,517659348,"""world""",,,-1.00874936581,0.0209411382675,1.18521857262,,-0.00729341153055,0.01119676698,0.00906705576926,-0.999869585037
1576079373537712341,,56708,,1576079373,537626992,"""world""",,,-1.00874590874,0.0209169145674,1.18525969982,,-0.00711746048182,0.0118160173297,0.00884956493974,-0.999865710735
1576079373557452009,,56709,,1576079373,557352130,"""world""",,,-1.00872612,0.0209580417722,1.18525803089,,-0.00703181652352,0.0115656340495,0.00932155176997,-0.99986499548
1576079373578915252,,56710,,1576079373,578747697,"""world""",,,-1.00875377655,0.0209509432316,1.18522977829,,-0.00721759628505,0.0112907318398,0.00899968482554,-0.999869763851
1576079373597528713,,56711,,1576079373,597445710,"""world""",,,-1.00883817673,0.0209329109639,1.18522715569,,-0.00715050287545,0.0116296792403,0.00878617633134,-0.999868273735
1576079373617434314,,56712,,1576079373,617344874,"""world""",,,-1.00878822803,0.0209271814674,1.18523240089,,-0.00722276745364,0.0113656902686,0.00886039994657,-0.999870121479
1576079373637801814,,56713,,1576079373,637697523,"""world""",,,-1.00881206989,0.0209282301366,1.18525636196,,-0.00697984592989,0.0119555871934,0.00883929338306,-0.999865114689
1576079373658136719,,56714,,1576079373,658050441,"""world""",,,-1.00879442692,0.0209422912449,1.1852452755,,-0.00714691495523,0.0115735847503,0.0087028965354,-0.999869644642
1576079373678337544,,56715,,1576079373,678257895,"""world""",,,-1.00882542133,0.0209469012916,1.18522930145,,-0.00713264988735,0.0115978950635,0.00876083876938,-0.999868988991
1576079373698573691,,56716,,1576079373,698491698,"""world""",,,-1.00880038738,0.0209328792989,1.18523812294,,-0.00716865528375,0.0115430234,0.00864301342517,-0.999870359898
1576079373717491408,,56717,,1576079373,717412176,"""world""",,,-1.00884270668,0.020946437493,1.18522524834,,-0.00699799973518,0.0116294929758,0.00882619712502,-0.999868929386
1576079373737548391,,56718,,1576079373,737447013,"""world""",,,-1.00883412361,0.0209298096597,1.18523550034,,-0.00712390150875,0.0116672134027,0.00874341372401,-0.999868392944
1576079373757435180,,56719,,1576079373,757341217,"""world""",,,-1.00876033306,0.0209238212556,1.18525016308,,-0.00712322769687,0.0116240754724,0.00891662947834,-0.999867379665
1576079373778825705,,56720,,1576079373,778752064,"""world""",,,-1.00879013538,0.0209283344448,1.18524682522,,-0.00715576205403,0.0115134613588,0.00871301162988,-0.999870240688
1576079373797523492,,56721,,1576079373,797424309,"""world""",,,-1.00880789757,0.0209398642182,1.18525505066,,-0.00696462392807,0.0119700618088,0.00894069485366,-0.999864161015
1576079373817578463,,56722,,1576079373,817488477,"""world""",,,-1.00883316994,0.0209417566657,1.18522465229,,-0.00709847267717,0.0115975411609,0.00870276708156,-0.999869704247
1576079373837490392,,56723,,1576079373,837402636,"""world""",,,-1.00881063938,0.0209549050778,1.18523335457,,-0.00711526395753,0.0116076534614,0.00894088484347,-0.999867320061
1576079373857438571,,56724,,1576079373,857346198,"""world""",,,-1.00880968571,0.0209568273276,1.18523275852,,-0.00712253386155,0.0114934900776,0.00892122089863,-0.999868869781
1576079373877438633,,56725,,1576079373,877341506,"""world""",,,-1.00877761841,0.0209359545261,1.18522453308,,-0.00721229612827,0.0112260580063,0.00888339616358,-0.999871492386
1576079373897510576,,56726,,1576079373,897419291,"""world""",,,-1.00873541832,0.0209607705474,1.18527603149,,-0.00713982386515,0.0115560907871,0.00939704757184,-0.999863624573
1576079373917635540,,56727,,1576079373,917560534,"""world""",,,-1.00874626637,0.0209316816181,1.18527269363,,-0.00709401769564,0.0115840788931,0.00896916165948,-0.999867498875
1576079373948963245,,56728,,1576079373,948866517,"""world""",,,-1.0088455677,0.0209399163723,1.1852337122,,-0.0070381546393,0.0116241415963,0.00885000173002,-0.999868571758
1576079373957762216,,56729,,1576079373,957632650,"""world""",,,-1.00880169868,0.0209316909313,1.18525838852,,-0.0070165428333,0.0119571145624,0.00886595714837,-0.999864637852
1576079373977435860,,56730,,1576079373,977356835,"""world""",,,-1.00879096985,0.020933829248,1.1852285862,,-0.00718208635226,0.0113283181563,0.00888980925083,-0.999870538712
1576079374001729698,,56731,,1576079374,1620862,"""world""",,,-1.00881302357,0.0209634397179,1.1852363348,,-0.00722308317199,0.0115103079006,0.00901184976101,-0.999867081642
1576079374018514539,,56732,,1576079374,18408689,"""world""",,,-1.0087774992,0.0209476612508,1.18526279926,,-0.00709880003706,0.011897447519,0.00907341670245,-0.999862909317
1576079374037581480,,56733,,1576079374,37493194,"""world""",,,-1.00880789757,0.0209346469492,1.18525874615,,-0.00703108683228,0.0119442651048,0.00889536458999,-0.999864399433
1576079374057392067,,56734,,1576079374,57303200,"""world""",,,-1.00874888897,0.0209316555411,1.18524515629,,-0.00719309039414,0.011235434562,0.00874529778957,-0.999872803688
1576079374077734047,,56735,,1576079374,77632410,"""world""",,,-1.00883460045,0.0209390390664,1.18523037434,,-0.00718262419105,0.0115933055058,0.00876113586128,-0.999868690968
1576079374098449499,,56736,,1576079374,98348593,"""world""",,,-1.00881135464,0.0209897346795,1.18524372578,,-0.00718776555732,0.0115085048601,0.00936542637646,-0.99986410141
1576079374117631516,,56737,,1576079374,117538441,"""world""",,,-1.00880265236,0.0209467038512,1.18524467945,,-0.00713065313175,0.0115546686575,0.00902209803462,-0.999867200851
1576079374137809048,,56738,,1576079374,137671280,"""world""",,,-1.00883626938,0.0209404341877,1.18523573875,,-0.00712535064667,0.0116163510829,0.00877789780498,-0.999868690968
1576079374157556131,,56739,,1576079374,157480347,"""world""",,,-1.00876426697,0.0209245607257,1.1852530241,,-0.00707930605859,0.0115994289517,0.00892245396972,-0.999867856503
1576079374178773146,,56740,,1576079374,178700319,"""world""",,,-1.00883448124,0.0209419988096,1.18522906303,,-0.00712359696627,0.0115343146026,0.00878053158522,-0.999869585037
1576079374198116820,,56741,,1576079374,198028962,"""world""",,,-1.00884175301,0.0209301151335,1.18523705006,,-0.00710278423503,0.0115951644257,0.00880183838308,-0.999868810177
1576079374217456246,,56742,,1576079374,217358215,"""world""",,,-1.00884127617,0.020951833576,1.18522870541,,-0.00708240224048,0.0116097880527,0.00872590206563,-0.999869525433
1576079374237438842,,56743,,1576079374,237346420,"""world""",,,-1.00881075859,0.0209311172366,1.18525481224,,-0.00691031385213,0.0119641283527,0.0090201087296,-0.999863862991
1576079374257880845,,56744,,1576079374,257766685,"""world""",,,-1.0088095665,0.0209591109306,1.18523561954,,-0.00715153245255,0.01160771586,0.00904575362802,-0.999866127968
1576079374277449526,,56745,,1576079374,277375567,"""world""",,,-1.00877892971,0.0209449212998,1.18525052071,,-0.00704998942092,0.0119026256725,0.00907498877496,-0.999863147736
1576079374297463950,,56746,,1576079374,297380595,"""world""",,,-1.00879979134,0.0209663789719,1.1852285862,,-0.00728803360835,0.0112545387819,0.00920988060534,-0.999867737293
1576079374317442788,,56747,,1576079374,317328867,"""world""",,,-1.00875413418,0.0209238827229,1.18524682522,,-0.00715742260218,0.011606794782,0.00885632727295,-0.999867796898
1576079374337424054,,56748,,1576079374,337322109,"""world""",,,-1.00883150101,0.0209395624697,1.18522977829,,-0.00716251600534,0.0115916579962,0.00878646224737,-0.999868571758
1576079374361287041,,56749,,1576079374,361196072,"""world""",,,-1.00875377655,0.0209189485759,1.18525755405,,-0.00702126324177,0.0117972642183,0.00878847949207,-0.999867141247
1576079374377493845,,56750,,1576079374,377405416,"""world""",,,-1.00882875919,0.0209517944604,1.1852221489,,-0.00713478960097,0.0115921497345,0.00877732597291,-0.999868869781
1576079374397423346,,56751,,1576079374,397332592,"""world""",,,-1.00880134106,0.0209486763924,1.18524312973,,-0.00710595725104,0.0115855326876,0.00901774410158,-0.999867022038
1576079374418151573,,56752,,1576079374,418075278,"""world""",,,-1.00875914097,0.0209436826408,1.18523406982,,-0.00719914911315,0.0111727351323,0.00907616969198,-0.999870538712
1576079374437748009,,56753,,1576079374,437646963,"""world""",,,-1.00880146027,0.0209512207657,1.18523681164,,-0.00706738280132,0.0115434704348,0.00896534789354,-0.99986821413
1576079374457533374,,56754,,1576079374,457455106,"""world""",,,-1.00881850719,0.0209662858397,1.18523585796,,-0.00705828983337,0.0116131128743,0.00901830382645,-0.999867022038
1576079374477480092,,56755,,1576079374,477383673,"""world""",,,-1.00880873203,0.0209529679269,1.18523526192,,-0.00702649354935,0.0116231422871,0.00900720059872,-0.999867200851
1576079374497430525,,56756,,1576079374,497342098,"""world""",,,-1.00881624222,0.0209362674505,1.18525362015,,-0.00699764536694,0.0119018452242,0.00885290559381,-0.999865591526
1576079374517567592,,56757,,1576079374,517479032,"""world""",,,-1.00879895687,0.020929839462,1.18523919582,,-0.00715765031055,0.0115344645455,0.00877432804555,-0.999869406223
1576079374537423265,,56758,,1576079374,537337771,"""world""",,,-1.00877976418,0.0209227409214,1.18522489071,,-0.00713827088475,0.0113687701523,0.00875837448984,-0.999871611595
1576079374557497872,,56759,,1576079374,557384926,"""world""",,,-1.00879490376,0.020914638415,1.18524503708,,-0.00697969645262,0.0118929268792,0.008824236691,-0.999866068363
1576079374580370485,,56760,,1576079374,580273012,"""world""",,,-1.00877845287,0.0209165625274,1.18521869183,,-0.00721176620573,0.0112765431404,0.00881249178201,-0.999871611595
1576079374598270297,,56761,,1576079374,598180830,"""world""",,,-1.00872993469,0.0209119617939,1.18523418903,,-0.00716079538688,0.0112235639244,0.0088467374444,-0.999872267246
1576079374617761289,,56762,,1576079374,617664835,"""world""",,,-1.00883352757,0.0209577064961,1.18523275852,,-0.0072343130596,0.0115542309359,0.00915400777012,-0.999865233898
1576079374637711269,,56763,,1576079374,637621568,"""world""",,,-1.0087531805,0.0209186095744,1.18524026871,,-0.00708550959826,0.0116445878521,0.00885512679815,-0.999867916107
1576079374658000168,,56764,,1576079374,657895660,"""world""",,,-1.00881946087,0.0209797210991,1.18523943424,,-0.00717076286674,0.0115507198498,0.00932499207556,-0.999864161015
1576079374678043813,,56765,,1576079374,677885784,"""world""",,,-1.00875306129,0.020916827023,1.18524515629,,-0.00713971676305,0.01161371544,0.00884126126766,-0.999867975712
1576079374697675867,,56766,,1576079374,697554298,"""world""",,,-1.00878942013,0.0209385957569,1.18522202969,,-0.0072059687227,0.0113222701475,0.00884993653744,-0.99987077713
1576079374717531723,,56767,,1576079374,717434011,"""world""",,,-1.00880503654,0.020928485319,1.18525207043,,-0.00690277060494,0.0119989197701,0.00883299391717,-0.999865233898
1576079374737390622,,56768,,1576079374,737309720,"""world""",,,-1.0088429451,0.0209343470633,1.18523323536,,-0.00712573388591,0.0116166872904,0.00875736959279,-0.999868810177
1576079374759059971,,56769,,1576079374,758904483,"""world""",,,-1.00881111622,0.0209553744644,1.18525910378,,-0.00697883637622,0.0119206793606,0.00921491440386,-0.999862194061
1576079374777409241,,56770,,1576079374,777324991,"""world""",,,-1.00879848003,0.020938269794,1.18523621559,,-0.00724078714848,0.0112764388323,0.00888490211219,-0.99987077713
1576079374797733140,,56771,,1576079374,797635635,"""world""",,,-1.00883817673,0.0209397450089,1.18523359299,,-0.00712808966637,0.0115887662396,0.0087736165151,-0.999869048595
1576079374817408311,,56772,,1576079374,817289276,"""world""",,,-1.00881075859,0.0209496151656,1.18524205685,,-0.00711849797517,0.0115456096828,0.00887964293361,-0.999868631363
1576079374841242737,,56773,,1576079374,841153701,"""world""",,,-1.00879347324,0.0209254138172,1.18523824215,,-0.00712895952165,0.0115535510704,0.00870112236589,-0.99987000227
1576079374857354077,,56774,,1576079374,857268107,"""world""",,,-1.00883448124,0.0209493301809,1.18523168564,,-0.00707845762372,0.0116529827937,0.00873950216919,-0.999868929386
1576079374877582380,,56775,,1576079374,877489141,"""world""",,,-1.00884187222,0.0209373738617,1.18522429466,,-0.00711383344606,0.011635334231,0.00885216146708,-0.999867856503
1576079374897515830,,56776,,1576079374,897426292,"""world""",,,-1.00873351097,0.0209305826575,1.18525230885,,-0.00703325914219,0.0116026289761,0.00918457936496,-0.99986577034
1576079374917363346,,56777,,1576079374,917258354,"""world""",,,-1.00876379013,0.0209261253476,1.18524193764,,-0.00706357136369,0.0116433333606,0.00884922407568,-0.999868154526
1576079374937717286,,56778,,1576079374,937596225,"""world""",,,-1.00880420208,0.020936332643,1.18524503708,,-0.00696800276637,0.0118688158691,0.00890112947673,-0.99986577034
1576079374957440045,,56779,,1576079374,957364732,"""world""",,,-1.00884664059,0.0209699179977,1.18522906303,,-0.00713543221354,0.0115539710969,0.00920918397605,-0.999865472317
1576079374977766383,,56780,,1576079374,977683050,"""world""",,,-1.00883173943,0.0209851674736,1.18523871899,,-0.00717987539247,0.0115517070517,0.00930928066373,-0.999864161015
1576079374997510929,,56781,,1576079374,997413069,"""world""",,,-1.00877630711,0.0209485832602,1.18525385857,,-0.0070676272735,0.0119523145258,0.0090366974473,-0.999862790108
1576079375017572000,,56782,,1576079375,17484897,"""world""",,,-1.0087723732,0.0209374781698,1.18526256084,,-0.00697902077809,0.0119806025177,0.00904636736959,-0.999863028526
1576079375044276158,,56783,,1576079375,44179155,"""world""",,,-1.00878298283,0.0209454800934,1.18525135517,,-0.00701993890107,0.0118630966172,0.00899426266551,-0.999864637852
1576079375057809276,,56784,,1576079375,57716444,"""world""",,,-1.00882935524,0.0209394954145,1.18522024155,,-0.0071100727655,0.0116223962978,0.00873617548496,-0.9998691082
1576079375077480271,,56785,,1576079375,77398131,"""world""",,,-1.00876832008,0.0209228843451,1.18525898457,,-0.00694149453193,0.0118171656504,0.00878014601767,-0.999867618084
1576079375099708157,,56786,,1576079375,99595341,"""world""",,,-1.00880491734,0.0209300275892,1.18525063992,,-0.00700887665153,0.0119038317353,0.00884000770748,-0.999865531921
1576079375117391339,,56787,,1576079375,117286781,"""world""",,,-1.00880718231,0.0209335945547,1.18524956703,,-0.00706399790943,0.0119877047837,0.00878975726664,-0.999864578247
