rosbagTimestamp,transforms,-,header,seq,stamp,secs,nsecs,frame_id,child_frame_id,transform,translation,x,y,z,rotation,x,y,z,w
1576080082197078122,,,0,,1576080082,196967170,"""world""","""hoverOpti/base_link""",,,0.00334577518515,0.0222522132099,0.38232010603,,0.00419693273283,-0.0586740522779,0.0011006126165,0.998267764679
1576080082217923882,,,0,,1576080082,217843468,"""world""","""hoverOpti/base_link""",,,0.00329150212929,0.0223279614002,0.382369101048,,0.00388563615928,-0.058862962832,0.000225166808879,0.998258484932
1576080082237071786,,,0,,1576080082,236997441,"""world""","""hoverOpti/base_link""",,,0.00327433692291,0.0221584942192,0.382319182158,,0.00326230029133,-0.0592507270503,0.00237350312919,0.998234979964
1576080082257227670,,,0,,1576080082,257135648,"""world""","""hoverOpti/base_link""",,,0.00327015994117,0.0222907047719,0.382378935814,,0.00351827039889,-0.0589507308451,0.000930868689861,0.99825425949
1576080082277157933,,,0,,1576080082,277078980,"""world""","""hoverOpti/base_link""",,,0.00326797855087,0.0222830623388,0.382381409407,,0.00346785899018,-0.0588892770815,0.000943826333708,0.998258050902
1576080082296979919,,,0,,1576080082,296898986,"""world""","""hoverOpti/base_link""",,,0.00333956629038,0.0221778415143,0.382303267717,,0.00410805535563,-0.0587298924707,0.00203421542052,0.998263384874
1576080082317053857,,,0,,1576080082,316974947,"""world""","""hoverOpti/base_link""",,,0.00336306029931,0.0221246741712,0.382286816835,,0.00409527843531,-0.0588440077564,0.0026574172818,0.998255252718
1576080082337024519,,,0,,1576080082,336931724,"""world""","""hoverOpti/base_link""",,,0.00335903954692,0.0222879573703,0.382321953773,,0.00423520797041,-0.0586456424062,0.000743283704314,0.998269602447
1576080082357140241,,,0,,1576080082,357035846,"""world""","""hoverOpti/base_link""",,,0.00328247132711,0.0221628844738,0.38233473897,,0.00347401637431,-0.0592117482031,0.00240191028231,0.998236510508
1576080082377467442,,,0,,1576080082,377391995,"""world""","""hoverOpti/base_link""",,,0.00336243025959,0.0220913682133,0.382290005684,,0.00417495571083,-0.0588935257812,0.00285415532929,0.998251459384
1576080082397714178,,,0,,1576080082,397602225,"""world""","""hoverOpti/base_link""",,,0.00334573537111,0.0221806894988,0.382302165031,,0.00408836524652,-0.0587380384173,0.00193452661392,0.998263184596
1576080082417175388,,,0,,1576080082,417088018,"""world""","""hoverOpti/base_link""",,,0.003333712928,0.0222760047764,0.382326334715,,0.00401137626103,-0.058541472502,0.000272205912049,0.998276880811
1576080082437031489,,,0,,1576080082,436940530,"""world""","""hoverOpti/base_link""",,,0.00326453289017,0.0222651958466,0.382367193699,,0.00372456833125,-0.0590290135974,0.00110782665537,0.998248704414
1576080082459334450,,,0,,1576080082,459203563,"""world""","""hoverOpti/base_link""",,,0.00334496144205,0.0222679469734,0.382320821285,,0.00434172760985,-0.0586390051173,0.00085689453833,0.998269443693
1576080082477146812,,,0,,1576080082,477051509,"""world""","""hoverOpti/base_link""",,,0.00327237183228,0.0222706049681,0.382367700338,,0.00352381025556,-0.0590233236395,0.00100795981572,0.998249875555
1576080082497085971,,,0,,1576080082,496996136,"""world""","""hoverOpti/base_link""",,,0.0032746726647,0.0222919210792,0.382376611233,,0.00349649953148,-0.0589931312621,0.00083340955772,0.998251917295
1576080082517353568,,,0,,1576080082,517284567,"""world""","""hoverOpti/base_link""",,,0.00336890248582,0.0220926776528,0.382283657789,,0.00394407424752,-0.058669849905,0.00227855726745,0.998267049024
1576080082537412696,,,0,,1576080082,537322132,"""world""","""hoverOpti/base_link""",,,0.00320871267468,0.0223237220198,0.382407784462,,0.00326125506803,-0.058815213726,-0.000294678267578,0.998263516319
1576080082557561434,,,0,,1576080082,557492074,"""world""","""hoverOpti/base_link""",,,0.00338506186381,0.0222229994833,0.38232421875,,0.004195239792,-0.0585306538016,0.00141046578088,0.998275800125
1576080082577493651,,,0,,1576080082,577395731,"""world""","""hoverOpti/base_link""",,,0.00334494421259,0.0222503393888,0.382321476936,,0.00417934668662,-0.0586852595908,0.00113872189995,0.998267136933
1576080082597119896,,,0,,1576080082,597048486,"""world""","""hoverOpti/base_link""",,,0.00335796037689,0.0221789218485,0.382348656654,,0.00380227075435,-0.0585364682892,0.000951260243318,0.998277576489
1576080082617066415,,,0,,1576080082,616999200,"""world""","""hoverOpti/base_link""",,,0.003298985539,0.0222769845277,0.382384330034,,0.00346466742046,-0.0587588556787,0.000800367637911,0.998265872586
1576080082637013701,,,0,,1576080082,636934963,"""world""","""hoverOpti/base_link""",,,0.00324016157538,0.0222521945834,0.38237503171,,0.00358369408323,-0.0588753293578,0.000878944520868,0.998258523723
1576080082657392450,,,0,,1576080082,657281855,"""world""","""hoverOpti/base_link""",,,0.00336076249368,0.0222281049937,0.382329583168,,0.00411405101038,-0.0586722593825,0.0015048541751,0.998267687535
1576080082677092189,,,0,,1576080082,677000079,"""world""","""hoverOpti/base_link""",,,0.00336884730496,0.022124061361,0.382284611464,,0.00407714037457,-0.0588509280604,0.00265219413437,0.9982549329
1576080082697034735,,,0,,1576080082,696964729,"""world""","""hoverOpti/base_link""",,,0.00331700546667,0.0221389941871,0.3823171556,,0.00332928962086,-0.0591353697136,0.00239977201176,0.99824153639
1576080082717121485,,,0,,1576080082,717044062,"""world""","""hoverOpti/base_link""",,,0.0032568697352,0.0223187059164,0.382371217012,,0.00349567053338,-0.0589717425321,0.000551123449077,0.998253379725
1576080082737177602,,,0,,1576080082,737071012,"""world""","""hoverOpti/base_link""",,,0.0032958232332,0.0223288424313,0.382370650768,,0.00382833534723,-0.058910046183,0.000278562221986,0.99825591544
1576080082757072543,,,0,,1576080082,756984779,"""world""","""hoverOpti/base_link""",,,0.00332399783656,0.0221335142851,0.382294386625,,0.0036898716699,-0.0591151310039,0.00248786793695,0.998241251726
1576080082777369531,,,0,,1576080082,777291820,"""world""","""hoverOpti/base_link""",,,0.00326487584971,0.0222596898675,0.382372021675,,0.00373375942556,-0.0590216913836,0.00112173359063,0.998249087503
1576080082797113078,,,0,,1576080082,797026583,"""world""","""hoverOpti/base_link""",,,0.00339650106616,0.0221140980721,0.382280558348,,0.0041688637153,-0.058752970397,0.00255439211208,0.998260579271
1576080082817090204,,,0,,1576080082,816980116,"""world""","""hoverOpti/base_link""",,,0.00327930343337,0.0221569910645,0.382332026958,,0.00351990820459,-0.0592948332568,0.00234003149667,0.998231564943
1576080082837039029,,,0,,1576080082,836937636,"""world""","""hoverOpti/base_link""",,,0.00335028325208,0.0222923289984,0.382308185101,,0.00433876417258,-0.0586777858111,0.000774048918479,0.998267245494
1576080082857111014,,,0,,1576080082,857017524,"""world""","""hoverOpti/base_link""",,,0.00322327483445,0.0222191195935,0.382390350103,,0.00335011974741,-0.0589997232974,0.00085984977891,0.998252007264
1576080082877248950,,,0,,1576080082,877154125,"""world""","""hoverOpti/base_link""",,,0.00327095133252,0.0221130941063,0.38232678175,,0.00395909121477,-0.0591960003073,0.00265210343616,0.998235005142
1576080082897165407,,,0,,1576080082,897066389,"""world""","""hoverOpti/base_link""",,,0.00330628198572,0.0221312176436,0.382308661938,,0.00340739352272,-0.0590167147057,0.00233839797433,0.998248440494
1576080082917044724,,,0,,1576080082,916969050,"""world""","""hoverOpti/base_link""",,,0.00327696627937,0.0222851186991,0.382363528013,,0.0037910289925,-0.0589430651895,0.000593264941515,0.998253971293
1576080082937022331,,,0,,1576080082,936934175,"""world""","""hoverOpti/base_link""",,,0.00328577728942,0.0221838094294,0.382340461016,,0.00333691982522,-0.0591839085015,0.00207392049508,0.998239364478
1576080082957120978,,,0,,1576080082,957031257,"""world""","""hoverOpti/base_link""",,,0.00329779344611,0.0221303068101,0.382313728333,,0.00358330397466,-0.0591635903832,0.00258451061203,0.998238523506
1576080082977477914,,,0,,1576080082,976988802,"""world""","""hoverOpti/base_link""",,,0.00326881418005,0.0223259050399,0.382369548082,,0.00381479614156,-0.0590304943912,0.000267607532855,0.99824885497
1576080082997133456,,,0,,1576080082,997040381,"""world""","""hoverOpti/base_link""",,,0.00330421561375,0.0223479270935,0.382380157709,,0.00361725662076,-0.0587867903919,9.40965485371e-06,0.998264007486
1576080083017030466,,,0,,1576080083,16935978,"""world""","""hoverOpti/base_link""",,,0.00327541586012,0.0222833678126,0.382377266884,,0.00344614708447,-0.0589413119769,0.000930205915781,0.998255067871
1576080083037126614,,,0,,1576080083,37023762,"""world""","""hoverOpti/base_link""",,,0.0032568546012,0.0222407393157,0.382355093956,,0.00341251037447,-0.0590643711802,0.00140966178736,0.998247347947
1576080083057163485,,,0,,1576080083,57065056,"""world""","""hoverOpti/base_link""",,,0.00326815713197,0.0221441090107,0.382306694984,,0.00353295072308,-0.0592748552745,0.00248603659428,0.998232352418
1576080083077127089,,,0,,1576080083,77035915,"""world""","""hoverOpti/base_link""",,,0.00328008644283,0.0221809111536,0.38233307004,,0.00331997266578,-0.0591824577219,0.00215279334574,0.998239340018
1576080083097395411,,,0,,1576080083,97241566,"""world""","""hoverOpti/base_link""",,,0.00333717186004,0.0223123859614,0.382339030504,,0.00391461453356,-0.0587141157529,0.000222561203591,0.99826713803
1576080083117265130,,,0,,1576080083,117147483,"""world""","""hoverOpti/base_link""",,,0.00329692638479,0.0222917348146,0.382372885942,,0.00363022562336,-0.0587892023229,0.00071970369092,0.998263558976
1576080083137142371,,,0,,1576080083,137047431,"""world""","""hoverOpti/base_link""",,,0.00330785522237,0.0221698451787,0.38233679533,,0.00335512908306,-0.0590026399319,0.00207307659738,0.998250035784
1576080083156937342,,,0,,1576080083,156844104,"""world""","""hoverOpti/base_link""",,,0.00323746865615,0.0222049411386,0.382362544537,,0.00390471327669,-0.0592604049769,0.00176117904961,0.998233367437
1576080083177344468,,,0,,1576080083,177229004,"""world""","""hoverOpti/base_link""",,,0.00327829923481,0.0222858879715,0.382383644581,,0.00354402544287,-0.0589793896235,0.000936894406176,0.998252469925
1576080083197379832,,,0,,1576080083,197276191,"""world""","""hoverOpti/base_link""",,,0.00328699755482,0.0221852175891,0.382341980934,,0.0033763325563,-0.0592357959637,0.00220419767803,0.998235875116
1576080083217247992,,,0,,1576080083,217162535,"""world""","""hoverOpti/base_link""",,,0.00329904863611,0.0223484896123,0.382383853197,,0.00369196099748,-0.0588075993339,-6.69760118428e-06,0.998262508381
1576080083237125749,,,0,,1576080083,236989806,"""world""","""hoverOpti/base_link""",,,0.00327455298975,0.0221900269389,0.382335066795,,0.00332739668087,-0.05914983081,0.00213380630843,0.998241289878
1576080083257304643,,,0,,1576080083,257212426,"""world""","""hoverOpti/base_link""",,,0.00326635316014,0.0223635528237,0.382371753454,,0.0035406787029,-0.0590282574388,0.000178881082411,0.99825001699
1576080083279223081,,,0,,1576080083,279113545,"""world""","""hoverOpti/base_link""",,,0.00328311882913,0.0223272088915,0.382374048233,,0.0038204755568,-0.0588925392325,8.6125844752e-05,0.998257013685
1576080083297585123,,,0,,1576080083,297451735,"""world""","""hoverOpti/base_link""",,,0.00327564356849,0.0223332103342,0.382380843163,,0.00357250790237,-0.0586656950227,-0.000251496757199,0.998271260812
1576080083317118376,,,0,,1576080083,317024300,"""world""","""hoverOpti/base_link""",,,0.00328572420403,0.0222409181297,0.382383137941,,0.00408014879864,-0.0589447196076,0.00109230119434,0.998252312441
1576080083337027892,,,0,,1576080083,336931337,"""world""","""hoverOpti/base_link""",,,0.00331329600886,0.0222802124918,0.38238799572,,0.00366850333072,-0.0588126623197,0.000802951688893,0.998261973684
1576080083357303375,,,0,,1576080083,357227072,"""world""","""hoverOpti/base_link""",,,0.00327259441838,0.0223498810083,0.382376402617,,0.00359365818543,-0.0589148863731,0.000154737314171,0.998256529075
1576080083377191610,,,0,,1576080083,377090335,"""world""","""hoverOpti/base_link""",,,0.00330910878256,0.0221236776561,0.382309675217,,0.00364339941094,-0.0591255810355,0.00247137121302,0.998240844502
1576080083397418945,,,0,,1576080083,397315417,"""world""","""hoverOpti/base_link""",,,0.00327926711179,0.0221329703927,0.38233846426,,0.00345774806302,-0.0589844426971,0.00192231274206,0.998251062715
1576080083417273963,,,0,,1576080083,417172664,"""world""","""hoverOpti/base_link""",,,0.00326987239532,0.0222685560584,0.382369548082,,0.00374277230995,-0.0589745442296,0.0011266063433,0.998251834732
1576080083437027427,,,0,,1576080083,436928918,"""world""","""hoverOpti/base_link""",,,0.00329345045611,0.0223533008248,0.382385164499,,0.00369138386056,-0.0587416587909,-8.83027495269e-07,0.998266392907
1576080083457193897,,,0,,1576080083,457115829,"""world""","""hoverOpti/base_link""",,,0.00328770023771,0.0221865288913,0.382322996855,,0.00367581890421,-0.059073079301,0.00171683833247,0.998245416781
1576080083477164523,,,0,,1576080083,477070249,"""world""","""hoverOpti/base_link""",,,0.00325731001794,0.0222957581282,0.382394701242,,0.0035817492041,-0.0588185253964,-0.000344609631125,0.998262206731
1576080083497494391,,,0,,1576080083,497289301,"""world""","""hoverOpti/base_link""",,,0.00327431503683,0.0222822092474,0.382375895977,,0.00357343343862,-0.0589682151161,0.00099764558299,0.998252966378
1576080083517363234,,,0,,1576080083,517274571,"""world""","""hoverOpti/base_link""",,,0.00330450432375,0.0221562087536,0.38233101368,,0.00355970858233,-0.059101991,0.00226870862004,0.998243024567
1576080083537204297,,,0,,1576080083,537094776,"""world""","""hoverOpti/base_link""",,,0.00330967642367,0.022168494761,0.382339894772,,0.00342983173234,-0.0590151475927,0.00200917396816,0.998249173217
1576080083557076453,,,0,,1576080083,556990413,"""world""","""hoverOpti/base_link""",,,0.00326733011752,0.0223073139787,0.382405728102,,0.00336612991223,-0.0587345245364,-0.000402625938061,0.998267881227
1576080083577232111,,,0,,1576080083,577105209,"""world""","""hoverOpti/base_link""",,,0.00329606933519,0.0222705490887,0.382384061813,,0.00357122579539,-0.0588044710374,0.000785985379369,0.998262822487
1576080083598766766,,,0,,1576080083,598567945,"""world""","""hoverOpti/base_link""",,,0.00324164936319,0.0222054719925,0.382381886244,,0.00320472492444,-0.0588290866663,0.000915128487781,0.998262505977
1576080083617116450,,,0,,1576080083,617037595,"""world""","""hoverOpti/base_link""",,,0.00329916877672,0.0222554504871,0.382366240025,,0.00371285047161,-0.0588023936641,0.00099115768136,0.998262245528
1576080083637195965,,,0,,1576080083,637067571,"""world""","""hoverOpti/base_link""",,,0.00327105773613,0.0222781263292,0.382374495268,,0.00362197545738,-0.0590426330973,0.00115047209973,0.99824822824
1576080083657243381,,,0,,1576080083,657117860,"""world""","""hoverOpti/base_link""",,,0.00325839174911,0.022266453132,0.382370918989,,0.00371069233333,-0.0589862585656,0.00106261672038,0.998251332535
1576080083677134666,,,0,,1576080083,677024109,"""world""","""hoverOpti/base_link""",,,0.00327268382534,0.022172736004,0.382331341505,,0.00344745402284,-0.0592312039048,0.00234037044294,0.998235594542
1576080083697002264,,,0,,1576080083,696921029,"""world""","""hoverOpti/base_link""",,,0.00334446877241,0.0222272407264,0.38230997324,,0.0040804252548,-0.0586410877205,0.00144834645401,0.998269740728
1576080083717379926,,,0,,1576080083,717294190,"""world""","""hoverOpti/base_link""",,,0.00328865926713,0.0223511252552,0.382374614477,,0.0036210996452,-0.0588172768984,-2.36757812214e-06,0.998262197807
1576080083737070471,,,0,,1576080083,736984120,"""world""","""hoverOpti/base_link""",,,0.00331766204908,0.022178478539,0.382305324078,,0.00352707577405,-0.0590082073919,0.00226514423779,0.998248696627
1576080083757155820,,,0,,1576080083,757055934,"""world""","""hoverOpti/base_link""",,,0.00327437277883,0.0222945678979,0.382379919291,,0.00350516474559,-0.0589617041753,0.000949299949292,0.998253640159
1576080083777363930,,,0,,1576080083,777280760,"""world""","""hoverOpti/base_link""",,,0.00327583751641,0.0222878009081,0.382379114628,,0.00346090338104,-0.058967172208,0.000975709273921,0.998253446145
1576080083797035737,,,0,,1576080083,796964041,"""world""","""hoverOpti/base_link""",,,0.0033833635971,0.0221248418093,0.382273525,,0.00409604757054,-0.0586616453921,0.00257964384884,0.998266186541
1576080083817037996,,,0,,1576080083,816964974,"""world""","""hoverOpti/base_link""",,,0.0033158143051,0.0222771745175,0.382331579924,,0.00370664876055,-0.0588136472216,0.00117867434094,0.998261401829
1576080083836977266,,,0,,1576080083,836882048,"""world""","""hoverOpti/base_link""",,,0.00327640189789,0.0221868120134,0.382343620062,,0.00329539427123,-0.0591468161955,0.00218791625213,0.998241457531
1576080083859563088,,,0,,1576080083,857182348,"""world""","""hoverOpti/base_link""",,,0.00327830016613,0.0221917442977,0.382335573435,,0.00327211911952,-0.0591386912615,0.00208721467044,0.998242231108
1576080083877271399,,,0,,1576080083,877152722,"""world""","""hoverOpti/base_link""",,,0.00330807757564,0.0223376918584,0.382342755795,,0.00378349613293,-0.0588126934301,0.00031116437296,0.998261817073
1576080083897108953,,,0,,1576080083,897006393,"""world""","""hoverOpti/base_link""",,,0.00330348219723,0.022149797529,0.382329076529,,0.00364499040429,-0.0590918905106,0.00216568744529,0.99824354359
1576080083917015061,,,0,,1576080083,916902810,"""world""","""hoverOpti/base_link""",,,0.00327727897093,0.0222997255623,0.382392883301,,0.00351309037404,-0.0589248660101,0.000928767216368,0.998255806772
1576080083937035304,,,0,,1576080083,936933668,"""world""","""hoverOpti/base_link""",,,0.0032595358789,0.0223446451128,0.382367700338,,0.00379061299017,-0.0590460108804,0.000272081504956,0.998248028209
1576080083957933714,,,0,,1576080083,957831451,"""world""","""hoverOpti/base_link""",,,0.00323501462117,0.0222340356559,0.382400155067,,0.00341537386964,-0.0589610341174,0.000628383134855,0.998254244575
1576080083977134812,,,0,,1576080083,977040052,"""world""","""hoverOpti/base_link""",,,0.00335760926828,0.0221158973873,0.38228905201,,0.00397878611143,-0.0588318415329,0.0026283900136,0.998256517759
1576080083997310647,,,0,,1576080083,997153448,"""world""","""hoverOpti/base_link""",,,0.00336536765099,0.0221239179373,0.382282704115,,0.00401627325543,-0.0588035785764,0.00268012910494,0.998257895338
1576080084017895069,,,0,,1576080084,17812232,"""world""","""hoverOpti/base_link""",,,0.0032618031837,0.0221338849515,0.38234692812,,0.00378447523773,-0.0592928655129,0.00262623968738,0.998230001909
1576080084037095194,,,0,,1576080084,37001000,"""world""","""hoverOpti/base_link""",,,0.00331187108532,0.0222594160587,0.38234770298,,0.00368410029986,-0.0587756607872,0.00122016779361,0.998263672731
1576080084061441110,,,0,,1576080084,61364730,"""world""","""hoverOpti/base_link""",,,0.00325930304825,0.022157471627,0.382379293442,,0.00314526460757,-0.0589032901942,0.00165254536642,0.998257371026
1576080084077238798,,,0,,1576080084,77149210,"""world""","""hoverOpti/base_link""",,,0.00335936201736,0.0222984123975,0.382324784994,,0.00418872634264,-0.0586407215217,0.000670934918878,0.998270138889
1576080084097786034,,,0,,1576080084,97666723,"""world""","""hoverOpti/base_link""",,,0.00338447745889,0.0222094878554,0.382317245007,,0.00428313423962,-0.0584592802801,0.00137197594963,0.998279662716
1576080084117055393,,,0,,1576080084,116952334,"""world""","""hoverOpti/base_link""",,,0.00335380574688,0.0222940910608,0.382320076227,,0.00419115370256,-0.0586372244147,0.000665848612205,0.998270337528
1576080084137216605,,,0,,1576080084,137120659,"""world""","""hoverOpti/base_link""",,,0.00333335716277,0.0220851302147,0.382277607918,,0.00372899925261,-0.0587941774694,0.00255492326993,0.998259891825
1576080084157210839,,,0,,1576080084,157134574,"""world""","""hoverOpti/base_link""",,,0.0032593915239,0.0223377626389,0.382368326187,,0.00372774608828,-0.0590494109004,0.000242706206593,0.998248071411
1576080084177172388,,,0,,1576080084,177066453,"""world""","""hoverOpti/base_link""",,,0.00326717691496,0.0222409907728,0.382372289896,,0.00407469234983,-0.0589349848739,0.00110486314207,0.998252895672
1576080084203124506,,,0,,1576080084,203031480,"""world""","""hoverOpti/base_link""",,,0.00330612552352,0.0223418604583,0.382343173027,,0.00379136067437,-0.0588351008697,0.000379765909218,0.998260443105
1576080084217030168,,,0,,1576080084,216944174,"""world""","""hoverOpti/base_link""",,,0.00325677031651,0.0222746878862,0.382372379303,,0.00366064272343,-0.0590006775329,0.00113135423321,0.998250589673
1576080084237691323,,,0,,1576080084,237586375,"""world""","""hoverOpti/base_link""",,,0.00324740912765,0.0221208184958,0.382360070944,,0.00307339645308,-0.0590432550901,0.00193500205178,0.998248818697
1576080084257430505,,,0,,1576080084,257360376,"""world""","""hoverOpti/base_link""",,,0.00326180038974,0.0223658997566,0.38237708807,,0.00366395158595,-0.058984287967,0.000193927861978,0.998252168354
1576080084277233452,,,0,,1576080084,277142556,"""world""","""hoverOpti/base_link""",,,0.00330124702305,0.0221884995699,0.382347553968,,0.00348801587295,-0.0589853676078,0.0019838967103,0.998250782272
1576080084296973050,,,0,,1576080084,296901944,"""world""","""hoverOpti/base_link""",,,0.00325750443153,0.0223427843302,0.382375627756,,0.00377751384362,-0.0590188295849,0.0003111956937,0.99824967383
1576080084317070407,,,0,,1576080084,316986057,"""world""","""hoverOpti/base_link""",,,0.00330589525402,0.0223445799202,0.382344990969,,0.00383788277222,-0.0588144995007,0.00028497001027,0.998261510876
1576080084337218159,,,0,,1576080084,337136082,"""world""","""hoverOpti/base_link""",,,0.00326408213004,0.0223709084094,0.382377564907,,0.00355510130233,-0.058962500783,7.75264065435e-05,0.998253864879
1576080084357061904,,,0,,1576080084,356967105,"""world""","""hoverOpti/base_link""",,,0.00338353030384,0.0222871266305,0.382313996553,,0.00435524393667,-0.0584729098901,0.000542707458174,0.998279347742
1576080084377093456,,,0,,1576080084,377024843,"""world""","""hoverOpti/base_link""",,,0.00335685769096,0.0223013162613,0.382331341505,,0.00417933253393,-0.0585992251761,0.000638140837885,0.99827263649
1576080084397039222,,,0,,1576080084,396930048,"""world""","""hoverOpti/base_link""",,,0.00325311743654,0.0223292000592,0.382369041443,,0.00356337574197,-0.058984124102,0.000559542941901,0.998252404139
1576080084417280295,,,0,,1576080084,417186394,"""world""","""hoverOpti/base_link""",,,0.00322313653305,0.0222294218838,0.382357299328,,0.00328785286257,-0.0588949339884,0.00117592532837,0.998258079844
1576080084437280480,,,0,,1576080084,437205447,"""world""","""hoverOpti/base_link""",,,0.00326263578609,0.0221687927842,0.382334262133,,0.00362386612741,-0.0592352952493,0.00224083259056,0.998234955339
1576080084457001094,,,0,,1576080084,456896915,"""world""","""hoverOpti/base_link""",,,0.0032745229546,0.0222161952406,0.382349997759,,0.00370808510518,-0.0589775490309,0.00147753739862,0.998251328924
1576080084477087352,,,0,,1576080084,476996968,"""world""","""hoverOpti/base_link""",,,0.00321986712515,0.0222480352968,0.382436901331,,0.0039949363686,-0.0590769988466,0.000926292392044,0.998245005333
1576080084497838762,,,0,,1576080084,497766793,"""world""","""hoverOpti/base_link""",,,0.00327563192695,0.0222961809486,0.382382035255,,0.00346037627001,-0.0589261573026,0.000941707048547,0.998255902547
1576080084517148178,,,0,,1576080084,517060785,"""world""","""hoverOpti/base_link""",,,0.0033450787887,0.0222799200565,0.382330298424,,0.00440878657585,-0.0586588387626,0.000818724809076,0.99826801658
1576080084538140874,,,0,,1576080084,538071396,"""world""","""hoverOpti/base_link""",,,0.00328498799354,0.0221800170839,0.382342725992,,0.00336945782458,-0.0591403584202,0.00212708312806,0.998241724372
1576080084557078143,,,0,,1576080084,556994822,"""world""","""hoverOpti/base_link""",,,0.00328320451081,0.0221941377968,0.382340401411,,0.00329453763219,-0.0592075858638,0.00221191732855,0.998237804944
1576080084576991667,,,0,,1576080084,576912988,"""world""","""hoverOpti/base_link""",,,0.00337942130864,0.0222090873867,0.382328391075,,0.00441770049984,-0.0584887389596,0.00151515989924,0.998277143697
1576080084597962224,,,0,,1576080084,597890009,"""world""","""hoverOpti/base_link""",,,0.00327837467194,0.0221655219793,0.382328748703,,0.00356011853933,-0.0592485392241,0.00238375205711,0.998234067682
1576080084616973063,,,0,,1576080084,616906455,"""world""","""hoverOpti/base_link""",,,0.0032842378132,0.0222244355828,0.382339715958,,0.00373168621721,-0.0587485964361,0.000932513518618,0.998265399257
1576080084637343517,,,0,,1576080084,637257560,"""world""","""hoverOpti/base_link""",,,0.00328451464884,0.0221295058727,0.382331371307,,0.00394771301603,-0.0591283642001,0.00244161066302,0.998239595812
1576080084657248312,,,0,,1576080084,657008031,"""world""","""hoverOpti/base_link""",,,0.00330781191587,0.0221488922834,0.382319658995,,0.00339125878593,-0.0590242238826,0.00240899179824,0.998247883603
1576080084677579332,,,0,,1576080084,677475031,"""world""","""hoverOpti/base_link""",,,0.00329318619333,0.0223534349352,0.382369965315,,0.00369707637055,-0.0588139224862,-7.93193617591e-05,0.998262113804
1576080084697048872,,,0,,1576080084,696957465,"""world""","""hoverOpti/base_link""",,,0.00323834898882,0.0223055146635,0.382397383451,,0.00353144080785,-0.0589828480922,-0.000205982910979,0.998252728585
1576080084717140454,,,0,,1576080084,717052822,"""world""","""hoverOpti/base_link""",,,0.0032583263237,0.022253587842,0.382366508245,,0.00360457229736,-0.0590357300369,0.00134108277911,0.998248461624
1576080084737035949,,,0,,1576080084,736966363,"""world""","""hoverOpti/base_link""",,,0.00326101668179,0.0221889689565,0.382320344448,,0.00364631025,-0.0588452751508,0.00154543835498,0.998259259729
1576080084757377582,,,0,,1576080084,757244600,"""world""","""hoverOpti/base_link""",,,0.00335457734764,0.0223012957722,0.382315963507,,0.00428161370417,-0.0586657263379,0.000629671110877,0.998268302538
1576080084777095456,,,0,,1576080084,777007079,"""world""","""hoverOpti/base_link""",,,0.00329813640565,0.0223512556404,0.382377684116,,0.00369731251448,-0.058769178877,2.47782214236e-05,0.998264750895
1576080084797017065,,,0,,1576080084,796934448,"""world""","""hoverOpti/base_link""",,,0.00326818367466,0.0223444141448,0.382364451885,,0.00380416034608,-0.0590303663053,0.000311312572025,0.998248890459
1576080084816887114,,,0,,1576080084,816819431,"""world""","""hoverOpti/base_link""",,,0.00326197501272,0.0222766306251,0.382372736931,,0.00371178489109,-0.0590083588616,0.00109264892915,0.99824998991
1576080084837122206,,,0,,1576080084,837028281,"""world""","""hoverOpti/base_link""",,,0.00330888899043,0.022188026458,0.38234052062,,0.00341233718269,-0.0589921793737,0.00201619224744,0.998250576607
1576080084857943185,,,0,,1576080084,857850719,"""world""","""hoverOpti/base_link""",,,0.00323249981739,0.0223268531263,0.382402658463,,0.00316084898511,-0.058913964859,-0.000356591219805,0.998257996022
1576080084877020413,,,0,,1576080084,876931378,"""world""","""hoverOpti/base_link""",,,0.00327488547191,0.0222766436636,0.38237375021,,0.00371532496423,-0.0589960076427,0.00111973357036,0.998250676754
1576080084897238698,,,0,,1576080084,897171376,"""world""","""hoverOpti/base_link""",,,0.00327507569455,0.0222474578768,0.382385492325,,0.0041381493594,-0.0589299207422,0.00110133272684,0.9982529375
1576080084917031352,,,0,,1576080084,916962527,"""world""","""hoverOpti/base_link""",,,0.00327321863733,0.0222700927407,0.382377564907,,0.00373539018396,-0.0590191062332,0.00114301070465,0.99824921011
1576080084937548765,,,0,,1576080084,937482278,"""world""","""hoverOpti/base_link""",,,0.00326672382653,0.0223066881299,0.382385283709,,0.00363273172909,-0.0587269029442,-0.000111911154614,0.998267469973
1576080084956922623,,,0,,1576080084,956847904,"""world""","""hoverOpti/base_link""",,,0.00330694112927,0.0221817605197,0.382341444492,,0.00341190182273,-0.05898171531,0.00196774287072,0.998251293099
1576080084977158083,,,0,,1576080084,977088293,"""world""","""hoverOpti/base_link""",,,0.00326978415251,0.0223311875015,0.38238427043,,0.0035009351819,-0.0586653430646,-0.000262178337053,0.998271532319
1576080084997077184,,,0,,1576080084,996991111,"""world""","""hoverOpti/base_link""",,,0.00326090864837,0.0222748164088,0.382372260094,,0.00375546401412,-0.05899841383,0.00112997846135,0.998250372804
1576080085020447243,,,0,,1576080085,20375882,"""world""","""hoverOpti/base_link""",,,0.00326747167856,0.0222718659788,0.382372528315,,0.00364197526067,-0.0589788616933,0.00112753289001,0.998251951443
1576080085036952738,,,0,,1576080085,36883183,"""world""","""hoverOpti/base_link""",,,0.00327899097465,0.0221684891731,0.382323652506,,0.00326407189267,-0.0592456386795,0.00251494837546,0.998234929847
1576080085057166326,,,0,,1576080085,57054509,"""world""","""hoverOpti/base_link""",,,0.00329721160233,0.0222902484238,0.382376044989,,0.00365265507086,-0.0587690102597,0.000791967450405,0.998264611379
1576080085077073958,,,0,,1576080085,76991096,"""world""","""hoverOpti/base_link""",,,0.00326113891788,0.0223405752331,0.382371127605,,0.00369288125526,-0.0590192087749,0.000340562704487,0.998249958498
1576080085096920694,,,0,,1576080085,96843372,"""world""","""hoverOpti/base_link""",,,0.00324736209586,0.0222431309521,0.38235270977,,0.00347522462726,-0.0590300788273,0.00143660000752,0.998249121606
1576080085117040612,,,0,,1576080085,116949197,"""world""","""hoverOpti/base_link""",,,0.00328830722719,0.0223568677902,0.382377654314,,0.00372546905068,-0.0588165921661,5.80927980463e-05,0.998261852417
1576080085137677848,,,0,,1576080085,137600288,"""world""","""hoverOpti/base_link""",,,0.00332240574062,0.022191753611,0.382318139076,,0.00395059100065,-0.0588270731522,0.00167973098289,0.998258957785
1576080085157189955,,,0,,1576080085,157117199,"""world""","""hoverOpti/base_link""",,,0.00324955955148,0.022246517241,0.382362723351,,0.00340688901905,-0.0590753961766,0.00148564762534,0.998246604565
1576080085177086095,,,0,,1576080085,177004388,"""world""","""hoverOpti/base_link""",,,0.00329792080447,0.0222346931696,0.382351666689,,0.00359262498209,-0.0588913328948,0.00138863279125,0.998256968748
1576080085197583701,,,0,,1576080085,197515049,"""world""","""hoverOpti/base_link""",,,0.00321993092075,0.0221105441451,0.382366597652,,0.00350160060374,-0.0593260008142,0.00205605501426,0.998230402792
1576080085217570346,,,0,,1576080085,217505457,"""world""","""hoverOpti/base_link""",,,0.0033629364334,0.0222328510135,0.382321298122,,0.00415837588052,-0.0585960424029,0.00162861150715,0.998271786313
1576080085237401957,,,0,,1576080085,237315241,"""world""","""hoverOpti/base_link""",,,0.00329973036423,0.0221814848483,0.382331758738,,0.00338955378913,-0.0589700029929,0.00208033034552,0.998251832905
1576080085256984209,,,0,,1576080085,256903445,"""world""","""hoverOpti/base_link""",,,0.00327835977077,0.02216575481,0.382337450981,,0.00356989775552,-0.0592191930014,0.00231212527109,0.998235942594
1576080085276976059,,,0,,1576080085,276908050,"""world""","""hoverOpti/base_link""",,,0.0033455111552,0.0222701076418,0.382327318192,,0.00438553115758,-0.0586247931376,0.000773335645341,0.998270155167
1576080085296959000,,,0,,1576080085,296892219,"""world""","""hoverOpti/base_link""",,,0.00338960718364,0.0221104286611,0.382283687592,,0.00427028872242,-0.0586757534452,0.00264188624328,0.998264464473
1576080085316911678,,,0,,1576080085,316823210,"""world""","""hoverOpti/base_link""",,,0.00334912631661,0.0222104936838,0.382327586412,,0.00428939060507,-0.0586733654337,0.00156799480403,0.998266787342
1576080085337527065,,,0,,1576080085,337394732,"""world""","""hoverOpti/base_link""",,,0.00332151772454,0.0221929401159,0.382330268621,,0.00408100968456,-0.0585134782651,0.00120056694001,0.998277555022
1576080085356981036,,,0,,1576080085,356900814,"""world""","""hoverOpti/base_link""",,,0.00325397425331,0.0223426558077,0.382378757,,0.00376286843482,-0.059010818114,0.000381927759496,0.998250178211
1576080085377448779,,,0,,1576080085,377364583,"""world""","""hoverOpti/base_link""",,,0.00325732817873,0.0222900863737,0.382385581732,,0.00352112502824,-0.0589019797321,0.00103551292775,0.998257024105
1576080085400831525,,,0,,1576080085,400698574,"""world""","""hoverOpti/base_link""",,,0.00328824692406,0.0221640523523,0.38232344389,,0.0036238200458,-0.0590724034482,0.00210209125145,0.998244909975
1576080085416927812,,,0,,1576080085,416840899,"""world""","""hoverOpti/base_link""",,,0.00322247808799,0.0222540106624,0.382364362478,,0.00353716363744,-0.0588798303485,0.000743321857878,0.998258534411
1576080085437258147,,,0,,1576080085,437173541,"""world""","""hoverOpti/base_link""",,,0.0032672486268,0.0223671030253,0.382383197546,,0.00350647722021,-0.0589723472785,4.91334434255e-05,0.998253457024
1576080085456930849,,,0,,1576080085,456839531,"""world""","""hoverOpti/base_link""",,,0.00320863327943,0.022295800969,0.382381528616,,0.00395685991326,-0.0589375530469,0.000153044194331,0.998253817763
1576080085477188570,,,0,,1576080085,477090504,"""world""","""hoverOpti/base_link""",,,0.00325035117567,0.0222525075078,0.38236245513,,0.00365116095038,-0.0590438502764,0.00135426443382,0.998247794256
1576080085496917766,,,0,,1576080085,496845039,"""world""","""hoverOpti/base_link""",,,0.00325839687139,0.0221534576267,0.38235321641,,0.00363534643648,-0.0592532196516,0.00249060251566,0.998233257869
1576080085516981486,,,0,,1576080085,516912151,"""world""","""hoverOpti/base_link""",,,0.00335740763694,0.0222115311772,0.382322072983,,0.00436117589757,-0.0586493755719,0.00157110321958,0.998267881144
1576080085537436426,,,0,,1576080085,537350272,"""world""","""hoverOpti/base_link""",,,0.00328911840916,0.0222611296922,0.382368147373,,0.00379121075661,-0.0588991686916,0.00107418549248,0.998256159898
1576080085557363814,,,0,,1576080085,557277072,"""world""","""hoverOpti/base_link""",,,0.00325901061296,0.0223633423448,0.382395297289,,0.00358315041044,-0.058956555369,0.000137465480589,0.998254109291
1576080085576985207,,,0,,1576080085,576912839,"""world""","""hoverOpti/base_link""",,,0.00329878693447,0.0223415121436,0.382343798876,,0.00378870399505,-0.0588092236234,0.00039266354856,0.998261973008
1576080085597046947,,,0,,1576080085,596957702,"""world""","""hoverOpti/base_link""",,,0.00336950272322,0.0222150404006,0.382326483727,,0.0042484339972,-0.058517758569,0.00138845660221,0.998276362
1576080085621472623,,,0,,1576080085,621400663,"""world""","""hoverOpti/base_link""",,,0.00326496548951,0.0222472213209,0.382386654615,,0.00403148865639,-0.0589475629446,0.00110490980599,0.99825232837
1576080085637310507,,,0,,1576080085,637227251,"""world""","""hoverOpti/base_link""",,,0.00334566785023,0.0222178976983,0.38232666254,,0.00432329226906,-0.0586183222886,0.0016530107432,0.998269737592
1576080085657058185,,,0,,1576080085,656957726,"""world""","""hoverOpti/base_link""",,,0.0033011387568,0.0222523808479,0.382351100445,,0.00387865141263,-0.0588690602138,0.00129583586376,0.998257336874
1576080085677422786,,,0,,1576080085,677283336,"""world""","""hoverOpti/base_link""",,,0.00326386699453,0.0222795773298,0.38240018487,,0.00329092037247,-0.0590221334164,0.000814989231258,0.998250917056
1576080085697015483,,,0,,1576080085,696943022,"""world""","""hoverOpti/base_link""",,,0.00332037196495,0.0223368313164,0.382357984781,,0.00395891259149,-0.0586545694626,0.000245828153965,0.998270458373
1576080085716994291,,,0,,1576080085,716916656,"""world""","""hoverOpti/base_link""",,,0.00334056722932,0.0222631786019,0.382360607386,,0.00377210515997,-0.0586815077471,0.00108432573871,0.998269039943
1576080085737217894,,,0,,1576080085,737142855,"""world""","""hoverOpti/base_link""",,,0.00339125422761,0.0220924317837,0.382274270058,,0.00410248223206,-0.058749888547,0.00292271103272,0.998260025242
1576080085757604114,,,0,,1576080085,757535213,"""world""","""hoverOpti/base_link""",,,0.00327487103641,0.0222596656531,0.382404536009,,0.00393113140369,-0.0588620338259,0.00102086311493,0.998257864992
1576080085776932673,,,0,,1576080085,776862922,"""world""","""hoverOpti/base_link""",,,0.00331551162526,0.0221852529794,0.382318675518,,0.00350406053704,-0.0590205281178,0.00231198375359,0.998247941922
1576080085797029953,,,0,,1576080085,796955682,"""world""","""hoverOpti/base_link""",,,0.00325410231017,0.0223396904767,0.382378488779,,0.00379866080055,-0.0590564195424,0.000281326412947,0.998247379332
1576080085816994496,,,0,,1576080085,816914673,"""world""","""hoverOpti/base_link""",,,0.00335048581474,0.0223012845963,0.382315665483,,0.00432324103385,-0.0586434939045,0.000787392151803,0.998269317481
1576080085838522095,,,0,,1576080085,838447385,"""world""","""hoverOpti/base_link""",,,0.0032570916228,0.0223422963172,0.382374286652,,0.00378693830286,-0.058968093936,0.000304663916501,0.998252638452
1576080085857530463,,,0,,1576080085,857457673,"""world""","""hoverOpti/base_link""",,,0.0032760349568,0.0223718471825,0.382380366325,,0.00360970878427,-0.0589504844703,0.000151287125749,0.998254370136
1576080085876936997,,,0,,1576080085,876866289,"""world""","""hoverOpti/base_link""",,,0.00329951825552,0.0222252979875,0.3823325634,,0.00359942731958,-0.0589540586359,0.00172048325634,0.99825272503
1576080085897426152,,,0,,1576080085,897345172,"""world""","""hoverOpti/base_link""",,,0.00327485473827,0.0222999919206,0.382382124662,,0.00345645436769,-0.0589226798513,0.000952430151818,0.998256111226
1576080085917211578,,,0,,1576080085,917134008,"""world""","""hoverOpti/base_link""",,,0.00331654725596,0.0221793018281,0.382313519716,,0.00348078116469,-0.0589915596822,0.00231863220959,0.998249720257
1576080085937044975,,,0,,1576080085,936965668,"""world""","""hoverOpti/base_link""",,,0.00328387483023,0.0223211720586,0.382370769978,,0.0039246605098,-0.0588680193906,0.000253707614135,0.998258027248
1576080085957144632,,,0,,1576080085,957067908,"""world""","""hoverOpti/base_link""",,,0.00330440374091,0.0221880078316,0.382338255644,,0.00340709466195,-0.0589587321858,0.00204052801438,0.998252521084
1576080085977353487,,,0,,1576080085,977271948,"""world""","""hoverOpti/base_link""",,,0.00323877949268,0.0223162751645,0.38240852952,,0.00343333024837,-0.0589390958469,-0.000102770959854,0.998255670989
1576080085997935787,,,0,,1576080085,997840696,"""world""","""hoverOpti/base_link""",,,0.00330525776371,0.022282762453,0.382379800081,,0.00357740683909,-0.0587587109278,0.000823732956049,0.99826546445
1576080086017001600,,,0,,1576080086,16912928,"""world""","""hoverOpti/base_link""",,,0.00327820912935,0.0223241578788,0.382389008999,,0.0040491323075,-0.0589199809102,0.000227488664028,0.998254470877
1576080086037208745,,,0,,1576080086,37140113,"""world""","""hoverOpti/base_link""",,,0.00327499397099,0.0222297571599,0.382348418236,,0.00373456214543,-0.0590162176206,0.00147441791267,0.998248949509
1576080086056940104,,,0,,1576080086,56869209,"""world""","""hoverOpti/base_link""",,,0.00329833850265,0.0222611855716,0.382371127605,,0.00371525981486,-0.0588633060709,0.00102467516781,0.998258612827
1576080086077081792,,,0,,1576080086,77009578,"""world""","""hoverOpti/base_link""",,,0.00334711559117,0.0221685189754,0.382307589054,,0.00422373373505,-0.0587846729368,0.00208749555507,0.99825956778
1576080086096873812,,,0,,1576080086,96800209,"""world""","""hoverOpti/base_link""",,,0.00328933889978,0.022189501673,0.38232204318,,0.00371074079315,-0.0590935623406,0.0019182833294,0.998243708461
1576080086117028289,,,0,,1576080086,116944263,"""world""","""hoverOpti/base_link""",,,0.00330535788089,0.0222820211202,0.382380187511,,0.00355456220983,-0.0588286572087,0.000762837445463,0.998261474894
1576080086137262312,,,0,,1576080086,137193366,"""world""","""hoverOpti/base_link""",,,0.00328016420826,0.0221825260669,0.382337003946,,0.00327379367285,-0.0591147755374,0.00215710090497,0.998243493595
1576080086157125287,,,0,,1576080086,157058444,"""world""","""hoverOpti/base_link""",,,0.00324546918273,0.0221591610461,0.382373213768,,0.00295691984765,-0.0591808028606,0.00165551876741,0.998241528116
1576080086176971550,,,0,,1576080086,176901785,"""world""","""hoverOpti/base_link""",,,0.00325046433136,0.0222408920527,0.382344216108,,0.00365010420743,-0.059121911229,0.0016405764243,0.998242748464
1576080086196981195,,,0,,1576080086,196890340,"""world""","""hoverOpti/base_link""",,,0.00329270772636,0.0222860071808,0.382381618023,,0.00361185497693,-0.0588078572834,0.000806464296199,0.998262460499
1576080086216968727,,,0,,1576080086,216890645,"""world""","""hoverOpti/base_link""",,,0.00325998198241,0.0223410278559,0.382373273373,,0.00376912732982,-0.0589891807968,0.000262417313327,0.998251472008
1576080086237047814,,,0,,1576080086,236971110,"""world""","""hoverOpti/base_link""",,,0.00326272239909,0.022294908762,0.382389932871,,0.00342762538254,-0.0590047122503,0.00101323592966,0.998251305368
1576080086257461373,,,0,,1576080086,257388327,"""world""","""hoverOpti/base_link""",,,0.00327738933265,0.0223374813795,0.382369667292,,0.00384269924543,-0.0589264059299,9.5412876382e-05,0.998254928985
1576080086277099238,,,0,,1576080086,277000279,"""world""","""hoverOpti/base_link""",,,0.00327865406871,0.0222865398973,0.382382541895,,0.00353299308849,-0.0590428960227,0.00095809831214,0.998248734753
1576080086298828873,,,0,,1576080086,298742240,"""world""","""hoverOpti/base_link""",,,0.00326483789831,0.0222970340401,0.382384985685,,0.00356465850839,-0.0589243609663,0.000931222789346,0.998255651483
1576080086318634590,,,0,,1576080086,318563939,"""world""","""hoverOpti/base_link""",,,0.00325972563587,0.0223430860788,0.382386833429,,0.0037098018781,-0.0590265979712,0.000351795659039,0.998249454967
1576080086336950319,,,0,,1576080086,336876965,"""world""","""hoverOpti/base_link""",,,0.00326938577928,0.0223700162023,0.382386595011,,0.00358745708861,-0.0589685099865,2.8925012643e-05,0.998253396761
1576080086357533024,,,0,,1576080086,357456405,"""world""","""hoverOpti/base_link""",,,0.00326487072743,0.0221670903265,0.382341563702,,0.00349927881028,-0.0591839141977,0.0022962187362,0.998238321608
1576080086377731576,,,0,,1576080086,377662242,"""world""","""hoverOpti/base_link""",,,0.00326610123739,0.0223450940102,0.382381558418,,0.00377099926468,-0.0590674300687,0.00032747413681,0.998246818693
1576080086397836424,,,0,,1576080086,397736378,"""world""","""hoverOpti/base_link""",,,0.00326988310553,0.022193254903,0.382348001003,,0.00333604083422,-0.0591221757371,0.00220464578012,0.99824274538
1576080086416918929,,,0,,1576080086,416806762,"""world""","""hoverOpti/base_link""",,,0.00332561694086,0.0221696346998,0.382307946682,,0.00356923590927,-0.0589814799013,0.00233315281123,0.998249969688
1576080086437973866,,,0,,1576080086,437902962,"""world""","""hoverOpti/base_link""",,,0.00325580197386,0.0223442986608,0.382377505302,,0.0037635226573,-0.059027220071,0.000354470533703,0.998249216147
1576080086456864446,,,0,,1576080086,456794121,"""world""","""hoverOpti/base_link""",,,0.00329874805175,0.0221750196069,0.382347106934,,0.00338378202656,-0.0589645883195,0.00193681756049,0.998252461095
1576080086477072536,,,0,,1576080086,476998894,"""world""","""hoverOpti/base_link""",,,0.00327325100079,0.0222891177982,0.382367789745,,0.00382369731843,-0.0588503888738,0.000616195746224,0.998259300668
1576080086496971843,,,0,,1576080086,496882945,"""world""","""hoverOpti/base_link""",,,0.00324940355495,0.0222511235625,0.382384985685,,0.00395784724157,-0.0591051040866,0.0013074277651,0.998243062961
1576080086516954711,,,0,,1576080086,516869066,"""world""","""hoverOpti/base_link""",,,0.00329253170639,0.0223310422152,0.382373690605,,0.00385709025577,-0.0588823725615,0.000309168963093,0.998257428458
1576080086536997772,,,0,,1576080086,536906819,"""world""","""hoverOpti/base_link""",,,0.00327243562788,0.0221964083612,0.382341623306,,0.00332922082511,-0.059164246607,0.00218383262741,0.998240321309
1576080086556966836,,,0,,1576080086,556902172,"""world""","""hoverOpti/base_link""",,,0.00327156670392,0.0221661068499,0.382327079773,,0.00347302301583,-0.0592428752148,0.00231223402424,0.998234878884
1576080086577480656,,,0,,1576080086,577409713,"""world""","""hoverOpti/base_link""",,,0.00328634236939,0.0223268363625,0.382369697094,,0.00390699859778,-0.058886085634,0.000141706718386,0.998257053168
1576080086597425098,,,0,,1576080086,597318454,"""world""","""hoverOpti/base_link""",,,0.00333993602544,0.0222555696964,0.382347106934,,0.00383797896805,-0.058689971059,0.00106195140203,0.998268315371
1576080086616886673,,,0,,1576080086,616818532,"""world""","""hoverOpti/base_link""",,,0.00327962823212,0.0222903303802,0.382386177778,,0.00336397826956,-0.0588948377201,0.000931572204848,0.998258089831
1576080086638269500,,,0,,1576080086,638198814,"""world""","""hoverOpti/base_link""",,,0.00328102824278,0.0221988148987,0.382342457771,,0.00332690762431,-0.0591786666997,0.00218197741426,0.998239478316
1576080086657874880,,,0,,1576080086,657797718,"""world""","""hoverOpti/base_link""",,,0.00327747315168,0.0222870931029,0.38238170743,,0.00347132127788,-0.0589591202258,0.00096203493264,0.998253898845
1576080086677427072,,,0,,1576080086,677328929,"""world""","""hoverOpti/base_link""",,,0.00327176693827,0.0222998596728,0.382383227348,,0.00340949079215,-0.0589687056975,0.000961468751641,0.998253546299
1576080086697491590,,,0,,1576080086,697403502,"""world""","""hoverOpti/base_link""",,,0.00329599622637,0.0222794227302,0.382382541895,,0.00357770766536,-0.0587401889343,0.000839994198923,0.998266539869
1576080086716982741,,,0,,1576080086,716886686,"""world""","""hoverOpti/base_link""",,,0.00334983994253,0.0222127046436,0.382327198982,,0.00434507433795,-0.0586130512949,0.00159654174144,0.998270044428
1576080086737093981,,,0,,1576080086,737020735,"""world""","""hoverOpti/base_link""",,,0.00327778374776,0.022172069177,0.382344424725,,0.00349317399079,-0.0592408144946,0.00233778591111,0.998234871356
1576080086758277619,,,0,,1576080086,758208029,"""world""","""hoverOpti/base_link""",,,0.00335564510897,0.0222293864936,0.382328987122,,0.00417270297424,-0.0586623026231,0.00152310509368,0.998268001567
1576080086777004524,,,0,,1576080086,776922283,"""world""","""hoverOpti/base_link""",,,0.00328433630057,0.022191638127,0.382353544235,,0.00331047656607,-0.0591728372011,0.00208577833576,0.998240084154
1576080086796932271,,,0,,1576080086,796851576,"""world""","""hoverOpti/base_link""",,,0.00330122187734,0.0222800932825,0.382393985987,,0.00350469655757,-0.0588186422475,0.000782268365958,0.998262226313
1576080086817353229,,,0,,1576080086,817262561,"""world""","""hoverOpti/base_link""",,,0.00327975023538,0.0221708416939,0.382348686457,,0.00353834468005,-0.0592251666711,0.002271060635,0.998235794807
1576080086837121800,,,0,,1576080086,837032720,"""world""","""hoverOpti/base_link""",,,0.00327374087647,0.0222873724997,0.382401198149,,0.00343659123292,-0.0589394192397,0.000962273848109,0.99825518217
1576080086857351946,,,0,,1576080086,857261829,"""world""","""hoverOpti/base_link""",,,0.00327150756493,0.0223015807569,0.382394373417,,0.00343214755934,-0.0589731130269,0.000976265492885,0.998253193939
1576080086877012665,,,0,,1576080086,876910012,"""world""","""hoverOpti/base_link""",,,0.0032555765938,0.0222746618092,0.382381349802,,0.00360818468976,-0.0590215185502,0.00113344555151,0.998249546282
1576080086896913091,,,0,,1576080086,896828705,"""world""","""hoverOpti/base_link""",,,0.00327684450895,0.0221662763506,0.382336139679,,0.00344562238502,-0.0592804265839,0.00236612184465,0.99823261827
1576080086917017384,,,0,,1576080086,916903733,"""world""","""hoverOpti/base_link""",,,0.00326154613867,0.022338828072,0.382373631001,,0.00368882479735,-0.0590017768207,0.000325416598912,0.998251009019
1576080086936999811,,,0,,1576080086,936906624,"""world""","""hoverOpti/base_link""",,,0.00327163352631,0.0222714915872,0.382373124361,,0.00372855610418,-0.0590455551951,0.00110599174169,0.998247713277
1576080086957048762,,,0,,1576080086,956952485,"""world""","""hoverOpti/base_link""",,,0.00326390913688,0.0223324522376,0.38237452507,,0.00382031644699,-0.0589654713614,0.000374542088161,0.998252642415
1576080086977267290,,,0,,1576080086,977185830,"""world""","""hoverOpti/base_link""",,,0.00323271285743,0.0223034638911,0.382405221462,,0.00369445118671,-0.0587166623154,-0.000205873424726,0.998267830902
1576080086997314834,,,0,,1576080086,997214043,"""world""","""hoverOpti/base_link""",,,0.00332044996321,0.0222685914487,0.382349491119,,0.0036915074866,-0.0587943491817,0.00124298551562,0.998262516708
1576080087017606278,,,0,,1576080087,17531866,"""world""","""hoverOpti/base_link""",,,0.00327707454562,0.0222391393036,0.382372587919,,0.00404790254597,-0.0589582738926,0.00116374709819,0.998251562542
1576080087036988532,,,0,,1576080087,36904415,"""world""","""hoverOpti/base_link""",,,0.0032676262781,0.0222717449069,0.382373690605,,0.00357008582108,-0.0590689957369,0.00116986667776,0.998246833024
1576080087057253780,,,0,,1576080087,57125685,"""world""","""hoverOpti/base_link""",,,0.00327980611473,0.0222918651998,0.382384061813,,0.0034256845809,-0.058900279028,0.00101796108571,0.998257474588
1576080087076985073,,,0,,1576080087,76912030,"""world""","""hoverOpti/base_link""",,,0.00330070964992,0.0222055707127,0.382308453321,,0.00350147875621,-0.0589422795184,0.00190126146629,0.998253441034
1576080087097155461,,,0,,1576080087,97086955,"""world""","""hoverOpti/base_link""",,,0.0032725292258,0.0222898982465,0.382378935814,,0.00343949578322,-0.0589722204833,0.000977905227945,0.99825321977
1576080087116905627,,,0,,1576080087,116837821,"""world""","""hoverOpti/base_link""",,,0.00326329818927,0.0222809650004,0.382377892733,,0.00336839166796,-0.0589683691379,0.00118243578332,0.998253468426
1576080087137177653,,,0,,1576080087,137113690,"""world""","""hoverOpti/base_link""",,,0.00325816776603,0.0221187137067,0.382341891527,,0.0032063161209,-0.0590283189386,0.00217312766259,0.998248793947
1576080087156935447,,,0,,1576080087,156870628,"""world""","""hoverOpti/base_link""",,,0.0032510489691,0.0222440361977,0.38237708807,,0.0039345858767,-0.0591767008748,0.00131644759967,0.998238901302
1576080087177081895,,,0,,1576080087,177011532,"""world""","""hoverOpti/base_link""",,,0.00327516486868,0.0221458412707,0.3823749125,,0.00309228433884,-0.059012084949,0.00160285016434,0.998251192075
1576080087196989817,,,0,,1576080087,196924443,"""world""","""hoverOpti/base_link""",,,0.00328115234151,0.02218785882,0.382358789444,,0.00312945757442,-0.0592510287639,0.00195544235414,0.998236293836
1576080087216822685,,,0,,1576080087,216751553,"""world""","""hoverOpti/base_link""",,,0.00326652289368,0.0222820416093,0.382379233837,,0.0036691978032,-0.0590241162663,0.00120527491855,0.99824908615
1576080087237349529,,,0,,1576080087,237286104,"""world""","""hoverOpti/base_link""",,,0.00325222103857,0.0222199745476,0.382378458977,,0.00289726865458,-0.0591942849577,0.0019354132031,0.998240400224
1576080087257197581,,,0,,1576080087,257130999,"""world""","""hoverOpti/base_link""",,,0.00325082754716,0.0222491305321,0.382386475801,,0.00393755588944,-0.0591369263282,0.00132734187015,0.998241232249
1576080087276969062,,,0,,1576080087,276899014,"""world""","""hoverOpti/base_link""",,,0.00327007682063,0.0223626941442,0.382378309965,,0.00355094605864,-0.0589371217845,7.25184470633e-05,0.998255378748
1576080087296854881,,,0,,1576080087,296785631,"""world""","""hoverOpti/base_link""",,,0.00320791359991,0.0222840812057,0.382388800383,,0.00346999687899,-0.0589168260178,5.96996252089e-05,0.99825686232
1576080087317193158,,,0,,1576080087,317126822,"""world""","""hoverOpti/base_link""",,,0.0033594253473,0.022299580276,0.382332324982,,0.0042396753556,-0.0586203341711,0.000683982353272,0.998271112345
1576080087337088531,,,0,,1576080087,337020664,"""world""","""hoverOpti/base_link""",,,0.00326575804502,0.0223608631641,0.382382750511,,0.00352643890698,-0.0589762878473,0.000137390499549,0.998253145662
1576080087357008852,,,0,,1576080087,356925383,"""world""","""hoverOpti/base_link""",,,0.0033168841619,0.0221774894744,0.382341742516,,0.00343737376264,-0.0590396218502,0.00202509699129,0.998247667914
1576080087377164195,,,0,,1576080087,377093273,"""world""","""hoverOpti/base_link""",,,0.00326928822324,0.0223360620439,0.382371246815,,0.00384487236156,-0.0590815919928,0.000261484659371,0.998245718283
1576080087396961589,,,0,,1576080087,396861838,"""world""","""hoverOpti/base_link""",,,0.00327437045053,0.0222814492881,0.382397860289,,0.00336091674317,-0.0590705441196,0.000877417826222,0.998247767438
1576080087416981476,,,0,,1576080087,416895571,"""world""","""hoverOpti/base_link""",,,0.00335492193699,0.0222084857523,0.382319867611,,0.00429391119184,-0.0586070322025,0.00165125140573,0.998270530203
1576080087436866933,,,0,,1576080087,436791152,"""world""","""hoverOpti/base_link""",,,0.00334327598102,0.0222430955619,0.382316499949,,0.00430610236187,-0.0586764737698,0.00124263091915,0.998266990728
1576080087456878834,,,0,,1576080087,456802845,"""world""","""hoverOpti/base_link""",,,0.00328083988279,0.0221854373813,0.382342278957,,0.00332694841545,-0.0591941200178,0.00221970019855,0.998238478772
1576080087477444711,,,0,,1576080087,477352065,"""world""","""hoverOpti/base_link""",,,0.00327811669558,0.0221742540598,0.382335335016,,0.00326733876086,-0.0592268146808,0.00245860203634,0.998236176562
1576080087496878621,,,0,,1576080087,496792920,"""world""","""hoverOpti/base_link""",,,0.00329384440556,0.0222934503108,0.382382392883,,0.00352369507659,-0.0587709101941,0.000856217528917,0.998264910021
1576080087517047638,,,0,,1576080087,516959343,"""world""","""hoverOpti/base_link""",,,0.00320898555219,0.0222672689706,0.38239133358,,0.00360235866718,-0.058828978376,0.000881720141739,0.998261186707
1576080087537111509,,,0,,1576080087,537032144,"""world""","""hoverOpti/base_link""",,,0.00330702355132,0.022252233699,0.382341444492,,0.00392458542356,-0.0589175151355,0.00133864721637,0.998254242196
1576080087558449453,,,0,,1576080087,558362596,"""world""","""hoverOpti/base_link""",,,0.00334553793073,0.0222789011896,0.382325738668,,0.00435047207718,-0.0586873084473,0.000818148457251,0.998266599588
1576080087579143312,,,0,,1576080087,579056001,"""world""","""hoverOpti/base_link""",,,0.00328788487241,0.0221956260502,0.382339328527,,0.00337255254581,-0.0590823433651,0.00217620150248,0.998245043433
1576080087597222180,,,0,,1576080087,597140608,"""world""","""hoverOpti/base_link""",,,0.00324946059845,0.022331899032,0.382384479046,,0.00337136458572,-0.0587894454824,-0.000116780717503,0.998264705057
1576080087617056469,,,0,,1576080087,616987357,"""world""","""hoverOpti/base_link""",,,0.00329304835759,0.0222643967718,0.382374614477,,0.00356105149756,-0.0588318991652,0.00103980189344,0.99826101064
1576080087636944670,,,0,,1576080087,636857776,"""world""","""hoverOpti/base_link""",,,0.00333441281691,0.0221846625209,0.382300198078,,0.00412708509757,-0.0587495177039,0.00201049185523,0.998262199655
1576080087656967401,,,0,,1576080087,656875905,"""world""","""hoverOpti/base_link""",,,0.0032798955217,0.0221676081419,0.38233345747,,0.00353509331979,-0.0592464065503,0.00238559242757,0.998234278802
1576080087677022609,,,0,,1576080087,676912601,"""world""","""hoverOpti/base_link""",,,0.00326777622104,0.0222204495221,0.382340818644,,0.00326870074852,-0.0591001391085,0.00178764502028,0.998245106914
1576080087696919446,,,0,,1576080087,696823263,"""world""","""hoverOpti/base_link""",,,0.00327521143481,0.0222864653915,0.382374584675,,0.00345333850065,-0.058895997149,0.000965871254117,0.9982576837
1576080087718977345,,,0,,1576080087,718888082,"""world""","""hoverOpti/base_link""",,,0.00330664333887,0.0223398525268,0.382348537445,,0.00369930955475,-0.0587794242743,0.000262809764458,0.998264105997
1576080087737000619,,,0,,1576080087,736930015,"""world""","""hoverOpti/base_link""",,,0.00334144756198,0.0221807397902,0.38230457902,,0.00419846463572,-0.0587449158196,0.00200503346163,0.998262183798
1576080087756950525,,,0,,1576080087,756879485,"""world""","""hoverOpti/base_link""",,,0.00325817940757,0.0223420020193,0.38237541914,,0.00373433573761,-0.0590099910907,0.000317313531077,0.998250356875
1576080087777014352,,,0,,1576080087,776942495,"""world""","""hoverOpti/base_link""",,,0.00336204096675,0.0222488231957,0.382310807705,,0.00428488548179,-0.0585470987698,0.00102196395495,0.99827492835
1576080087797016270,,,0,,1576080087,796916411,"""world""","""hoverOpti/base_link""",,,0.0032526711002,0.0221498701721,0.382356464863,,0.00299098813425,-0.0591934659868,0.00170703652651,0.998240589037
1576080087816994594,,,0,,1576080087,816925997,"""world""","""hoverOpti/base_link""",,,0.00326273776591,0.022362401709,0.382375895977,,0.00357610804623,-0.0589536952912,0.000156618703815,0.998254300634
1576080087837041316,,,0,,1576080087,836965550,"""world""","""hoverOpti/base_link""",,,0.00333964661695,0.0220907051116,0.382310628891,,0.00366416631879,-0.0589468423412,0.00229312612001,0.998251764454
1576080087857043964,,,0,,1576080087,856959897,"""world""","""hoverOpti/base_link""",,,0.00336353573948,0.0222218744457,0.382320761681,,0.00414009951124,-0.0586096719006,0.00152419786926,0.99827122705
1576080087877017684,,,0,,1576080087,876935886,"""world""","""hoverOpti/base_link""",,,0.00325544271618,0.022336512804,0.382374316454,,0.0037739406211,-0.0590675866402,0.000250722012657,0.99824682054
1576080087896867172,,,0,,1576080087,896796840,"""world""","""hoverOpti/base_link""",,,0.00329473637976,0.0222737677395,0.382383018732,,0.00348543321275,-0.058796713458,0.000804625030356,0.998263567812
1576080087917314263,,,0,,1576080087,917245638,"""world""","""hoverOpti/base_link""",,,0.00323997321539,0.0222521554679,0.382408827543,,0.00321770965041,-0.0589023252263,0.000502614548783,0.998258438385
1576080087936922742,,,0,,1576080087,936848864,"""world""","""hoverOpti/base_link""",,,0.00326527701691,0.0223632156849,0.382373929024,,0.00357965853814,-0.0589220722523,7.47432464205e-05,0.998256164449
1576080087957279625,,,0,,1576080087,957205217,"""world""","""hoverOpti/base_link""",,,0.00338986003771,0.0221176464111,0.382280170918,,0.00421545154947,-0.0587106672361,0.00260478120754,0.998262742286
1576080087977056872,,,0,,1576080087,976987637,"""world""","""hoverOpti/base_link""",,,0.00331352138892,0.0223251897842,0.382349520922,,0.00383130143755,-0.0588243544125,0.00034370484505,0.998260936992
1576080087996910623,,,0,,1576080087,996807447,"""world""","""hoverOpti/base_link""",,,0.00327062606812,0.0222656689584,0.382384866476,,0.00374071533063,-0.0589985513048,0.00107341683832,0.998250482479
1576080088016973701,,,0,,1576080088,16903226,"""world""","""hoverOpti/base_link""",,,0.00336300395429,0.0222274698317,0.382324904203,,0.00418703609812,-0.0586596176754,0.00153704608622,0.998268077959
1576080088037032528,,,0,,1576080088,36934453,"""world""","""hoverOpti/base_link""",,,0.00334342941642,0.0221356377006,0.382306367159,,0.00393651233761,-0.0588828242071,0.00241236711084,0.998254224819
1576080088057013791,,,0,,1576080088,56861035,"""world""","""hoverOpti/base_link""",,,0.00331525062211,0.0221281442791,0.382295101881,,0.00353909366877,-0.0590800661691,0.00252746301123,0.998243774099
1576080088077170244,,,0,,1576080088,77068085,"""world""","""hoverOpti/base_link""",,,0.00337810767815,0.0222843773663,0.382329314947,,0.00436273548671,-0.0585204556521,0.000618804312206,0.998276484693
1576080088096967096,,,0,,1576080088,96896652,"""world""","""hoverOpti/base_link""",,,0.00327036436647,0.0223564729095,0.382382124662,,0.0035080915035,-0.0589614782221,0.000175191267377,0.998254079224
1576080088116990485,,,0,,1576080088,116884403,"""world""","""hoverOpti/base_link""",,,0.00330442283303,0.0223395619541,0.382352024317,,0.00370150688988,-0.0588456654701,0.000424451081707,0.998260139615
1576080088136790340,,,0,,1576080088,136714507,"""world""","""hoverOpti/base_link""",,,0.00326588191092,0.0222941860557,0.382363349199,,0.00385253475226,-0.0589299232581,0.000669890906595,0.998254463234
