rosbagTimestamp,header,seq,stamp,secs,nsecs,frame_id,pose,position,x,y,z,orientation,x,y,z,w
1576080082197066350,,92070,,1576080082,196967170,"""world""",,,0.00334577518515,0.0222522132099,0.38232010603,,-0.00419693300501,0.058674056083,-0.00110061268788,-0.998267829418
1576080082217925083,,92071,,1576080082,217843468,"""world""",,,0.00329150212929,0.0223279614002,0.382369101048,,-0.00388563633896,0.058862965554,-0.000225166819291,-0.998258531094
1576080082237075624,,92072,,1576080082,236997441,"""world""",,,0.00327433692291,0.0221584942192,0.382319182158,,-0.00326230050996,0.0592507310212,-0.00237350328825,-0.998235046864
1576080082257233933,,92073,,1576080082,257135648,"""world""",,,0.00327015994117,0.0222907047719,0.382378935814,,-0.00351827032864,0.0589507296681,-0.000930868671276,-0.998254239559
1576080082277164586,,92074,,1576080082,277078980,"""world""",,,0.00326797855087,0.0222830623388,0.382381409407,,-0.00346785900183,0.0588892772794,-0.000943826336879,-0.998258054256
1576080082296980863,,92075,,1576080082,296898986,"""world""",,,0.00333956629038,0.0221778415143,0.382303267717,,-0.00410805549473,0.0587298944592,-0.0020342154894,-0.998263418674
1576080082317060890,,92076,,1576080082,316974947,"""world""",,,0.00336306029931,0.0221246741712,0.382286816835,,-0.00409527868032,0.058844011277,-0.00265741744079,-0.998255312443
1576080082337029873,,92077,,1576080082,336931724,"""world""",,,0.00335903954692,0.0222879573703,0.382321953773,,-0.00423520803452,0.0586456432939,-0.000743283715565,-0.998269617558
1576080082357146582,,92078,,1576080082,357035846,"""world""",,,0.00328247132711,0.0221628844738,0.38233473897,,-0.00347401667386,0.0592117533088,-0.00240191048943,-0.998236596584
1576080082377478530,,92079,,1576080082,377391995,"""world""",,,0.00336243025959,0.0220913682133,0.382290005684,,-0.00417495612055,0.0588935315609,-0.00285415560938,-0.99825155735
1576080082397725050,,92080,,1576080082,397602225,"""world""",,,0.00334573537111,0.0221806894988,0.382302165031,,-0.00408836547285,0.0587380416691,-0.00193452672102,-0.998263239861
1576080082417183747,,92081,,1576080082,417088018,"""world""",,,0.003333712928,0.0222760047764,0.382326334715,,-0.00401137629524,0.0585414730012,-0.000272205914371,-0.998276889324
1576080082437042535,,92082,,1576080082,436940530,"""world""",,,0.00326453289017,0.0222651958466,0.382367193699,,-0.00372456852347,0.0590290166438,-0.00110782671254,-0.998248755932
1576080082459341512,,92083,,1576080082,459203563,"""world""",,,0.00334496144205,0.0222679469734,0.382320821285,,-0.00434172758833,0.0586390048265,-0.000856894534081,-0.998269438744
1576080082477164756,,92084,,1576080082,477051509,"""world""",,,0.00327237183228,0.0222706049681,0.382367700338,,-0.00352381030098,0.0590233244002,-0.00100795982871,-0.99824988842
1576080082497091784,,92085,,1576080082,496996136,"""world""",,,0.0032746726647,0.0222919210792,0.382376611233,,-0.00349649973214,0.0589931346476,-0.000833409605548,-0.998251974583
1576080082517360264,,92086,,1576080082,517284567,"""world""",,,0.00336890248582,0.0220926776528,0.382283657789,,-0.00394407426938,0.0586698502302,-0.00227855728008,-0.998267054558
1576080082537419783,,92087,,1576080082,537322132,"""world""",,,0.00320871267468,0.0223237220198,0.382407784462,,-0.0032612553332,0.0588152185082,0.000294678291539,-0.998263597488
1576080082557572002,,92088,,1576080082,557492074,"""world""",,,0.00338506186381,0.0222229994833,0.38232421875,,-0.00419523986056,0.0585306547582,-0.00141046580393,-0.998275816441
1576080082577500661,,92089,,1576080082,577395731,"""world""",,,0.00334494421259,0.0222503393888,0.382321476936,,-0.00417934684083,0.0586852617562,-0.00113872194197,-0.998267173767
1576080082597127027,,92090,,1576080082,597048486,"""world""",,,0.00335796037689,0.0221789218485,0.382348656654,,-0.00380227086134,0.0585364699364,-0.000951260270085,-0.99827760458
1576080082617117456,,92091,,1576080082,616999200,"""world""",,,0.003298985539,0.0222769845277,0.382384330034,,-0.0034646675922,0.0587588585913,-0.000800367677584,-0.99826592207
1576080082637016348,,92092,,1576080082,636934963,"""world""",,,0.00324016157538,0.0222521945834,0.38237503171,,-0.00358369410969,0.0588753297925,-0.000878944527358,-0.998258531094
1576080082657401312,,92093,,1576080082,657281855,"""world""",,,0.00336076249368,0.0222281049937,0.382329583168,,-0.00411405134946,0.0586722642183,-0.00150485429913,-0.998267769814
1576080082677122829,,92094,,1576080082,677000079,"""world""",,,0.00336884730496,0.022124061361,0.382284611464,,-0.00407714070752,0.0588509328663,-0.00265219435096,-0.99825501442
1576080082697045007,,92095,,1576080082,696964729,"""world""",,,0.00331700546667,0.0221389941871,0.3823171556,,-0.00332928984426,0.0591353736818,-0.00239977217279,-0.998241603374
1576080082717139563,,92096,,1576080082,717044062,"""world""",,,0.0032568697352,0.0223187059164,0.382371217012,,-0.00349567062221,0.0589717440307,-0.000551123463083,-0.998253405094
1576080082737209616,,92097,,1576080082,737071012,"""world""",,,0.0032958232332,0.0223288424313,0.382370650768,,-0.00382833532058,0.0589100457728,-0.000278562220046,-0.998255908489
1576080082757087246,,92098,,1576080082,756984779,"""world""",,,0.00332399783656,0.0221335142851,0.382294386625,,-0.00368987186812,0.0591151341796,-0.0024878680706,-0.998241305351
1576080082777386351,,92099,,1576080082,777291820,"""world""",,,0.00326487584971,0.0222596898675,0.382372021675,,-0.00373375974596,0.0590216964483,-0.00112173368689,-0.998249173164
1576080082797120591,,92100,,1576080082,797026583,"""world""",,,0.00339650106616,0.0221140980721,0.382280558348,,-0.00416886387393,0.0587529726326,-0.00255439220928,-0.998260617256
1576080082817117305,,92101,,1576080082,816980116,"""world""",,,0.00327930343337,0.0221569910645,0.382332026958,,-0.00351990829222,0.059294834733,-0.00234003155492,-0.998231589794
1576080082837055723,,92102,,1576080082,836937636,"""world""",,,0.00335028325208,0.0222923289984,0.382308185101,,-0.00433876411989,0.0586777850986,-0.000774048909079,-0.998267233372
1576080082857126128,,92103,,1576080082,857017524,"""world""",,,0.00322327483445,0.0222191195935,0.382390350103,,-0.00335012003779,0.0589997284114,-0.000859849853441,-0.998252093792
1576080082877266489,,92104,,1576080082,877154125,"""world""",,,0.00327095133252,0.0221130941063,0.38232678175,,-0.00395909138024,0.0591960027814,-0.00265210354701,-0.998235046864
1576080082897172639,,92105,,1576080082,897066389,"""world""",,,0.00330628198572,0.0221312176436,0.382308661938,,-0.00340739358217,0.0590167157352,-0.00233839801513,-0.998248457909
1576080082917054290,,92106,,1576080082,916969050,"""world""",,,0.00327696627937,0.0222851186991,0.382363528013,,-0.00379102933221,0.0589430704713,-0.000593264994677,-0.998254060745
1576080082937029507,,92107,,1576080082,936934175,"""world""",,,0.00328577728942,0.0221838094294,0.382340461016,,-0.00333691993728,0.0591839104891,-0.00207392056473,-0.998239398003
1576080082957128013,,92108,,1576080082,957031257,"""world""",,,0.00329779344611,0.0221303068101,0.382313728333,,-0.00358330411837,0.0591635927558,-0.00258451071568,-0.998238563538
1576080082977486024,,92109,,1576080082,976988802,"""world""",,,0.00326881418005,0.0223259050399,0.382369548082,,-0.00381479621865,0.059030495584,-0.000267607538262,-0.998248875141
1576080082997141993,,92110,,1576080082,997040381,"""world""",,,0.00330421561375,0.0223479270935,0.382380157709,,-0.00361725664698,0.058786790818,-9.40965492191e-06,-0.998264014721
1576080083017051874,,92111,,1576080083,16935978,"""world""",,,0.00327541586012,0.0222833678126,0.382377266884,,-0.00344614731148,0.0589413158596,-0.000930205977056,-0.998255133629
1576080083037134934,,92112,,1576080083,37023762,"""world""",,,0.0032568546012,0.0222407393157,0.382355093956,,-0.00341251050122,0.059064373374,-0.00140966183972,-0.998247385025
1576080083057183118,,92113,,1576080083,57065056,"""world""",,,0.00326815713197,0.0221441090107,0.382306694984,,-0.00353295076638,0.0592748560011,-0.00248603662476,-0.998232364655
1576080083077149196,,92114,,1576080083,77035915,"""world""",,,0.00328008644283,0.0221809111536,0.38233307004,,-0.00331997266039,0.0591824576259,-0.00215279334225,-0.998239338398
1576080083097405216,,92115,,1576080083,97241566,"""world""",,,0.00333717186004,0.0223123859614,0.382339030504,,-0.0039146146737,0.0587141178548,-0.000222561211558,-0.998267173767
1576080083117304109,,92116,,1576080083,117147483,"""world""",,,0.00329692638479,0.0222917348146,0.382372885942,,-0.00363022554666,0.0587892010808,-0.000719703675713,-0.998263537884
1576080083137161515,,92117,,1576080083,137047431,"""world""",,,0.00330785522237,0.0221698451787,0.38233679533,,-0.00335512938909,0.0590026453137,-0.00207307678647,-0.998250126839
1576080083156946280,,92118,,1576080083,156844104,"""world""",,,0.00323746865615,0.0222049411386,0.382362544537,,-0.00390471331775,0.0592604056001,-0.00176117906813,-0.998233377934
1576080083177352283,,92119,,1576080083,177229004,"""world""",,,0.00327829923481,0.0222858879715,0.382383644581,,-0.00354402558878,0.0589793920517,-0.000936894444749,-0.998252511024
1576080083197426258,,92120,,1576080083,197276191,"""world""",,,0.00328699755482,0.0221852175891,0.382341980934,,-0.00337633257732,0.0592357963324,-0.00220419769175,-0.998235881329
1576080083217253844,,92121,,1576080083,217162535,"""world""",,,0.00329904863611,0.0223484896123,0.382383853197,,-0.00369196105748,0.0588076002896,6.69760129313e-06,-0.998262524605
1576080083237134461,,92122,,1576080083,236989806,"""world""",,,0.00327455298975,0.0221900269389,0.382335066795,,-0.00332739693113,0.0591498352587,-0.00213380646892,-0.998241364956
1576080083257324597,,92123,,1576080083,257212426,"""world""",,,0.00326635316014,0.0223635528237,0.382371753454,,-0.00354067888111,0.0590282604098,-0.000178881091415,-0.998250067234
1576080083279231515,,92124,,1576080083,279113545,"""world""",,,0.00328311882913,0.0223272088915,0.382374048233,,-0.00382047588937,0.058892544359,-8.61258522491e-05,-0.998257100582
1576080083297601933,,92125,,1576080083,297451735,"""world""",,,0.00327564356849,0.0223332103342,0.382380843163,,-0.00357250799425,0.0586656965315,0.000251496763667,-0.998271286488
1576080083317134452,,92126,,1576080083,317024300,"""world""",,,0.00328572420403,0.0222409181297,0.382383137941,,-0.00408014887944,0.0589447207749,-0.00109230121598,-0.998252332211
1576080083337034588,,92127,,1576080083,336931337,"""world""",,,0.00331329600886,0.0222802124918,0.38238799572,,-0.00366850360297,0.0588126666844,-0.000802951748483,-0.998262047768
1576080083357311237,,92128,,1576080083,357227072,"""world""",,,0.00327259441838,0.0223498810083,0.382376402617,,-0.00359365809709,0.0589148849249,-0.000154737310368,-0.998256504536
1576080083377194098,,92129,,1576080083,377090335,"""world""",,,0.00330910878256,0.0221236776561,0.382309675217,,-0.00364339957014,0.0591255836189,-0.00247137132101,-0.998240888119
1576080083397435536,,92130,,1576080083,397315417,"""world""",,,0.00327926711179,0.0221329703927,0.38233846426,,-0.00345774833113,0.0589844472706,-0.00192231289111,-0.998251140118
1576080083417289533,,92131,,1576080083,417172664,"""world""",,,0.00326987239532,0.0222685560584,0.382369548082,,-0.00374277238734,0.058974545449,-0.0011266063666,-0.998251855373
1576080083437037057,,92132,,1576080083,436928918,"""world""",,,0.00329345045611,0.0223533008248,0.382385164499,,-0.00369138410315,0.0587416626513,8.830275533e-07,-0.998266458511
1576080083457200971,,92133,,1576080083,457115829,"""world""",,,0.00328770023771,0.0221865288913,0.382322996855,,-0.00367581890896,0.0590730793774,-0.00171683833469,-0.998245418072
1576080083477171743,,92134,,1576080083,477070249,"""world""",,,0.00325731001794,0.0222957581282,0.382394701242,,-0.00358174927533,0.058818526566,0.000344609637978,-0.998262226582
1576080083497401293,,92135,,1576080083,497289301,"""world""",,,0.00327431503683,0.0222822092474,0.382375895977,,-0.00357343372889,0.0589682199061,-0.000997645664029,-0.998253047466
1576080083517369736,,92136,,1576080083,517274571,"""world""",,,0.00330450432375,0.0221562087536,0.38233101368,,-0.00355970882811,0.0591019950807,-0.00226870877668,-0.998243093491
1576080083537213745,,92137,,1576080083,537094776,"""world""",,,0.00330967642367,0.022168494761,0.382339894772,,-0.00342983193696,0.0590151511133,-0.00200917408802,-0.998249232769
1576080083557084447,,92138,,1576080083,556990413,"""world""",,,0.00326733011752,0.0223073139787,0.382405728102,,-0.00336612993851,0.0587345249951,0.000402625941206,-0.998267889023
1576080083577232114,,92139,,1576080083,577105209,"""world""",,,0.00329606933519,0.0222705490887,0.382384061813,,-0.00357122579589,0.0588044710457,-0.00078598537948,-0.998262822628
1576080083598774621,,92140,,1576080083,598567945,"""world""",,,0.00324164936319,0.0222054719925,0.382381886244,,-0.00320472498424,0.058829087764,-0.000915128504857,-0.998262524605
1576080083617161868,,92141,,1576080083,617037595,"""world""",,,0.00329916877672,0.0222554504871,0.382366240025,,-0.00371285062283,0.058802396059,-0.000991157721728,-0.998262286186
1576080083637178966,,92142,,1576080083,637067571,"""world""",,,0.00327105773613,0.0222781263292,0.382374495268,,-0.00362197542563,0.0590426325798,-0.00115047208965,-0.99824821949
1576080083657245637,,92143,,1576080083,657117860,"""world""",,,0.00325839174911,0.022266453132,0.382370918989,,-0.00371069228277,0.0589862577617,-0.00106261670589,-0.998251318932
1576080083677122686,,92144,,1576080083,677024109,"""world""",,,0.00327268382534,0.022172736004,0.382331341505,,-0.00344745418988,0.0592312067747,-0.00234037055634,-0.99823564291
1576080083697019203,,92145,,1576080083,696921029,"""world""",,,0.00334446877241,0.0222272407264,0.38230997324,,-0.00408042548224,0.0586410909891,-0.00144834653474,-0.998269796371
1576080083717423560,,92146,,1576080083,717294190,"""world""",,,0.00328865926713,0.0223511252552,0.382374614477,,-0.00362109974958,0.0588172785938,2.36757819039e-06,-0.998262226582
1576080083737080670,,92147,,1576080083,736984120,"""world""",,,0.00331766204908,0.022178478539,0.382305324078,,-0.00352707598358,0.0590082108974,-0.00226514437236,-0.998248755932
1576080083757162397,,92148,,1576080083,757055934,"""world""",,,0.00327437277883,0.0222945678979,0.382379919291,,-0.00350516475737,0.0589617043734,-0.000949299952481,-0.998253643513
1576080083777378511,,92149,,1576080083,777280760,"""world""",,,0.00327583751641,0.0222878009081,0.382379114628,,-0.00346090365201,0.0589671768248,-0.000975709350314,-0.998253524303
1576080083797051145,,92150,,1576080083,796964041,"""world""",,,0.0033833635971,0.0221248418093,0.382273525,,-0.00409604795277,0.0586616508663,-0.00257964408956,-0.998266279697
1576080083817043361,,92151,,1576080083,816964974,"""world""",,,0.0033158143051,0.0222771745175,0.382331579924,,-0.00370664894581,0.058813650161,-0.00117867439985,-0.998261451721
1576080083836985067,,92152,,1576080083,836882048,"""world""",,,0.00327640189789,0.0221868120134,0.382343620062,,-0.00329539435916,0.0591468177736,-0.0021879163105,-0.998241484165
1576080083859577616,,92153,,1576080083,857182348,"""world""",,,0.00327830016613,0.0221917442977,0.382335573435,,-0.00327211921103,0.0591386929154,-0.00208721472882,-0.998242259026
1576080083877260962,,92154,,1576080083,877152722,"""world""",,,0.00330807757564,0.0223376918584,0.382342755795,,-0.00378349632956,0.0588126964867,-0.000311164389132,-0.998261868954
1576080083897117153,,92155,,1576080083,897006393,"""world""",,,0.00330348219723,0.022149797529,0.382329076529,,-0.00364499050193,0.0590918920934,-0.00216568750329,-0.998243570328
1576080083917018052,,92156,,1576080083,916902810,"""world""",,,0.00327727897093,0.0222997255623,0.382392883301,,-0.00351309031248,0.0589248649776,-0.000928767200094,-0.99825578928
1576080083937046519,,92157,,1576080083,936933668,"""world""",,,0.0032595358789,0.0223446451128,0.382367700338,,-0.00379061326385,0.0590460151434,-0.000272081524599,-0.998248100281
1576080083957953818,,92158,,1576080083,957831451,"""world""",,,0.00323501462117,0.0222340356559,0.382400155067,,-0.00341537385248,0.0589610338211,-0.000628383131698,-0.998254239559
1576080083977155899,,92159,,1576080083,977040052,"""world""",,,0.00335760926828,0.0221158973873,0.38228905201,,-0.00397878605872,0.0588318407536,-0.00262838997878,-0.998256504536
1576080083997310425,,92160,,1576080083,997153448,"""world""",,,0.00336536765099,0.0221239179373,0.382282704115,,-0.004016273655,0.0588035844266,-0.00268012937158,-0.998257994652
1576080084017911414,,92161,,1576080084,17812232,"""world""",,,0.0032618031837,0.0221338849515,0.38234692812,,-0.00378447538242,0.0592928677797,-0.00262623978779,-0.998230040073
1576080084037112309,,92162,,1576080084,37001000,"""world""",,,0.00331187108532,0.0222594160587,0.38234770298,,-0.00368410046212,0.0587756633759,-0.00122016784735,-0.998263716698
1576080084061447644,,92163,,1576080084,61364730,"""world""",,,0.00325930304825,0.022157471627,0.382379293442,,-0.00314526469447,0.0589032918215,-0.00165254541207,-0.998257398605
1576080084077258384,,92164,,1576080084,77149210,"""world""",,,0.00335936201736,0.0222984123975,0.382324784994,,-0.00418872665614,0.0586407259107,-0.000670934969094,-0.998270213604
1576080084097794104,,92165,,1576080084,97666723,"""world""",,,0.00338447745889,0.0222094878554,0.382317245007,,-0.00428313435987,0.0584592819214,-0.00137197598815,-0.998279690742
1576080084117061969,,92166,,1576080084,116952334,"""world""",,,0.00335380574688,0.0222940910608,0.382320076227,,-0.00419115368277,0.0586372241378,-0.00066584860906,-0.998270332813
1576080084137234039,,92167,,1576080084,137120659,"""world""",,,0.00333335716277,0.0220851302147,0.382277607918,,-0.00372899929062,0.0587941780686,-0.00255492329597,-0.998259902
1576080084157217916,,92168,,1576080084,157134574,"""world""",,,0.0032593915239,0.0223377626389,0.382368326187,,-0.00372774619609,0.0590494126081,-0.000242706213612,-0.998248100281
1576080084177189708,,92169,,1576080084,177066453,"""world""",,,0.00326717691496,0.0222409907728,0.382372289896,,-0.00407469272614,0.0589349903166,-0.00110486324411,-0.998252987862
1576080084203140510,,92170,,1576080084,203031480,"""world""",,,0.00330612552352,0.0223418604583,0.382343173027,,-0.00379136088304,0.0588351041079,-0.00037976593012,-0.998260498047
1576080084217044835,,92171,,1576080084,216944174,"""world""",,,0.00325677031651,0.0222746878862,0.382372379303,,-0.00366064277478,0.0590006783605,-0.00113135424908,-0.998250603676
1576080084237699387,,92172,,1576080084,237586375,"""world""",,,0.00324740912765,0.0221208184958,0.382360070944,,-0.00307339662686,0.0590432584286,-0.00193500216119,-0.998248875141
1576080084257443965,,92173,,1576080084,257360376,"""world""",,,0.00326180038974,0.0223658997566,0.38237708807,,-0.00366395153105,0.0589842870831,-0.000193927859073,-0.998252153397
1576080084277247635,,92174,,1576080084,277142556,"""world""",,,0.00330124702305,0.0221884995699,0.382347553968,,-0.00348801608197,0.0589853711426,-0.00198389682919,-0.998250842094
1576080084296980188,,92175,,1576080084,296901944,"""world""",,,0.00325750443153,0.0223427843302,0.382375627756,,-0.003777513979,0.0590188317001,-0.000311195704853,-0.998249709606
1576080084317084772,,92176,,1576080084,316986057,"""world""",,,0.00330589525402,0.0223445799202,0.382344990969,,-0.00383788277395,0.0588144995272,-0.000284970010398,-0.998261511326
1576080084337235499,,92177,,1576080084,337136082,"""world""",,,0.00326408213004,0.0223709084094,0.382377564907,,-0.00355510157533,0.0589625053108,-7.75264124968e-05,-0.998253941536
1576080084357069016,,92178,,1576080084,356967105,"""world""",,,0.00338353030384,0.0222871266305,0.382313996553,,-0.00435524387285,0.0584729090333,-0.000542707450222,-0.998279333115
1576080084377106726,,92179,,1576080084,377024843,"""world""",,,0.00335685769096,0.0223013162613,0.382331341505,,-0.00417933287099,0.058599229902,-0.00063814088935,-0.998272716999
1576080084397049286,,92180,,1576080084,396930048,"""world""",,,0.00325311743654,0.0223292000592,0.382369041443,,-0.00356337591074,0.0589841268957,-0.000559542968404,-0.99825245142
1576080084417328893,,92181,,1576080084,417186394,"""world""",,,0.00322313653305,0.0222294218838,0.382357299328,,-0.00328785297461,0.0588949359953,-0.00117592536844,-0.998258113861
1576080084437294663,,92182,,1576080084,437205447,"""world""",,,0.00326263578609,0.0221687927842,0.382334262133,,-0.00362386624329,0.0592352971435,-0.00224083266221,-0.998234987259
1576080084457009228,,92183,,1576080084,456896915,"""world""",,,0.0032745229546,0.0222161952406,0.382349997759,,-0.00370808551088,0.0589775554836,-0.00147753756028,-0.998251438141
1576080084477095811,,92184,,1576080084,476996968,"""world""",,,0.00321986712515,0.0222480352968,0.382436901331,,-0.00399493658915,0.0590770021081,-0.000926292443182,-0.998245060444
1576080084497846838,,92185,,1576080084,497766793,"""world""",,,0.00327563192695,0.0222961809486,0.382382035255,,-0.0034603762906,0.0589261576533,-0.000941707054153,-0.998255908489
1576080084517155321,,92186,,1576080084,517060785,"""world""",,,0.0033450787887,0.0222799200565,0.382330298424,,-0.00440878653899,0.0586588382721,-0.00081872480223,-0.998268008232
1576080084538148727,,92187,,1576080084,538071396,"""world""",,,0.00328498799354,0.0221800170839,0.382342725992,,-0.00336945801973,0.0591403618455,-0.00212708325125,-0.998241782188
1576080084557092340,,92188,,1576080084,556994822,"""world""",,,0.00328320451081,0.0221941377968,0.382340401411,,-0.00329453777522,0.0592075884342,-0.00221191742457,-0.998237848282
1576080084577028001,,92189,,1576080084,576912988,"""world""",,,0.00337942130864,0.0222090873867,0.382328391075,,-0.00441770069301,0.0584887415171,-0.00151515996549,-0.998277187347
1576080084597978417,,92190,,1576080084,597890009,"""world""",,,0.00327837467194,0.0221655219793,0.382328748703,,-0.00356011884287,0.0592485442758,-0.00238375226036,-0.998234152794
1576080084616980070,,92191,,1576080084,616906455,"""world""",,,0.0032842378132,0.0222244355828,0.382339715958,,-0.00373168638907,0.0587485991418,-0.000932513561565,-0.998265445232
1576080084637350456,,92192,,1576080084,637257560,"""world""",,,0.00328451464884,0.0221295058727,0.382331371307,,-0.00394771341234,0.059128370136,-0.00244161090814,-0.998239696026
1576080084657162401,,92193,,1576080084,657008031,"""world""",,,0.00330781191587,0.0221488922834,0.382319658995,,-0.00339125911705,0.0590242296457,-0.00240899203345,-0.998247981071
1576080084677594091,,92194,,1576080084,677475031,"""world""",,,0.00329318619333,0.0223534349352,0.382369965315,,-0.00369707634673,0.0588139221072,7.93193612481e-05,-0.998262107372
1576080084697068214,,92195,,1576080084,696957465,"""world""",,,0.00323834898882,0.0223055146635,0.382397383451,,-0.00353144109249,0.0589828528464,0.000205982927582,-0.998252809048
1576080084717183513,,92196,,1576080084,717052822,"""world""",,,0.0032583263237,0.022253587842,0.382366508245,,-0.00360457249917,0.0590357333422,-0.0013410828542,-0.998248517513
1576080084737042729,,92197,,1576080084,736966363,"""world""",,,0.00326101668179,0.0221889689565,0.382320344448,,-0.00364631041884,0.0588452778757,-0.00154543842655,-0.998259305954
1576080084757399572,,92198,,1576080084,757244600,"""world""",,,0.00335457734764,0.0223012957722,0.382315963507,,-0.00428161397576,0.0586657300591,-0.000629671150818,-0.99826836586
1576080084777113925,,92199,,1576080084,777007079,"""world""",,,0.00329813640565,0.0223512556404,0.382377684116,,-0.003697312437,0.0587691776454,-2.47782209044e-05,-0.998264729977
1576080084797033582,,92200,,1576080084,796934448,"""world""",,,0.00326818367466,0.0223444141448,0.382364451885,,-0.00380416051485,0.0590303689241,-0.000311312585836,-0.998248934746
1576080084816892655,,92201,,1576080084,816819431,"""world""",,,0.00326197501272,0.0222766306251,0.382372736931,,-0.00371178495698,0.0590083599091,-0.00109264894854,-0.998250007629
1576080084837134882,,92202,,1576080084,837028281,"""world""",,,0.00330888899043,0.022188026458,0.38234052062,,-0.00341233727522,0.0589921809733,-0.00201619230211,-0.998250603676
1576080084857955242,,92203,,1576080084,857850719,"""world""",,,0.00323249981739,0.0223268531263,0.382402658463,,-0.00316084898077,0.0589139647782,0.000356591219315,-0.998257994652
1576080084877038698,,92204,,1576080084,876931378,"""world""",,,0.00327488547191,0.0222766436636,0.38237375021,,-0.00371532491408,0.0589960068464,-0.00111973355524,-0.99825066328
1576080084897244471,,92205,,1576080084,897171376,"""world""",,,0.00327507569455,0.0222474578768,0.382385492325,,-0.00413814932108,0.0589299201965,-0.00110133271664,-0.998252928257
1576080084917037658,,92206,,1576080084,916962527,"""world""",,,0.00327321863733,0.0222700927407,0.382377564907,,-0.00373539049178,0.0590191110969,-0.00114301079884,-0.998249292374
1576080084937555859,,92207,,1576080084,937482278,"""world""",,,0.00326672382653,0.0223066881299,0.382385283709,,-0.00363273173571,0.0587269030511,0.000111911154818,-0.99826747179
1576080084956936616,,92208,,1576080084,956847904,"""world""",,,0.00330694112927,0.0221817605197,0.382341444492,,-0.00341190211475,0.0589817203581,-0.00196774303913,-0.998251378536
1576080084977164298,,92209,,1576080084,977088293,"""world""",,,0.00326978415251,0.0223311875015,0.38238427043,,-0.0035009351559,0.058665342629,0.000262178335106,-0.998271524906
1576080084997082563,,92210,,1576080084,996991111,"""world""",,,0.00326090864837,0.0222748164088,0.382372260094,,-0.00375546398573,0.058998413384,-0.00112997845281,-0.998250365257
1576080085020455856,,92211,,1576080085,20375882,"""world""",,,0.00326747167856,0.0222718659788,0.382372528315,,-0.00364197534509,0.0589788630605,-0.00112753291614,-0.998251974583
1576080085036959826,,92212,,1576080085,36883183,"""world""",,,0.00327899097465,0.0221684891731,0.382323652506,,-0.0032640718855,0.0592456385493,-0.00251494836994,-0.998234927654
1576080085057173159,,92213,,1576080085,57054509,"""world""",,,0.00329721160233,0.0222902484238,0.382376044989,,-0.00365265528671,0.0587690137327,-0.000791967497207,-0.998264670372
1576080085077089116,,92214,,1576080085,76991096,"""world""",,,0.00326113891788,0.0223405752331,0.382371127605,,-0.00369288143702,0.0590192116797,-0.000340562721249,-0.998250007629
1576080085096935532,,92215,,1576080085,96843372,"""world""",,,0.00324736209586,0.0222431309521,0.38235270977,,-0.00347522459924,0.0590300783515,-0.00143659999594,-0.99824911356
1576080085117048150,,92216,,1576080085,116949197,"""world""",,,0.00328830722719,0.0223568677902,0.382377654314,,-0.0037254691124,0.0588165931404,-5.80927990086e-05,-0.998261868954
1576080085137684334,,92217,,1576080085,137600288,"""world""",,,0.00332240574062,0.022191753611,0.382318139076,,-0.0039505911991,0.0588270761073,-0.00167973106727,-0.998259007931
1576080085157208509,,92218,,1576080085,157117199,"""world""",,,0.00324955955148,0.022246517241,0.382362723351,,-0.00340688903816,0.059075396508,-0.00148564763367,-0.998246610165
1576080085177090840,,92219,,1576080085,177004388,"""world""",,,0.00329792080447,0.0222346931696,0.382351666689,,-0.00359262502752,0.0588913336396,-0.00138863280881,-0.998256981373
1576080085197601144,,92220,,1576080085,197515049,"""world""",,,0.00321993092075,0.0221105441451,0.382366597652,,-0.00350160058588,0.0593260005116,-0.00205605500378,-0.998230397701
1576080085217577020,,92221,,1576080085,217505457,"""world""",,,0.0033629364334,0.0222328510135,0.382321298122,,-0.00415837578475,0.0585960410535,-0.00162861146964,-0.998271763325
1576080085237409878,,92222,,1576080085,237315241,"""world""",,,0.00329973036423,0.0221814848483,0.382331758738,,-0.00338955386542,0.0589700043201,-0.00208033039235,-0.998251855373
1576080085256996661,,92223,,1576080085,256903445,"""world""",,,0.00327835977077,0.02216575481,0.382337450981,,-0.00356989796273,0.0592191964388,-0.0023121254053,-0.998236000538
1576080085276982145,,92224,,1576080085,276908050,"""world""",,,0.0033455111552,0.0222701076418,0.382327318192,,-0.0043855314143,0.0586247965693,-0.00077333569061,-0.998270213604
1576080085296965355,,92225,,1576080085,296892219,"""world""",,,0.00338960718364,0.0221104286611,0.382283687592,,-0.00427028909326,0.0586757585406,-0.0026418864727,-0.998264551163
1576080085316918568,,92226,,1576080085,316823210,"""world""",,,0.00334912631661,0.0222104936838,0.382327586412,,-0.00428939098492,0.0586733706295,-0.00156799494289,-0.998266875744
1576080085337471002,,92227,,1576080085,337394732,"""world""",,,0.00332151772454,0.0221929401159,0.382330268621,,-0.00408100988716,0.0585134811699,-0.00120056699961,-0.99827760458
1576080085356993375,,92228,,1576080085,356900814,"""world""",,,0.00325397425331,0.0223426558077,0.382378757,,-0.00376286846586,0.0590108186007,-0.000381927762646,-0.998250186443
1576080085377463747,,92229,,1576080085,377364583,"""world""",,,0.00325732817873,0.0222900863737,0.382385581732,,-0.00352112529799,0.0589019842446,-0.00103551300708,-0.998257100582
1576080085400791713,,92230,,1576080085,400698574,"""world""",,,0.00328824692406,0.0221640523523,0.38232344389,,-0.00362382037565,0.0590724088252,-0.00210209144279,-0.998245000839
1576080085416940658,,92231,,1576080085,416840899,"""world""",,,0.00322247808799,0.0222540106624,0.382364362478,,-0.00353716383688,0.0588798336685,-0.00074332189979,-0.998258590698
1576080085437277267,,92232,,1576080085,437173541,"""world""",,,0.0032672486268,0.0223671030253,0.382383197546,,-0.00350647745654,0.058972351253,-4.9133446737e-05,-0.998253524303
1576080085456923727,,92233,,1576080085,456839531,"""world""",,,0.00320863327943,0.022295800969,0.382381528616,,-0.00395685993135,0.0589375533164,-0.000153044195031,-0.998253822327
1576080085477160060,,92234,,1576080085,477090504,"""world""",,,0.00325035117567,0.0222525075078,0.38236245513,,-0.00365116097964,0.0590438507497,-0.00135426444467,-0.998247802258
1576080085496932223,,92235,,1576080085,496845039,"""world""",,,0.00325839687139,0.0221534576267,0.38235321641,,-0.00363534665667,0.0592532232404,-0.00249060266651,-0.998233318329
1576080085516995228,,92236,,1576080085,516912151,"""world""",,,0.00335740763694,0.0222115311772,0.382322072983,,-0.00436117593199,0.0586493760347,-0.00157110323198,-0.998267889023
1576080085537451996,,92237,,1576080085,537350272,"""world""",,,0.00328911840916,0.0222611296922,0.382368147373,,-0.00379121070728,0.0588991679251,-0.0010741854785,-0.998256146908
1576080085557370835,,92238,,1576080085,557277072,"""world""",,,0.00325901061296,0.0223633423448,0.382395297289,,-0.00358315045014,0.0589565560222,-0.000137465482112,-0.99825412035
1576080085577000765,,92239,,1576080085,576912839,"""world""",,,0.00329878693447,0.0223415121436,0.382343798876,,-0.00378870405257,0.0588092245162,-0.000392663554521,-0.998261988163
1576080085597061540,,92240,,1576080085,596957702,"""world""",,,0.00336950272322,0.0222150404006,0.382326483727,,-0.00424843421206,0.0585177615285,-0.00138845667243,-0.998276412487
1576080085621486148,,92241,,1576080085,621400663,"""world""",,,0.00326496548951,0.0222472213209,0.382386654615,,-0.0040314886719,0.0589475631714,-0.00110490981024,-0.998252332211
1576080085637317418,,92242,,1576080085,637227251,"""world""",,,0.00334566785023,0.0222178976983,0.38232666254,,-0.00432329252362,0.0586183257401,-0.00165301084053,-0.998269796371
1576080085657066407,,92243,,1576080085,656957726,"""world""",,,0.0033011387568,0.0222523808479,0.382351100445,,-0.00387865165249,0.0588690638542,-0.00129583594389,-0.998257398605
1576080085677454487,,92244,,1576080085,677283336,"""world""",,,0.00326386699453,0.0222795773298,0.38240018487,,-0.00329092051834,0.0590221360326,-0.000814989267383,-0.998250961304
1576080085697022376,,92245,,1576080085,696943022,"""world""",,,0.00332037196495,0.0223368313164,0.382357984781,,-0.0039589125663,0.0586545690894,-0.000245828152401,-0.998270452023
1576080085717009349,,92246,,1576080085,716916656,"""world""",,,0.00334056722932,0.0222631786019,0.382360607386,,-0.00377210509032,0.0586815066636,-0.00108432571869,-0.998269021511
1576080085737234330,,92247,,1576080085,737142855,"""world""",,,0.00339125422761,0.0220924317837,0.382274270058,,-0.00410248246044,0.0587498918176,-0.00292271119542,-0.998260080814
1576080085757616400,,92248,,1576080085,757535213,"""world""",,,0.00327487103641,0.0222596656531,0.382404536009,,-0.00393113167956,0.0588620379567,-0.00102086318657,-0.998257935047
1576080085776948476,,92249,,1576080085,776862922,"""world""",,,0.00331551162526,0.0221852529794,0.382318675518,,-0.00350406067446,0.0590205304325,-0.00231198384427,-0.998247981071
1576080085797038211,,92250,,1576080085,796955682,"""world""",,,0.00325410231017,0.0223396904767,0.382378488779,,-0.00379866082221,0.0590564198792,-0.000281326414552,-0.998247385025
1576080085817007677,,92251,,1576080085,816914673,"""world""",,,0.00335048581474,0.0223012845963,0.382315665483,,-0.00432324130088,0.0586434975266,-0.000787392200436,-0.998269379139
1576080085838535714,,92252,,1576080085,838447385,"""world""",,,0.0032570916228,0.0223422963172,0.382374286652,,-0.0037869384978,0.0589680969715,-0.000304663932184,-0.998252689838
1576080085857562922,,92253,,1576080085,857457673,"""world""",,,0.0032760349568,0.0223718471825,0.382380366325,,-0.00360970874317,0.058950483799,-0.000151287124027,-0.998254358768
1576080085876950025,,92254,,1576080085,876866289,"""world""",,,0.00329951825552,0.0222252979875,0.3823325634,,-0.00359942740761,0.0589540600777,-0.00172048329841,-0.998252749443
1576080085897439237,,92255,,1576080085,897345172,"""world""",,,0.00327485473827,0.0222999919206,0.382382124662,,-0.00345645449124,0.0589226819575,-0.000952430185862,-0.998256146908
1576080085917224924,,92256,,1576080085,917134008,"""world""",,,0.00331654725596,0.0221793018281,0.382313519716,,-0.00348078133538,0.0589915625751,-0.00231863232329,-0.998249769211
1576080085937056825,,92257,,1576080085,936965668,"""world""",,,0.00328387483023,0.0223211720586,0.382370769978,,-0.00392466085032,0.0588680244982,-0.000253707636148,-0.998258113861
1576080085957158941,,92258,,1576080085,957067908,"""world""",,,0.00330440374091,0.0221880078316,0.382338255644,,-0.00340709462762,0.0589587315917,-0.00204052799381,-0.998252511024
1576080085977366743,,92259,,1576080085,977271948,"""world""",,,0.00323877949268,0.0223162751645,0.38240852952,,-0.00343333045021,0.0589390993118,0.000102770965896,-0.998255729675
1576080085997954249,,92260,,1576080085,997840696,"""world""",,,0.00330525776371,0.022282762453,0.382379800081,,-0.00357740698382,0.058758713305,-0.000823732989375,-0.998265504837
1576080086017018001,,92261,,1576080086,16912928,"""world""",,,0.00327820912935,0.0223241578788,0.382389008999,,-0.00404913257807,0.0589199848473,-0.000227488679229,-0.998254537582
1576080086037221853,,92262,,1576080086,37140113,"""world""",,,0.00327499397099,0.0222297571599,0.382348418236,,-0.00373456231318,0.0590162202716,-0.0014744179789,-0.99824899435
1576080086056953363,,92263,,1576080086,56869209,"""world""",,,0.00329833850265,0.0222611855716,0.382371127605,,-0.00371525995433,0.0588633082807,-0.00102467520628,-0.998258650303
1576080086077095464,,92264,,1576080086,77009578,"""world""",,,0.00334711559117,0.0221685189754,0.382307589054,,-0.0042237341404,0.0587846785784,-0.0020874957554,-0.998259663582
1576080086096887224,,92265,,1576080086,96800209,"""world""",,,0.00328933889978,0.022189501673,0.38232204318,,-0.00371074094437,0.0590935647488,-0.00191828340758,-0.998243749142
1576080086117017069,,92266,,1576080086,116944263,"""world""",,,0.00330535788089,0.0222820211202,0.382380187511,,-0.00355456233956,0.0588286593556,-0.000762837473303,-0.998261511326
1576080086137278012,,92267,,1576080086,137193366,"""world""",,,0.00328016420826,0.0221825260669,0.382337003946,,-0.00327379372902,0.0591147765517,-0.00215710094199,-0.998243510723
1576080086157139989,,92268,,1576080086,157058444,"""world""",,,0.00324546918273,0.0221591610461,0.382373213768,,-0.00295692007057,0.0591808073223,-0.00165551889222,-0.998241603374
1576080086176977982,,92269,,1576080086,176901785,"""world""",,,0.00325046433136,0.0222408920527,0.382344216108,,-0.00365010416135,0.0591219104826,-0.00164057640359,-0.998242735863
1576080086196984592,,92270,,1576080086,196890340,"""world""",,,0.00329270772636,0.0222860071808,0.382381618023,,-0.00361185520887,0.0588078610599,-0.000806464347988,-0.998262524605
1576080086216983150,,92271,,1576080086,216890645,"""world""",,,0.00325998198241,0.0223410278559,0.382373273373,,-0.00376912765205,0.0589891858399,-0.000262417335762,-0.99825155735
1576080086237052674,,92272,,1576080086,236971110,"""world""",,,0.00326272239909,0.022294908762,0.382389932871,,-0.00342762563378,0.0590047165751,-0.00101323600393,-0.998251378536
1576080086257467374,,92273,,1576080086,257388327,"""world""",,,0.00327738933265,0.0223374813795,0.382369667292,,-0.00384269957431,0.0589264109731,-9.54128845478e-05,-0.99825501442
1576080086277099283,,92274,,1576080086,277000279,"""world""",,,0.00327865406871,0.0222865398973,0.382382541895,,-0.00353299337439,0.0590429008007,-0.000958098389674,-0.998248815536
1576080086298844324,,92275,,1576080086,298742240,"""world""",,,0.00326483789831,0.0222970340401,0.382384985685,,-0.00356465857476,0.0589243620634,-0.000931222806685,-0.998255670071
1576080086318640532,,92276,,1576080086,318563939,"""world""",,,0.00325972563587,0.0223430860788,0.382386833429,,-0.00370980193838,0.0590265989304,-0.000351795664756,-0.998249471188
1576080086336964013,,92277,,1576080086,336876965,"""world""",,,0.00326938577928,0.0223700162023,0.382386595011,,-0.00358745711856,0.0589685104787,-2.89250128844e-05,-0.998253405094
1576080086357539156,,92278,,1576080086,357456405,"""world""",,,0.00326487072743,0.0221670903265,0.382341563702,,-0.00349927903153,0.0591839179397,-0.00229621888138,-0.998238384724
1576080086377739333,,92279,,1576080086,377662242,"""world""",,,0.00326610123739,0.0223450940102,0.382381558418,,-0.00377099937759,0.0590674318373,-0.000327474146616,-0.998246848583
1576080086397850170,,92280,,1576080086,397736378,"""world""",,,0.00326988310553,0.022193254903,0.382348001003,,-0.0033360410016,0.0591221787035,-0.00220464589074,-0.998242795467
1576080086416925490,,92281,,1576080086,416806762,"""world""",,,0.00332561694086,0.0221696346998,0.382307946682,,-0.00356923625804,0.0589814856648,-0.00233315303922,-0.998250067234
1576080086437987886,,92282,,1576080086,437902962,"""world""",,,0.00325580197386,0.0223442986608,0.382377505302,,-0.00376352271996,0.0590272210538,-0.000354470539605,-0.998249232769
1576080086456877918,,92283,,1576080086,456794121,"""world""",,,0.00329874805175,0.0221750196069,0.382347106934,,-0.00338378199376,0.0589645877481,-0.00193681754172,-0.99825245142
1576080086477090408,,92284,,1576080086,476998894,"""world""",,,0.00327325100079,0.0222891177982,0.382367789745,,-0.00382369756699,0.0588503926992,-0.000616195786279,-0.998259365559
1576080086496986614,,92285,,1576080086,496882945,"""world""",,,0.00324940355495,0.0222511235625,0.382384985685,,-0.00395784759894,0.0591051094234,-0.00130742788315,-0.998243153095
1576080086516960588,,92286,,1576080086,516869066,"""world""",,,0.00329253170639,0.0223310422152,0.382373690605,,-0.00385709037073,0.0588823743165,-0.000309168972308,-0.99825745821
1576080086537011674,,92287,,1576080086,536906819,"""world""",,,0.00327243562788,0.0221964083612,0.382341623306,,-0.00332922092639,0.0591642484069,-0.00218383269385,-0.998240351677
1576080086556971997,,92288,,1576080086,556902172,"""world""",,,0.00327156670392,0.0221661068499,0.382327079773,,-0.00347302318551,0.0592428781092,-0.00231223413721,-0.998234927654
1576080086577487403,,92289,,1576080086,577409713,"""world""",,,0.00328634236939,0.0223268363625,0.382369697094,,-0.00390699878335,0.0588860884309,-0.000141706725117,-0.998257100582
1576080086597456464,,92290,,1576080086,597318454,"""world""",,,0.00333993602544,0.0222555696964,0.382347106934,,-0.00383797893301,0.0586899705231,-0.00106195139233,-0.998268306255
1576080086616892495,,92291,,1576080086,616818532,"""world""",,,0.00327962823212,0.0222903303802,0.382386177778,,-0.00336397835054,0.0588948391378,-0.000931572227273,-0.998258113861
1576080086638275446,,92292,,1576080086,638198814,"""world""",,,0.00328102824278,0.0221988148987,0.382342457771,,-0.00332690775394,0.0591786690056,-0.00218197749928,-0.998239517212
1576080086657882725,,92293,,1576080086,657797718,"""world""",,,0.00327747315168,0.0222870931029,0.38238170743,,-0.00347132142633,0.0589591227472,-0.000962034973782,-0.998253941536
1576080086677438637,,92294,,1576080086,677328929,"""world""",,,0.00327176693827,0.0222998596728,0.382383227348,,-0.0034094909206,0.0589687079191,-0.000961468787864,-0.998253583908
1576080086697497254,,92295,,1576080086,697403502,"""world""",,,0.00329599622637,0.0222794227302,0.382382541895,,-0.00357770780101,0.0587401911616,-0.000839994230773,-0.998266577721
1576080086716989654,,92296,,1576080086,716886686,"""world""",,,0.00334983994253,0.0222127046436,0.382327198982,,-0.004345074296,0.058613050729,-0.00159654172603,-0.99827003479
1576080086737111721,,92297,,1576080086,737020735,"""world""",,,0.00327778374776,0.022172069177,0.382344424725,,-0.00349317397922,0.0592408142984,-0.00233778590336,-0.99823486805
1576080086758294730,,92298,,1576080086,758208029,"""world""",,,0.00335564510897,0.0222293864936,0.382328987122,,-0.00417270325124,0.0586623065174,-0.00152310519479,-0.998268067837
1576080086777004527,,92299,,1576080086,776922283,"""world""",,,0.00328433630057,0.022191638127,0.382353544235,,-0.00331047666259,0.0591728389263,-0.00208577839658,-0.998240113258
1576080086796932410,,92300,,1576080086,796851576,"""world""",,,0.00330122187734,0.0222800932825,0.382393985987,,-0.00350469676778,0.0588186457753,-0.000782268412877,-0.998262286186
1576080086817353235,,92301,,1576080086,817262561,"""world""",,,0.00327975023538,0.0221708416939,0.382348686457,,-0.00353834498674,0.0592251718044,-0.00227106083184,-0.998235881329
1576080086837121802,,92302,,1576080086,837032720,"""world""",,,0.00327374087647,0.0222873724997,0.382401198149,,-0.0034365914762,0.0589394234121,-0.00096227391623,-0.998255252838
1576080086857358971,,92303,,1576080086,857261829,"""world""",,,0.00327150756493,0.0223015807569,0.382394373417,,-0.00343214767054,0.0589731149375,-0.000976265524514,-0.99825322628
1576080086877014215,,92304,,1576080086,876910012,"""world""",,,0.0032555765938,0.0222746618092,0.382381349802,,-0.00360818463378,0.0590215176344,-0.00113344553392,-0.998249530792
1576080086896914289,,92305,,1576080086,896828705,"""world""",,,0.00327684450895,0.0221662763506,0.382336139679,,-0.00344562274404,0.0592804327607,-0.00236612209119,-0.998232722282
1576080086917026337,,92306,,1576080086,916903733,"""world""",,,0.00326154613867,0.022338828072,0.382373631001,,-0.00368882506154,0.0590017810464,-0.000325416622218,-0.998251080513
1576080086936999880,,92307,,1576080086,936906624,"""world""",,,0.00327163352631,0.0222714915872,0.382373124361,,-0.0037285562139,0.0590455569327,-0.00110599177424,-0.998247742653
1576080086957053037,,92308,,1576080086,956952485,"""world""",,,0.00326390913688,0.0223324522376,0.38237452507,,-0.00382031640038,0.0589654706419,-0.000374542083591,-0.998252630234
1576080086977271425,,92309,,1576080086,977185830,"""world""",,,0.00323271285743,0.0223034638911,0.382405221462,,-0.00369445118122,0.0587166622281,0.00020587342442,-0.998267829418
1576080086997323059,,92310,,1576080086,997214043,"""world""",,,0.00332044996321,0.0222685914487,0.382349491119,,-0.00369150773622,0.0587943531573,-0.00124298559967,-0.998262584209
1576080087017613819,,92311,,1576080087,17531866,"""world""",,,0.00327707454562,0.0222391393036,0.382372587919,,-0.00404790276662,0.0589582771063,-0.00116374716163,-0.998251616955
1576080087037006422,,92312,,1576080087,36904415,"""world""",,,0.0032676262781,0.0222717449069,0.382373690605,,-0.00357008608989,0.0590690001845,-0.00116986676585,-0.998246908188
1576080087057262325,,92313,,1576080087,57125685,"""world""",,,0.00327980611473,0.0222918651998,0.382384061813,,-0.0034256845247,0.0589002780616,-0.00101796106901,-0.99825745821
1576080087076998964,,92314,,1576080087,76912030,"""world""",,,0.00330070964992,0.0222055707127,0.382308453321,,-0.00350147904828,0.058942284435,-0.00190126162488,-0.998253524303
1576080087097168371,,92315,,1576080087,97086955,"""world""",,,0.0032725292258,0.0222898982465,0.382378935814,,-0.00343949580565,0.0589722208679,-0.000977905234322,-0.99825322628
1576080087116918847,,92316,,1576080087,116837821,"""world""",,,0.00326329818927,0.0222809650004,0.382377892733,,-0.00336839165539,0.0589683689177,-0.0011824357789,-0.998253464699
1576080087137191161,,92317,,1576080087,137113690,"""world""",,,0.00325816776603,0.0221187137067,0.382341891527,,-0.00320631638169,0.0590283237398,-0.00217312783934,-0.998248875141
1576080087156948088,,92318,,1576080087,156870628,"""world""",,,0.0032510489691,0.0222440361977,0.38237708807,,-0.00393458595499,0.0591767020524,-0.00131644762587,-0.998238921165
1576080087177087951,,92319,,1576080087,177011532,"""world""",,,0.00327516486868,0.0221458412707,0.3823749125,,-0.00309228454717,0.0590120889246,-0.00160285027232,-0.998251259327
1576080087197003260,,92320,,1576080087,196924443,"""world""",,,0.00328115234151,0.02218785882,0.382358789444,,-0.00312945758924,0.0592510290444,-0.0019554423634,-0.998236298561
1576080087216829071,,92321,,1576080087,216751553,"""world""",,,0.00326652289368,0.0222820416093,0.382379233837,,-0.00366919790395,0.059024117887,-0.00120527495164,-0.99824911356
1576080087237361932,,92322,,1576080087,237286104,"""world""",,,0.00325222103857,0.0222199745476,0.382378458977,,-0.00289726885967,0.0591942891479,-0.00193541334011,-0.998240470886
1576080087257203587,,92323,,1576080087,257130999,"""world""",,,0.00325082754716,0.0222491305321,0.382386475801,,-0.00393755594268,0.0591369271278,-0.0013273418881,-0.998241245747
1576080087276975500,,92324,,1576080087,276899014,"""world""",,,0.00327007682063,0.0223626941442,0.382378309965,,-0.00355094624683,0.058937124908,-7.25184509065e-05,-0.998255431652
1576080087296870587,,92325,,1576080087,296785631,"""world""",,,0.00320791359991,0.0222840812057,0.382388800383,,-0.00346999708563,0.0589168295264,-5.96996287641e-05,-0.998256921768
1576080087317210547,,92326,,1576080087,317126822,"""world""",,,0.0033594253473,0.022299580276,0.382332324982,,-0.00423967558891,0.0586203373969,-0.00068398239091,-0.998271167278
1576080087337095183,,92327,,1576080087,337020664,"""world""",,,0.00326575804502,0.0223608631641,0.382382750511,,-0.00352643919177,0.0589762926102,-0.000137390510645,-0.99825322628
1576080087357018588,,92328,,1576080087,356925383,"""world""",,,0.0033168841619,0.0221774894744,0.382341742516,,-0.00343737402,0.0590396262705,-0.0020250971429,-0.998247742653
1576080087377186103,,92329,,1576080087,377093273,"""world""",,,0.00326928822324,0.0223360620439,0.382371246815,,-0.0038448725827,0.059081595391,-0.000261484674411,-0.9982457757
1576080087396969868,,92330,,1576080087,396861838,"""world""",,,0.00327437045053,0.0222814492881,0.382397860289,,-0.0033609168604,0.05907054618,-0.000877417856827,-0.998247802258
1576080087416988025,,92331,,1576080087,416895571,"""world""",,,0.00335492193699,0.0222084857523,0.382319867611,,-0.0042939116247,0.0586070381105,-0.00165125157218,-0.998270630836
1576080087436873313,,92332,,1576080087,436791152,"""world""",,,0.00334327598102,0.0222430955619,0.382316499949,,-0.0043061026372,0.0586764775217,-0.0012426309986,-0.998267054558
1576080087456885884,,92333,,1576080087,456802845,"""world""",,,0.00328083988279,0.0221854373813,0.382342278957,,-0.00332694849931,0.0591941215098,-0.0022197002545,-0.998238503933
1576080087477452235,,92334,,1576080087,477352065,"""world""",,,0.00327811669558,0.0221742540598,0.382335335016,,-0.00326733896509,0.0592268183827,-0.00245860219002,-0.998236238956
1576080087496878619,,92335,,1576080087,496792920,"""world""",,,0.00329384440556,0.0222934503108,0.382382392883,,-0.00352369528264,0.0587709136307,-0.000856217578985,-0.998264968395
1576080087517048882,,92336,,1576080087,516959343,"""world""",,,0.00320898555219,0.0222672689706,0.38239133358,,-0.00360235897824,0.0588289834559,-0.000881720217876,-0.998261272907
1576080087537111691,,92337,,1576080087,537032144,"""world""",,,0.00330702355132,0.022252233699,0.382341444492,,-0.00392458541319,0.0589175149798,-0.00133864721283,-0.998254239559
1576080087558456026,,92338,,1576080087,558362596,"""world""",,,0.00334553793073,0.0222789011896,0.382325738668,,-0.00435047224164,0.0586873106658,-0.000818148488179,-0.998266637325
1576080087579143450,,92339,,1576080087,579056001,"""world""",,,0.00328788487241,0.0221956260502,0.382339328527,,-0.00337255280465,0.0590823478997,-0.0021762016695,-0.998245120049
1576080087597222206,,92340,,1576080087,597140608,"""world""",,,0.00324946059845,0.022331899032,0.382384479046,,-0.00337136466987,0.05878944695,0.000116780720418,-0.998264729977
1576080087617063373,,92341,,1576080087,616987357,"""world""",,,0.00329304835759,0.0222643967718,0.382374614477,,-0.00356105179526,0.0588319040835,-0.00103980198037,-0.998261094093
1576080087636953312,,92342,,1576080087,636857776,"""world""",,,0.00333441281691,0.0221846625209,0.382300198078,,-0.00412708520889,0.0587495192885,-0.00201049190946,-0.998262226582
1576080087656967398,,92343,,1576080087,656875905,"""world""",,,0.0032798955217,0.0221676081419,0.38233345747,,-0.0035350935068,0.0592464096844,-0.00238559255376,-0.998234331608
1576080087677061028,,92344,,1576080087,676912601,"""world""",,,0.00326777622104,0.0222204495221,0.382340818644,,-0.00326870079152,0.0591001398861,-0.00178764504381,-0.998245120049
1576080087696926358,,92345,,1576080087,696823263,"""world""",,,0.00327521143481,0.0222864653915,0.382374584675,,-0.00345333875157,0.0588960014284,-0.000965871324297,-0.998257756233
1576080087718983919,,92346,,1576080087,718888082,"""world""",,,0.00330664333887,0.0223398525268,0.382348537445,,-0.00369930965826,0.0587794259191,-0.000262809771812,-0.99826413393
1576080087737013678,,92347,,1576080087,736930015,"""world""",,,0.00334144756198,0.0221807397902,0.38230457902,,-0.00419846456498,0.0587449148297,-0.00200503342785,-0.998262166977
1576080087756967594,,92348,,1576080087,756879485,"""world""",,,0.00325817940757,0.0223420020193,0.38237541914,,-0.00373433576897,0.0590099915862,-0.000317313533742,-0.998250365257
1576080087777028398,,92349,,1576080087,776942495,"""world""",,,0.00336204096675,0.0222488231957,0.382310807705,,-0.00428488571197,0.0585471019149,-0.00102196400985,-0.998274981976
1576080087797035157,,92350,,1576080087,796916411,"""world""",,,0.0032526711002,0.0221498701721,0.382356464863,,-0.00299098831601,0.059193469584,-0.00170703663025,-0.9982406497
1576080087817007394,,92351,,1576080087,816925997,"""world""",,,0.00326273776591,0.022362401709,0.382375895977,,-0.00357610825449,0.0589536987245,-0.000156618712936,-0.998254358768
1576080087837055007,,92352,,1576080087,836965550,"""world""",,,0.00333964661695,0.0220907051116,0.382310628891,,-0.00366416643374,0.0589468441904,-0.00229312619194,-0.998251795769
1576080087857062149,,92353,,1576080087,856959897,"""world""",,,0.00336353573948,0.0222218744457,0.382320761681,,-0.00414009951055,0.0586096718907,-0.001524197869,-0.998271226883
1576080087877030882,,92354,,1576080087,876935886,"""world""",,,0.00325544271618,0.022336512804,0.382374316454,,-0.00377394072711,0.0590675882995,-0.0002507220197,-0.998246848583
1576080087896879561,,92355,,1576080087,896796840,"""world""",,,0.00329473637976,0.0222737677395,0.382383018732,,-0.00348543352447,0.0587967187166,-0.000804625102319,-0.998263657093
1576080087917326959,,92356,,1576080087,917245638,"""world""",,,0.00323997321539,0.0222521554679,0.382408827543,,-0.00321770994924,0.0589023306966,-0.000502614595462,-0.998258531094
1576080087936941957,,92357,,1576080087,936848864,"""world""",,,0.00326527701691,0.0223632156849,0.382373929024,,-0.00357965868898,0.0589220747352,-7.474324957e-05,-0.998256206512
1576080087957294006,,92358,,1576080087,957205217,"""world""",,,0.00338986003771,0.0221176464111,0.382280170918,,-0.00421545188874,0.0587106719613,-0.00260478141718,-0.998262822628
1576080087977070964,,92359,,1576080087,976987637,"""world""",,,0.00331352138892,0.0223251897842,0.382349520922,,-0.00383130158298,0.0588243566453,-0.000343704858096,-0.998260974884
1576080087996918200,,92360,,1576080087,996807447,"""world""",,,0.00327062606812,0.0222656689584,0.382384866476,,-0.00374071556143,0.058998554945,-0.00107341690455,-0.998250544071
1576080088016982116,,92361,,1576080088,16903226,"""world""",,,0.00336300395429,0.0222274698317,0.382324904203,,-0.00418703630567,0.0586596205831,-0.00153704616241,-0.998268127441
1576080088037039801,,92362,,1576080088,36934453,"""world""",,,0.00334342941642,0.0221356377006,0.382306367159,,-0.00393651239574,0.0588828250766,-0.00241236714646,-0.998254239559
1576080088057020459,,92363,,1576080088,56861035,"""world""",,,0.00331525062211,0.0221281442791,0.382295101881,,-0.00353909400292,0.0590800717473,-0.00252746324986,-0.998243868351
1576080088077186488,,92364,,1576080088,77068085,"""world""",,,0.00337810767815,0.0222843773663,0.382329314947,,-0.00436273543164,0.0585204549134,-0.000618804304395,-0.998276472092
1576080088096982585,,92365,,1576080088,96896652,"""world""",,,0.00327036436647,0.0223564729095,0.382382124662,,-0.00350809143856,0.0589614771307,-0.000175191264134,-0.998254060745
1576080088116996781,,92366,,1576080088,116884403,"""world""",,,0.00330442283303,0.0223395619541,0.382352024317,,-0.00370150711387,0.0588456690311,-0.000424451107392,-0.998260200024
1576080088136807799,,92367,,1576080088,136714507,"""world""",,,0.00326588191092,0.0222941860557,0.382363349199,,-0.00385253503919,0.0589299276471,-0.000669890956488,-0.998254537582
1576080088156940230,,92368,,1576080088,156842013,"""world""",,,0.0032591978088,0.0223736613989,0.382385641336,,-0.00348268565722,0.0589677244425,-0.000224852119572,-0.998253881931
1576080088176881289,,92369,,1576080088,176789083,"""world""",,,0.00335942651145,0.0221330765635,0.382282704115,,-0.00407218746841,0.0588316619396,-0.00254639540799,-0.998256385326
1576080088197200878,,92370,,1576080088,197126209,"""world""",,,0.00329594127834,0.0222586505115,0.382343173027,,-0.0036172058899,0.058890145272,-0.00136174773797,-0.998256981373
1576080088216847361,,92371,,1576080088,216748919,"""world""",,,0.00329887657426,0.0222542621195,0.382336586714,,-0.00389410881326,0.0588507242501,-0.00131775951013,-0.99825835228
1576080088240860093,,92372,,1576080088,240759070,"""world""",,,0.00335781136528,0.0222227275372,0.382324755192,,-0.00424571242183,0.058660775423,-0.0015442376025,-0.998267769814
1576080088257509104,,92373,,1576080088,257423497,"""world""",,,0.00338610284962,0.0222092010081,0.382319182158,,-0.00438084919006,0.0585295408964,-0.00132597051561,-0.998275220394
1576080088277044287,,92374,,1576080088,276934142,"""world""",,,0.00335199292749,0.0220978371799,0.382286638021,,-0.00416844477877,0.0588638447225,-0.0027992813848,-0.998253464699
1576080088297026266,,92375,,1576080088,296923617,"""world""",,,0.00336720841005,0.0222616139799,0.382325410843,,-0.00458662305027,0.058567982167,-0.000716252427083,-0.998272657394
1576080088316979992,,92376,,1576080088,316901253,"""world""",,,0.00324495136738,0.022257251665,0.382383942604,,-0.00381474033929,0.0590583086014,-0.00120597332716,-0.998246490955
1576080088336897327,,92377,,1576080088,336820419,"""world""",,,0.00330470106564,0.0223325807601,0.382357150316,,-0.00380485039204,0.0588019788265,-0.000407435232773,-0.998262405396
1576080088357245667,,92378,,1576080088,357151942,"""world""",,,0.00327080953866,0.0223002173007,0.382370889187,,-0.00369319296442,0.0588665567338,-0.000521978596225,-0.998258948326
1576080088376856933,,92379,,1576080088,376757504,"""world""",,,0.00326014845632,0.0223543681204,0.382378429174,,-0.00363946356811,0.058982629329,-0.0001607639133,-0.99825245142
1576080088398372894,,92380,,1576080088,398273359,"""world""",,,0.00334587926045,0.0222815591842,0.382326602936,,-0.00447154277936,0.0586789622903,-0.000843569461722,-0.998266577721
1576080088417020548,,92381,,1576080088,416937456,"""world""",,,0.0033519687131,0.0221276134253,0.38227841258,,-0.00407680682838,0.0588650368154,-0.0025875850115,-0.998254299164
1576080088437181810,,92382,,1576080088,437070757,"""world""",,,0.00334980757907,0.0222287531942,0.382322520018,,-0.00421242369339,0.0586305446923,-0.0015136130387,-0.998269736767
1576080088456910856,,92383,,1576080088,456822898,"""world""",,,0.00331712164916,0.0221372321248,0.382288575172,,-0.00389701547101,0.0587628148496,-0.00192337867338,-0.998262584209
1576080088476977250,,92384,,1576080088,476857490,"""world""",,,0.0033566346392,0.0222141947597,0.382320433855,,-0.00414681201801,0.0586513392627,-0.00149867369328,-0.998268783092
1576080088496907558,,92385,,1576080088,496817161,"""world""",,,0.00335723720491,0.0222308430821,0.382322072983,,-0.00412834063172,0.0586415044963,-0.00151073758025,-0.998269438744
1576080088517581838,,92386,,1576080088,517509810,"""world""",,,0.00321096600965,0.0222962666303,0.382403641939,,-0.00354612176307,0.0589164718986,2.35131155932e-05,-0.998256623745
1576080088537879552,,92387,,1576080088,537794411,"""world""",,,0.0033135372214,0.0222566965967,0.382343798876,,-0.00369621370919,0.0588255748153,-0.00126984959934,-0.998260676861
1576080088557067205,,92388,,1576080088,556981972,"""world""",,,0.00326514872722,0.0223395843059,0.38236695528,,-0.00381955201738,0.0590218678117,-0.000265314680291,-0.998249351978
1576080088576978884,,92389,,1576080088,576890993,"""world""",,,0.00327765801921,0.0221866872162,0.38234308362,,-0.00333067355677,0.0591824129224,-0.00210703117773,-0.998239398003
1576080088596905798,,92390,,1576080088,596821630,"""world""",,,0.00330187706277,0.0223073344678,0.382346630096,,-0.00371652655303,0.0588319115341,-0.000734006986022,-0.998260736465
1576080088616829859,,92391,,1576080088,616753785,"""world""",,,0.00336907012388,0.0221121292561,0.382283776999,,-0.00397254759446,0.0588197521865,-0.00269444286823,-0.998257160187
1576080088636811557,,92392,,1576080088,636713588,"""world""",,,0.00327221956104,0.022170862183,0.382331222296,,-0.00352748390287,0.0592240095139,-0.00228082039393,-0.998235881329
1576080088657401175,,92393,,1576080088,657282922,"""world""",,,0.00330387428403,0.022336198017,0.382347226143,,-0.00379570852965,0.0588215664029,-0.000362119695637,-0.998261272907
1576080088676950951,,92394,,1576080088,676830319,"""world""",,,0.00332902814262,0.0222442671657,0.382335931063,,-0.00378757482395,0.0586760304868,-0.00121162994765,-0.998269200325
1576080088698050708,,92395,,1576080088,697914752,"""world""",,,0.00335202133283,0.0222188420594,0.382322251797,,-0.00431656092405,0.0587020292878,-0.001616252237,-0.998264968395
1576080088716937273,,92396,,1576080088,716826783,"""world""",,,0.00326944119297,0.0222675912082,0.382369011641,,-0.00367861916311,0.0589853264391,-0.00110059208237,-0.998251497746
1576080088736880959,,92397,,1576080088,736770425,"""world""",,,0.00326465629041,0.0221777316183,0.382330328226,,-0.0035509201698,0.0592567399144,-0.00228953920305,-0.998233914375
1576080088757148094,,92398,,1576080088,757062486,"""world""",,,0.00326297921129,0.0223644375801,0.38237541914,,-0.00358810485341,0.0589897111058,1.37015867949e-05,-0.998252213001
1576080088776946833,,92399,,1576080088,776866733,"""world""",,,0.00334548205137,0.0221691485494,0.382285624743,,-0.0041312542744,0.0588889233768,-0.00217529060319,-0.998253643513
1576080088797332783,,92400,,1576080088,797240835,"""world""",,,0.00330130872317,0.0221801158041,0.38234063983,,-0.00344048137777,0.0590331703424,-0.00214478024282,-0.998247861862
1576080088817586389,,92401,,1576080088,817510511,"""world""",,,0.0033519892022,0.0223085191101,0.382321119308,,-0.00417166622356,0.0586008876562,-0.000679511460476,-0.998272538185
1576080088836858188,,92402,,1576080088,836709408,"""world""",,,0.00324170291424,0.0223185252398,0.382375687361,,-0.00405766069889,0.0590769872069,-0.000532420817763,-0.998245120049
