rosbagTimestamp,x,y,theta
1576080082197074370,0.00334577518515,0.0222522132099,0.00171673277699
1576080082217936678,0.00329150212929,0.0223279614002,-7.94582160858e-06
1576080082237078943,0.00327433692291,0.0221584942192,0.00438283507214
1576080082257234458,0.00327015994117,0.0222907047719,0.00145378389574
1576080082277185857,0.00326797855087,0.0222830623388,0.001486234984
1576080082296986328,0.00333956629038,0.0221778415143,0.00360370839996
1576080082317063005,0.00336306029931,0.0221246741712,0.00485726469368
1576080082337031455,0.00335903954692,0.0222879573703,0.000994080751398
1576080082357149941,0.00328247132711,0.0221628844738,0.00441492409208
1576080082377481651,0.00336243025959,0.0220913682133,0.00524298144557
1576080082397722732,0.00334573537111,0.0221806894988,0.00340556013719
1576080082417187293,0.003333712928,0.0222760047764,7.4319403002e-05
1576080082437054885,0.00326453289017,0.0222651958466,0.00178449624135
1576080082459344666,0.00334496144205,0.0222679469734,0.00120995623225
1576080082477168564,0.00327237183228,0.0222706049681,0.00160762053108
1576080082497101557,0.0032746726647,0.0222919210792,0.0012601385966
1576080082517382117,0.00336890248582,0.0220926776528,0.00411476776032
1576080082537424091,0.00320871267468,0.0223237220198,-0.000978727097495
1576080082557584036,0.00338506186381,0.0222229994833,0.00234101237911
1576080082577503580,0.00334494421259,0.0222503393888,0.00179533406788
1576080082597147932,0.00335796037689,0.0221789218485,0.00146413592503
1576080082617123237,0.003298985539,0.0222769845277,0.00119908047453
1576080082637017312,0.00324016157538,0.0222521945834,0.00134215126384
1576080082657405678,0.00336076249368,0.0222281049937,0.002539221545
1576080082677127265,0.00336884730496,0.022124061361,0.00484886265232
1576080082697048702,0.00331700546667,0.0221389941871,0.00442834065854
1576080082717144118,0.0032568697352,0.0223187059164,0.000692849435252
1576080082737213882,0.0032958232332,0.0223288424313,0.000105832524664
1576080082757130341,0.00332399783656,0.0221335142851,0.00456264457744
1576080082777400251,0.00326487584971,0.0222596898675,0.00181141642041
1576080082797143185,0.00339650106616,0.0221140980721,0.00464210739877
1576080082817121681,0.00327930343337,0.0221569910645,0.00428451038016
1576080082837059891,0.00335028325208,0.0222923289984,0.00104342327305
1576080082857140116,0.00322327483445,0.0222191195935,0.00133064631977
1576080082877270217,0.00327095133252,0.0221130941063,0.00486021260255
1576080082897248641,0.00330628198572,0.0221312176436,0.00429636691101
1576080082917065856,0.00327696627937,0.0222851186991,0.000742709586364
1576080082937038899,0.00328577728942,0.0221838094294,0.00377199351025
1576080082957163027,0.00329779344611,0.0221303068101,0.00476933012703
1576080082977490333,0.00326881418005,0.0223259050399,8.44880479123e-05
1576080082997153133,0.00330421561375,0.0223479270935,-0.000409336391762
1576080083017078684,0.00327541586012,0.0222833678126,0.00146107797281
1576080083037146423,0.0032568546012,0.0222407393157,0.00242821376676
1576080083057187626,0.00326815713197,0.0221441090107,0.00457663899138
1576080083077153900,0.00328008644283,0.0221809111536,0.00393260243184
1576080083097410086,0.00333717186004,0.0223123859614,-1.54416572559e-05
1576080083117308870,0.00329692638479,0.0222917348146,0.00101710306671
1576080083137167040,0.00330785522237,0.0221698451787,0.0037692330495
1576080083156956197,0.00323746865615,0.0222049411386,0.00307495226618
1576080083177355982,0.00327829923481,0.0222858879715,0.00146264273274
1576080083197435052,0.00328699755482,0.0221852175891,0.00402891032782
1576080083217264743,0.00329904863611,0.0223484896123,-0.000450720105334
1576080083237152482,0.00327455298975,0.0221900269389,0.00389373920926
1576080083257329677,0.00326635316014,0.0223635528237,-6.12912230277e-05
1576080083279248681,0.00328311882913,0.0223272088915,-0.000279985719352
1576080083297606054,0.00327564356849,0.0223332103342,-0.000927676643191
1576080083317139164,0.00328572420403,0.0222409181297,0.00171167471597
1576080083337062056,0.00331329600886,0.0222802124918,0.00117976581088
1576080083357332215,0.00327259441838,0.0223498810083,-0.000115305305093
1576080083377209878,0.00330910878256,0.0221236776561,0.00453494249999
1576080083397446191,0.00327926711179,0.0221329703927,0.00345404103096
1576080083417301492,0.00326987239532,0.0222685560584,0.00182048300871
1576080083437049965,0.00329345045611,0.0223533008248,-0.000438464906494
1576080083457211927,0.00328770023771,0.0221865288913,0.00301441519332
1576080083477183581,0.00325731001794,0.0222957581282,-0.00111709721994
1576080083497502355,0.00327431503683,0.0222822092474,0.00158136679728
1576080083517404850,0.00330450432375,0.0221562087536,0.00413759816251
1576080083537232499,0.00330967642367,0.022168494761,0.00363179949116
1576080083557093834,0.00326733011752,0.0223073139787,-0.00120760482855
1576080083577244121,0.00329606933519,0.0222705490887,0.00115723616175
1576080083598856299,0.00324164936319,0.0222054719925,0.00146012281499
1576080083617166469,0.00329916877672,0.0222554504871,0.00155296283264
1576080083637190150,0.00327105773613,0.0222781263292,0.0018823380932
1576080083657252020,0.00325839174911,0.022266453132,0.00169555859578
1576080083677187512,0.00327268382534,0.022172736004,0.00429424056141
1576080083697023639,0.00334446877241,0.0222272407264,0.00242983650532
1576080083717430749,0.00328865926713,0.0223511252552,-0.000433694046372
1576080083737095265,0.00331766204908,0.022178478539,0.00413491605387
1576080083757183687,0.00327437277883,0.0222945678979,0.00149232093128
1576080083777393488,0.00327583751641,0.0222878009081,0.00155063615611
1576080083797069860,0.0033833635971,0.0221248418093,0.00470217095439
1576080083817066990,0.0033158143051,0.0222771745175,0.00193060622489
1576080083836989391,0.00327640189789,0.0221868120134,0.00400636160708
1576080083859582707,0.00327830016613,0.0221917442977,0.00380671598387
1576080083877280626,0.00330807757564,0.0223376918584,0.000177439362611
1576080083897189084,0.00330348219723,0.022149797529,0.00392038389905
1576080083917020310,0.00327727897093,0.0222997255623,0.00145035090923
1576080083937052571,0.0032595358789,0.0223446451128,9.62395792827e-05
1576080083957984992,0.00323501462117,0.0222340356559,0.000857788821369
1576080083977160788,0.00335760926828,0.0221158973873,0.00481280189309
1576080083997322948,0.00336536765099,0.0221239179373,0.00491258298527
1576080084017919589,0.0032618031837,0.0221338849515,0.00482837678674
1576080084037117006,0.00331187108532,0.0222594160587,0.00201696633274
1576080084061473383,0.00325930304825,0.022157471627,0.00294927150538
1576080084077262879,0.00335936201736,0.0222984123975,0.000854163766383
1576080084097799055,0.00338447745889,0.0222094878554,0.00225386328007
1576080084117082584,0.00335380574688,0.0222940910608,0.000843680842897
1576080084137239815,0.00333335716277,0.0220851302147,0.00469495361426
1576080084157235175,0.0032593915239,0.0223377626389,4.4630830027e-05
1576080084177193896,0.00326717691496,0.0222409907728,0.00173765521185
1576080084203149678,0.00330612552352,0.0223418604583,0.000314256113074
1576080084217054658,0.00325677031651,0.0222746878862,0.00183959949346
1576080084237759363,0.00324740912765,0.0221208184958,0.00352488853221
1576080084257453225,0.00326180038974,0.0223658997566,-4.53690277825e-05
1576080084277257142,0.00330124702305,0.0221884995699,0.00357425372288
1576080084296994909,0.00325750443153,0.0223427843302,0.000176643718936
1576080084317096483,0.00330589525402,0.0223445799202,0.000118321478283
1576080084337270887,0.00326408213004,0.0223709084094,-0.00026630491247
1576080084357150729,0.00338353030384,0.0222871266305,0.000578173644065
1576080084377116158,0.00335685769096,0.0223013162613,0.00078968963887
1576080084397069472,0.00325311743654,0.0223292000592,0.000701647546688
1576080084417335308,0.00322313653305,0.0222294218838,0.0019741763877
1576080084437303862,0.00326263578609,0.0221687927842,0.0040730349152
1576080084457023516,0.0032745229546,0.0222161952406,0.00253012682683
1576080084477100349,0.00321986712515,0.0222480352968,0.00138699880844
1576080084497854958,0.00327563192695,0.0222961809486,0.00148261357188
1576080084517164272,0.0033450787887,0.0222799200565,0.00112512883784
1576080084538158197,0.00328498799354,0.0221800170839,0.00387526831348
1576080084557102865,0.00328320451081,0.0221941377968,0.00405435879089
1576080084577053642,0.00337942130864,0.0222090873867,0.0025256137015
1576080084597993658,0.00327837467194,0.0221655219793,0.00436790956218
1576080084616995481,0.0032842378132,0.0222244355828,0.00143322407501
1576080084637365001,0.00328451464884,0.0221295058727,0.00443884307332
1576080084657169332,0.00330781191587,0.0221488922834,0.00444016950047
1576080084677651371,0.00329318619333,0.0223534349352,-0.000597374822172
1576080084697092587,0.00323834898882,0.0223055146635,-0.000833635152249
1576080084717196490,0.0032583263237,0.022253587842,0.0022676815516
1576080084737065911,0.00326101668179,0.0221889689565,0.00267489152742
1576080084757404216,0.00335457734764,0.0223012957722,0.000760025433248
1576080084777141089,0.00329813640565,0.0223512556404,-0.0003877842433
1576080084797046336,0.00326818367466,0.0223444141448,0.000173622941212
1576080084816911301,0.00326197501272,0.0222766306251,0.00175564959214
1576080084837167363,0.00330888899043,0.022188026458,0.00364813288922
1576080084857961663,0.00323249981739,0.0223268531263,-0.00109195625596
1576080084877043818,0.00327488547191,0.0222766436636,0.00180977140838
1576080084897267134,0.00327507569455,0.0222474578768,0.00172306562098
1576080084917073480,0.00327321863733,0.0222700927407,0.00185401906285
1576080084937578154,0.00326672382653,0.0223066881299,-0.000654628047989
1576080084956945691,0.00330694112927,0.0221817605197,0.00355084240919
1576080084977188748,0.00326978415251,0.0223311875015,-0.000940692337067
1576080084997096893,0.00326090864837,0.0222748164088,0.00182558166478
1576080085020470378,0.00326747167856,0.0222718659788,0.00183428849374
1576080085037007788,0.00327899097465,0.0221684891731,0.00466704304213
1576080085057178533,0.00329721160233,0.0222902484238,0.00115987318201
1576080085077098986,0.00326113891788,0.0223405752331,0.000245743584802
1576080085096943820,0.00324736209586,0.0222431309521,0.00247513850987
1576080085117051638,0.00328830722719,0.0223568677902,-0.000324500277072
1576080085137698498,0.00332240574062,0.022191753611,0.00290895143333
1576080085157218363,0.00324955955148,0.022246517241,0.00258158340738
1576080085177111236,0.00329792080447,0.0222346931696,0.00236568983453
1576080085197610433,0.00321993092075,0.0221105441451,0.00371552993379
1576080085217594272,0.0033629364334,0.0222328510135,0.00278338621666
1576080085237414516,0.00329973036423,0.0221814848483,0.00377992710712
1576080085257004866,0.00327835977077,0.02216575481,0.00422291921391
1576080085276999419,0.0033455111552,0.0222701076418,0.00103692247466
1576080085296982380,0.00338960718364,0.0221104286611,0.00480660461003
1576080085316944423,0.00334912631661,0.0222104936838,0.00264542930412
1576080085337531517,0.00332151772454,0.0221929401159,0.00193264719747
1576080085357002204,0.00325397425331,0.0223426558077,0.000320652301051
1576080085377466964,0.00325732817873,0.0222900863737,0.00166416311947
1576080085400839061,0.00328824692406,0.0221640523523,0.00379517057715
1576080085416952412,0.00322247808799,0.0222540106624,0.00107497387669
1576080085437286957,0.0032672486268,0.0223671030253,-0.000317684764713
1576080085456934045,0.00320863327943,0.022295800969,-0.00016198675145
1576080085477196628,0.00325035117567,0.0222525075078,0.00228858702929
1576080085496941426,0.00325839687139,0.0221534576267,0.0045737338862
1576080085517006939,0.00335740763694,0.0222115311772,0.00264339544804
1576080085537497692,0.00328911840916,0.0222611296922,0.00170989215184
1576080085557373590,0.00325901061296,0.0223633423448,-0.000149085861672
1576080085577004057,0.00329878693447,0.0223415121436,0.00034069740929
1576080085597071393,0.00336950272322,0.0222150404006,0.00229060153667
1576080085621490099,0.00326496548951,0.0222472213209,0.00174277888237
1576080085637342605,0.00334566785023,0.0222178976983,0.00281279103295
1576080085657070071,0.0033011387568,0.0222523808479,0.00214536392765
1576080085677486111,0.00326386699453,0.0222795773298,0.00124734475793
1576080085697044710,0.00332037196495,0.0223368313164,2.65721795464e-05
1576080085717022665,0.00334056722932,0.0222631786019,0.00173413741503
1576080085737237866,0.00339125422761,0.0220924317837,0.00539046156317
1576080085757626729,0.00327487103641,0.0222596656531,0.00158637522509
1576080085776958138,0.00331551162526,0.0221852529794,0.00423174511043
1576080085797052281,0.00325410231017,0.0223396904767,0.000113789835244
1576080085817015768,0.00335048581474,0.0223012845963,0.00107237578296
1576080085838545614,0.0032570916228,0.0223422963172,0.000162778114493
1576080085857586470,0.0032760349568,0.0223718471825,-0.000124406766208
1576080085876959929,0.00329951825552,0.0222252979875,0.00303163460748
1576080085897449772,0.00327485473827,0.0222999919206,0.00150466094417
1576080085917234855,0.00331654725596,0.0221793018281,0.00424806133142
1576080085937065173,0.00328387483023,0.0223211720586,4.47676279064e-05
1576080085957167115,0.00330440374091,0.0221880078316,0.00369789127911
1576080085977375262,0.00323877949268,0.0223162751645,-0.000614165078634
1576080085997964124,0.00330525776371,0.022282762453,0.00123271384947
1576080086017021331,0.00327820912935,0.0223241578788,-2.31270209049e-05
1576080086037230081,0.00327499397099,0.0222297571599,0.00252043537784
1576080086056961659,0.00329833850265,0.0222611855716,0.00161962228898
1576080086077103953,0.00334711559117,0.0221685189754,0.00369670766898
1576080086096895416,0.00328933889978,0.022189501673,0.00341513029972
1576080086117029638,0.00330535788089,0.0222820211202,0.00111250339001
1576080086137282516,0.00328016420826,0.0221825260669,0.00394716831464
1576080086157143239,0.00324546918273,0.0221591610461,0.0029760836526
1576080086176993914,0.00325046433136,0.0222408920527,0.00286381274973
1576080086196987809,0.00329270772636,0.0222860071808,0.00119357176234
1576080086216987559,0.00325998198241,0.0223410278559,7.97968241914e-05
1576080086237056251,0.00326272239909,0.022294908762,0.00162978637884
1576080086257468533,0.00327738933265,0.0223374813795,-0.000264215040673
1576080086277110839,0.00327865406871,0.0222865398973,0.00150614725292
1576080086298856339,0.00326483789831,0.0222970340401,0.00144917115843
1576080086318661487,0.00325972563587,0.0223430860788,0.000266261123094
1576080086336972275,0.00326938577928,0.0223700162023,-0.000367903609731
1576080086357559912,0.00326487072743,0.0221670903265,0.0041995848826
1576080086377760277,0.00326610123739,0.0223450940102,0.00020977741232
1576080086397867174,0.00326988310553,0.022193254903,0.0040353030564
1576080086416963186,0.00332561694086,0.0221696346998,0.00426680943568
1576080086437997702,0.00325580197386,0.0223442986608,0.000265247724025
1576080086456886477,0.00329874805175,0.0221750196069,0.00349211419133
1576080086477093803,0.00327325100079,0.0222891177982,0.000785636453973
1576080086496998733,0.00324940355495,0.0222511235625,0.00215748144796
1576080086516982916,0.00329253170639,0.0223310422152,0.000164169603104
1576080086537020653,0.00327243562788,0.0221964083612,0.00399401626404
1576080086556997369,0.00327156670392,0.0221661068499,0.00423454583643
1576080086577502924,0.00328634236939,0.0223268363625,-0.000178453853913
1576080086597460901,0.00333993602544,0.0222555696964,0.00168130791689
1576080086616914393,0.00327962823212,0.0222903303802,0.00147388319739
1576080086638297342,0.00328102824278,0.0221988148987,0.00399047524433
1576080086657904968,0.00327747315168,0.0222870931029,0.00152196101209
1576080086677448455,0.00327176693827,0.0222998596728,0.00152810166892
1576080086697510049,0.00329599622637,0.0222794227302,0.00126549985767
1576080086716994407,0.00334983994253,0.0222127046436,0.00269673996074
1576080086737116092,0.00327778374776,0.022172069177,0.0042835285629
1576080086758306431,0.00335564510897,0.0222293864936,0.00256906137927
1576080086777012436,0.00328433630057,0.022191638127,0.00379905360741
1576080086796940187,0.00330122187734,0.0222800932825,0.00115754520082
1576080086817360705,0.00327975023538,0.0221708416939,0.00414408084582
1576080086837129800,0.00327374087647,0.0222873724997,0.0015266970263
1576080086857362275,0.00327150756493,0.0223015807569,0.00155513011063
1576080086877022019,0.0032555765938,0.0222746618092,0.00184989294435
1576080086896921953,0.00327684450895,0.0221662763506,0.0043459302384
1576080086917029174,0.00326154613867,0.022338828072,0.000215903716185
1576080086937009413,0.00327163352631,0.0222714915872,0.00178021360493
1576080086957055567,0.00326390913688,0.0223324522376,0.000299323263576
1576080086977274523,0.00323271285743,0.0223034638911,-0.000850751367943
1576080086997326429,0.00332044996321,0.0222685914487,0.00206183017542
1576080087017617479,0.00327707454562,0.0222391393036,0.00185903725024
1576080087037010755,0.0032676262781,0.0222717449069,0.00192732095909
1576080087057265865,0.00327980611473,0.0222918651998,0.00164020947867
1576080087077008605,0.00330070964992,0.0222055707127,0.00340679458333
1576080087097177433,0.0032725292258,0.0222898982465,0.00155755992902
1576080087116927741,0.00326329818927,0.0222809650004,0.00197723786156
1576080087137201282,0.00325816776603,0.0221187137067,0.00398792449695
1576080087156957113,0.0032510489691,0.0222440361977,0.0021778440228
1576080087177106958,0.00327516486868,0.0221458412707,0.00285502165324
1576080087197007545,0.00328115234151,0.02218785882,0.0035581351753
1576080087216846469,0.00326652289368,0.0222820416093,0.00198703508233
1576080087237371681,0.00325222103857,0.0222199745476,0.00354587283292
1576080087257222769,0.00325082754716,0.0222491305321,0.0021996945291
1576080087276995691,0.00327007682063,0.0223626941442,-0.000275696527172
1576080087296874022,0.00320791359991,0.0222840812057,-0.000291716485669
1576080087317223778,0.0033594253473,0.022299580276,0.000874548371218
1576080087337122070,0.00326575804502,0.0223608631641,-0.000142643848201
1576080087357042819,0.0033168841619,0.0221774894744,0.00366276239305
1576080087377189825,0.00326928822324,0.0223360620439,6.82056944919e-05
1576080087396982203,0.00327437045053,0.0222814492881,0.00136422009686
1576080087416991752,0.00335492193699,0.0222084857523,0.0028128152482
1576080087436876554,0.00334327598102,0.0222430955619,0.00198932278185
1576080087456889146,0.00328083988279,0.0221854373813,0.00406622217551
1576080087477455873,0.00327811669558,0.0221742540598,0.00455347213845
1576080087496887392,0.00329384440556,0.0222934503108,0.00130429358496
1576080087517066133,0.00320898555219,0.0222672689706,0.00134584464482
1576080087537120041,0.00330702355132,0.022252233699,0.00222562270076
1576080087558477714,0.00334553793073,0.0222789011896,0.00113061472541
1576080087579153233,0.00328788487241,0.0221956260502,0.00397400931203
1576080087597232144,0.00324946059845,0.022331899032,-0.000633939420467
1576080087617069988,0.00329304835759,0.0222643967718,0.00166853282925
1576080087636956907,0.00333441281691,0.0221846625209,0.00355361202354
1576080087656977608,0.0032798955217,0.0221676081419,0.00437461016245
1576080087677092499,0.00326777622104,0.0222204495221,0.00320505342845
1576080087696965872,0.00327521143481,0.0222864653915,0.00153223266973
1576080087718995715,0.00330664333887,0.0223398525268,9.04455320699e-05
1576080087737023694,0.00334144756198,0.0221807397902,0.00353422805928
1576080087756971450,0.00325817940757,0.0223420020193,0.000194142569113
1576080087777036821,0.00336204096675,0.0222488231957,0.0015492899628
1576080087797044299,0.0032526711002,0.0221498701721,0.0030755331966
1576080087817017203,0.00326273776591,0.022362401709,-0.000109721667524
1576080087837063722,0.00333964661695,0.0220907051116,0.00417528813894
1576080087857065965,0.00336353573948,0.0222218744457,0.00257552666818
1576080087877040707,0.00325544271618,0.022336512804,5.51143674278e-05
1576080087896887514,0.00329473637976,0.0222737677395,0.00120492362332
1576080087917336539,0.00323997321539,0.0222521554679,0.000628780592232
1576080087936948047,0.00326527701691,0.0223632156849,-0.000274522159168
1576080087957302468,0.00338986003771,0.0221176464111,0.00473822195533
1576080087977079477,0.00331352138892,0.0223251897842,0.000237107554454
1576080087996937155,0.00327062606812,0.0222656689584,0.00171361607533
1576080088016992252,0.00336300395429,0.0222274698317,0.00259541608464
1576080088037048015,0.00334342941642,0.0221356377006,0.00438314288517
1576080088057026799,0.00331525062211,0.0221281442791,0.00466042871743
1576080088077198625,0.00337810767815,0.0222843773663,0.000729856476918
1576080088096986231,0.00327036436647,0.0223564729095,-6.4361228774e-05
1576080088117004598,0.00330442283303,0.0223395619541,0.000414661837884
1576080088136854876,0.00326588191092,0.0222941860557,0.000889563020346
1576080088156960570,0.0032591978088,0.0223736613989,3.84543291061e-05
1576080088176885841,0.00335942651145,0.0221330765635,0.00463688884283
1576080088197220899,0.00329594127834,0.0222586505115,0.00230873091192
1576080088216851342,0.00329887657426,0.0222542621195,0.00218774476165
1576080088240874054,0.00335781136528,0.0222227275372,0.00260293199638
1576080088257521226,0.00338610284962,0.0222092010081,0.00214927854591
1576080088277071678,0.00335199292749,0.0220978371799,0.00513365397134
1576080088297050952,0.00336720841005,0.0222616139799,0.000898939644827
1576080088316988924,0.00324495136738,0.022257251665,0.00197088479693
1576080088336906420,0.00330470106564,0.0223325807601,0.000368537704286
1576080088357260932,0.00327080953866,0.0223002173007,0.000611567184688
1576080088376859500,0.00326014845632,0.0223543681204,-0.000109123576835
1576080088398377198,0.00334587926045,0.0222815591842,0.00116748426386
1576080088417045716,0.0033519687131,0.0221276134253,0.00471890398589
1576080088437191471,0.00334980757907,0.0222287531942,0.00254554168714
1576080088456919924,0.00331712164916,0.0221372321248,0.00340560595322
1576080088476989198,0.0033566346392,0.0222141947597,0.0025230909887
1576080088496921896,0.00335723720491,0.0222308430821,0.0025496034775
1576080088517600344,0.00321096600965,0.0222962666303,-0.000468043472467
1576080088537884365,0.0033135372214,0.0222566965967,0.00211505963166
1576080088557080412,0.00326514872722,0.0223395843059,7.93792854228e-05
1576080088576991514,0.00327765801921,0.0221866872162,0.00383931875551
1576080088596914618,0.00330187706277,0.0223073344678,0.00103532762887
1576080088616842050,0.00336907012388,0.0221121292561,0.0049464231049
1576080088636815739,0.00327221956104,0.022170862183,0.0041650068206
1576080088657405423,0.00330387428403,0.022336198017,0.000278367426007
1576080088676955410,0.00332902814262,0.0222442671657,0.00198827987399
1576080088698054504,0.00335202133283,0.0222188420594,0.00273899816548
1576080088716944122,0.00326944119297,0.0222675912082,0.00177572506731
1576080088736884884,0.00326465629041,0.0221777316183,0.0041795301191
1576080088757152034,0.00326297921129,0.0223644375801,-0.00045383622706
1576080088776954991,0.00334548205137,0.0221691485494,0.00388336479611
1576080088797342997,0.00330130872317,0.0221801158041,0.00390305885283
1576080088817602213,0.0033519892022,0.0223085191101,0.000873750197207
1576080088836864498,0.00324170291424,0.0223185252398,0.000587646278205
1576080088857034407,0.00329858972691,0.0222913827747,0.00108709270777
1576080088876945785,0.00324808410369,0.0222461298108,0.00234212137316
1576080088900714620,0.00329996878281,0.0223467219621,-0.00039741432875
1576080088917337912,0.00328874355182,0.0222698226571,0.00143776485593
1576080088937142119,0.00331007642671,0.0222738664597,0.00189496062056
1576080088957453563,0.00335369352251,0.0222334489226,0.00254704637573
1576080088976867809,0.00324620236643,0.0222551338375,0.000418062897614
1576080088996860207,0.00326646282338,0.0222983658314,0.000263836747508
1576080089016908052,0.00328031042591,0.0223145205528,-0.000352724096066
1576080089037584825,0.00335766910575,0.0222228337079,0.00256035580412
1576080089056985479,0.00338585861027,0.022213159129,0.00246433786884
1576080089076969592,0.00337750627659,0.0222821887583,0.000734348098115
1576080089096879446,0.00333813065663,0.0221293307841,0.0044511868972
1576080089116960740,0.00331892841496,0.0221657697111,0.0041797898482
1576080089137521091,0.00328966183588,0.0223361346871,-0.000685083872567
1576080089156881380,0.0032836003229,0.0222407560796,0.00187094594933
1576080089176886061,0.00338068092242,0.0222057662904,0.00229912916616
1576080089196886708,0.0033649886027,0.02222825028,0.00272247480657
1576080089219065223,0.00337887834758,0.022268364206,0.000983001454123
1576080089236954240,0.00329810520634,0.0222812201828,0.0012503262153
1576080089257002790,0.00330087495968,0.0222426094115,0.00215139856263
1576080089277248259,0.00338767794892,0.0220877230167,0.004964161721
1576080089296977813,0.00338012026623,0.0221982188523,0.00268198468075
1576080089316858528,0.00329230679199,0.0223226379603,-4.18866359072e-05
1576080089336903563,0.00339324236847,0.0222150441259,0.00251544399967
1576080089356997182,0.00337591674179,0.0222084484994,0.00243667002537
1576080089376952769,0.0032761557959,0.0223097074777,0.000283112263186
1576080089396959018,0.00327128451318,0.022361183539,-0.000118213790445
1576080089417155731,0.00335624208674,0.0221806447953,0.00314623147874
1576080089437082959,0.00327773625031,0.0222901646048,0.00153662517047
1576080089456834019,0.0033499749843,0.0222164802253,0.0028255682604
1576080089477085271,0.00326605793089,0.0222726594657,0.00195453796523
1576080089496917705,0.00327251153067,0.0223514214158,-0.000138057915931
1576080089516911560,0.00335768284276,0.022227473557,0.00253567071218
1576080089540628256,0.00326294498518,0.0222751572728,0.00184666278132
1576080089556875500,0.00331524573267,0.0221715793014,0.00427460484771
1576080089577115175,0.00326886121184,0.0223679766059,-0.000157356468659
1576080089596944424,0.00326374801807,0.0223667491227,-0.000153543240722
1576080089616838045,0.00329054961912,0.0223422683775,-0.000512689697054
1576080089636916101,0.00331146735698,0.0222438238561,0.00212889771705
1576080089657967272,0.0032611831557,0.0223641321063,-0.000270167801981
1576080089677369067,0.00328969210386,0.0221730768681,0.00411516740162
1576080089696916363,0.00326483906247,0.0223566815257,-4.44165383649e-05
1576080089717008330,0.00327331083827,0.0222923215479,0.00146965083168
1576080089736920508,0.00327070849016,0.0223003104329,0.00137884863218
1576080089756940902,0.00327461538836,0.0222929641604,0.00159353198085
1576080089777134535,0.00336878490634,0.0222208946943,0.00262221607126
1576080089796966546,0.00326066929847,0.0223212875426,0.000619671980908
1576080089816866864,0.00336399069056,0.0222218222916,0.00263850350443
1576080089836870818,0.0032824173104,0.0222881343216,0.00137120945222
1576080089856926816,0.00328834820539,0.0221378337592,0.00446545576247
1576080089876901988,0.003272770904,0.0222966428846,0.00146469987403
1576080089896846938,0.00328660313971,0.0223435610533,-0.000175964135525
1576080089916870425,0.00328356586397,0.0221695750952,0.00407818039506
1576080089937128772,0.00327646452934,0.0223323479295,0.000478716375375
1576080089959990875,0.00330012151971,0.0222780201584,0.00126434727671
1576080089976902538,0.00324990437366,0.0222452953458,0.000633234591057
1576080089997039843,0.00330548151396,0.0222716443241,0.00135254491689
1576080090016869617,0.00323785096407,0.0221986696124,0.00335069283105
1576080090036983122,0.0033643655479,0.0222919136286,0.000716987228416
1576080090057002424,0.0032734584529,0.0222863480449,0.00154325400191
1576080090077085114,0.00331148668192,0.0222718995064,0.00172462502294
1576080090096842121,0.00329306069762,0.022322146222,3.81684376223e-05
1576080090116835678,0.00329271727242,0.022281806916,0.00118852457762
1576080090139983206,0.00335893989541,0.0222300570458,0.00249334133037
1576080090156965456,0.00328106526285,0.0221876297146,0.0039360320999
1576080090176978159,0.00327027239837,0.022356197238,8.0630505059e-05
1576080090196984986,0.00325933634304,0.0223162900656,0.000851914844764
1576080090216868553,0.00331175117753,0.0221538357437,0.00460060088626
1576080090237019276,0.00336801889353,0.0221229605377,0.00497874253145
1576080090256950174,0.0032620979473,0.0222782734782,0.00169546353944
1576080090276861479,0.00325202313252,0.0221323408186,0.00497104733458
1576080090297125962,0.00326056708582,0.0223585199565,-0.000147033149564
1576080090316842876,0.00327042792924,0.0222893357277,0.00128800112809
1576080090336778353,0.00332012958825,0.0221668537706,0.00429141286021
1576080090357212005,0.00331689976156,0.0222770534456,0.00174062246639
1576080090376936576,0.00336633017287,0.0222051870078,0.00249827291314
1576080090397012915,0.00325240567327,0.0222770497203,0.00101421602124
1576080090417254125,0.00335893407464,0.0220178384334,0.00487739295535
1576080090436962754,0.00328067527153,0.022127173841,0.00251066938067
1576080090459469969,0.00324148638174,0.0222578831017,-0.000888414778687
1576080090476953629,0.00330657651648,0.0221655908972,0.00166938167327
1576080090496814470,0.00324343680404,0.0220400355756,0.00324983109725
1576080090516851829,0.00314284069464,0.0221933256835,0.00155440389511
1576080090536809967,0.00337840337306,0.0221274290234,0.00191292571853
1576080090560167987,0.00334431184456,0.0221533682197,0.00224558173037
1576080090576874896,0.00334863504395,0.02221134305,0.0014327112377
1576080090596834466,0.00335913314484,0.0222982633859,-0.000362164133218
1576080090616945741,0.00361140584573,0.0222920179367,0.00142030485781
1576080090637191370,0.00369162345305,0.02232895419,0.00277288173336
1576080090657230415,0.00404655188322,0.0223701633513,0.00349560882995
1576080090677084786,0.00457966234535,0.0224180854857,0.00530271493637
1576080090696903160,0.00502263288945,0.0221644062549,0.00658326059476
1576080090717223090,0.00568767031655,0.0222270060331,0.00772183628531
1576080090736908397,0.00634101824835,0.0223526582122,0.00950154463269
1576080090757180892,0.00717227905989,0.0223031658679,0.0103575250184
1576080090777074859,0.00790980085731,0.0225072409958,0.00583700616982
1576080090797249145,0.00885368231684,0.0225856360048,0.00767494439666
1576080090817010847,0.00972468592227,0.0225163027644,0.00905531614261
1576080090837553727,0.010759299621,0.0225963946432,0.0159952208411
1576080090856954332,0.0118589382619,0.0222516283393,0.00341987544405
1576080090877508781,0.0130660273135,0.0223723687232,0.0078099758922
1576080090896839013,0.0143201109022,0.0224557761103,0.00771335492535
1576080090917465911,0.0156916137785,0.0224560406059,0.00676034841306
1576080090937675974,0.017104703933,0.0224192533642,0.00483752806448
1576080090958491393,0.0186125915498,0.022380348295,0.00835896555542
1576080090980146004,0.020109584555,0.0224301442504,0.00420278654961
1576080090997193965,0.0218751225621,0.0224701557308,0.00681709857074
1576080091017005910,0.0235243029892,0.0224379133433,0.00663493689621
1576080091037289402,0.0253776628524,0.0223569013178,0.00551060898891
1576080091057110248,0.0273659210652,0.0224992576987,0.00930553399053
1576080091077063281,0.0293054804206,0.0224874503911,0.00986205300249
1576080091096970206,0.0312160775065,0.022680612281,0.00847279510763
1576080091116952559,0.0333670414984,0.0225324183702,0.00549441818261
1576080091137361312,0.0356280952692,0.0225639566779,0.00458842213934
1576080091157626619,0.03777949512,0.0227252729237,0.00444494407979
1576080091177084025,0.0400575213134,0.0227888822556,0.000356229533658
1576080091197397062,0.042410030961,0.0228634513915,0.00256329604401
1576080091216956507,0.0449194833636,0.0228187162429,0.0037148269857
1576080091237407286,0.0474717766047,0.0228076968342,0.000748737214609
1576080091257278829,0.0500206127763,0.0228450167924,0.0015331957221
1576080091277081812,0.0526710040867,0.0231477562338,-0.00175282587931
1576080091296898287,0.0554386600852,0.0231342054904,0.00114568418515
1576080091317666106,0.0583803020418,0.0230991542339,-0.00422229528731
1576080091337012679,0.0613780170679,0.0229817647487,0.000654879670504
1576080091356934191,0.0643156021833,0.0232614148408,-0.000478252326819
1576080091376858172,0.0673980265856,0.0233326591551,0.00457486916556
1576080091396930707,0.070157378912,0.0233068205416,0.00496880890739
1576080091416735300,0.0737343356013,0.0232276022434,0.00630711257139
1576080091436808479,0.0767144858837,0.023235945031,-0.0017032787494
1576080091457070988,0.0800790190697,0.0236538164318,0.000443773970459
1576080091476861410,0.0833633095026,0.0235796310008,-0.015659654786
1576080091496823941,0.0868673995137,0.0237290058285,-0.00116735771718
1576080091516791464,0.0904778465629,0.0237921085209,0.00369672636622
1576080091537257706,0.0938402563334,0.0235882941633,0.0104463165803
1576080091556876586,0.0973764583468,0.0237469282001,0.00347321958085
1576080091578426114,0.100912094116,0.0239305198193,0.00053270031332
1576080091596821314,0.104294292629,0.0239028930664,-0.019220779583
1576080091616922850,0.107929222286,0.0239361412823,-0.0114540568298
1576080091637107013,0.111455962062,0.0237534772605,-0.0121730832557
1576080091657098751,0.11516289413,0.0240015741438,-0.0116070326443
1576080091677099972,0.118528202176,0.0241466164589,-0.0134491643014
1576080091697488064,0.12194211036,0.0238975100219,-0.014382453816
1576080091717067183,0.125278949738,0.0239276103675,-0.0276497872116
1576080091737348565,0.128438174725,0.0240583345294,-0.0828819434276
1576080091757357716,0.131981298327,0.0241633299738,-0.123480065535
1576080091777582093,0.135289952159,0.023714363575,-0.186453993535
1576080091797189218,0.138693019748,0.0239007361233,-0.32724452082
1576080091816941873,0.1418813169,0.0238162875175,-1.34181462404
1576080091836845068,0.145043969154,0.0239794924855,-2.72058826094
1576080091856976292,0.148031458259,0.0239462517202,-2.91270598915
1576080091877070239,0.151196971536,0.0236996468157,-3.00426131413
1576080091897144206,0.154146045446,0.0238622426987,-3.01558753466
1576080091917052069,0.156904250383,0.0239129029214,-3.04015389971
1576080091940650344,0.159965977073,0.0241474527866,-3.04796630819
1576080091956983948,0.162430137396,0.0237899236381,-3.07244168861
1576080091977041973,0.165163695812,0.0240366272628,-3.08979269868
1576080091997463561,0.167348518968,0.0238694325089,-3.09453154637
1576080092017067509,0.169382929802,0.0243624988943,-3.09940808547
1576080092037227391,0.171699032187,0.0240735951811,-3.10930902692
1576080092056858296,0.173426613212,0.0242566484958,-3.11017505517
1576080092076985662,0.174948737025,0.0238160248846,-3.11153137079
1576080092096883610,0.176589950919,0.0240868367255,-3.1161490245
1576080092117241595,0.177866175771,0.0240635368973,-3.12494166237
1576080092136959991,0.179143056273,0.0239182505757,-3.12492783598
1576080092156900680,0.180319786072,0.0236799493432,-3.12371329161
1576080092176865462,0.181129977107,0.0239167064428,-3.11688533183
1576080092197018759,0.181603014469,0.0239173434675,-3.11234594758
1576080092217290256,0.182168975472,0.0237664058805,-3.11046580261
1576080092237305566,0.182082489133,0.0239683650434,-3.10889410142
1576080092257833909,0.181670770049,0.0237059593201,-3.11486361454
1576080092277370527,0.181128740311,0.0235974602401,-3.1196534687
1576080092297764910,0.180392980576,0.0236692503095,-3.11648128808
1576080092317232879,0.179406791925,0.0241845007986,-3.11431064466
1576080092337255406,0.178355187178,0.0242790933698,-3.10868145821
1576080092357200744,0.177008152008,0.0236396435648,-3.11037795096
1576080092377290881,0.175397664309,0.0235464517027,-3.12147527194
1576080092397267379,0.173394694924,0.0239550545812,-3.11743532017
1576080092416928123,0.171499237418,0.0235327798873,-3.12482181211
1576080092437612994,0.169217467308,0.0230095945299,-3.12128628847
1576080092457054906,0.166670337319,0.0231409333646,-3.11878576058
1576080092477014353,0.164166405797,0.0239133909345,-3.12238696569
1576080092496958527,0.161518976092,0.0236466098577,-3.11837736015
1576080092517342758,0.158599719405,0.0231986381114,-3.10796916711
1576080092537016371,0.155781924725,0.0232223886997,-3.11723420358
1576080092556980811,0.152634248137,0.0234905909747,-3.12469228112
1576080092577524960,0.149213373661,0.0238329526037,-3.09877919639
1576080092597017897,0.145925059915,0.023436838761,-3.1007031115
1576080092616924763,0.142272993922,0.0230730790645,-3.10572400516
1576080092636878404,0.138526901603,0.0228006541729,-3.10803789345
1576080092657264862,0.134566456079,0.0228538289666,-3.09215849722
1576080092676886151,0.130471020937,0.0228623319417,-3.06819176659
1576080092699158581,0.126349523664,0.0228397101164,-3.04564354371
1576080092717265976,0.122157998383,0.0226225052029,-3.03762439522
1576080092737195813,0.117810122669,0.022766860202,-2.98284741536
1576080092756979535,0.113883294165,0.0231934543699,-0.635441397227
1576080092777199100,0.109672814608,0.0231886338443,-0.112970590647
1576080092797225299,0.105566091835,0.0226038899273,-0.0428570515317
1576080092817367671,0.101595617831,0.0224957820028,-0.0234356177073
1576080092837307138,0.0976845696568,0.0223589278758,0.00426496183084
1576080092857017294,0.0935773178935,0.0224932786077,-0.0267216403779
1576080092877145913,0.0896917879581,0.0222444254905,-0.0173563627112
1576080092896857837,0.085684671998,0.0219239015132,-0.0211303013921
1576080092917010377,0.0817949399352,0.0217527318746,-0.0167086025767
1576080092937347372,0.0782041549683,0.0219530966133,-0.00838713902381
1576080092963368971,0.0745160281658,0.0218226127326,-0.0124897675644
1576080092976850430,0.070992179215,0.022395176813,0.00122837513514
1576080092996883488,0.0677612498403,0.0222604069859,0.00432338492437
1576080093025377269,0.0646784827113,0.022393418476,-0.00775837781926
1576080093041228734,0.061809759587,0.0220723766834,-0.00429815494424
1576080093057127917,0.0590633973479,0.0220143347979,-0.00259125135284
1576080093076877765,0.0562835782766,0.0221136938781,-0.00350010245436
1576080093096947387,0.0539593473077,0.0219112001359,-0.00524471557215
1576080093116816737,0.0516357459128,0.0219376608729,-0.00927074564714
1576080093136942425,0.0495494045317,0.0217453353107,-0.00904776301953
1576080093156985109,0.0477634482086,0.0218104682863,-0.00618250271933
1576080093177307389,0.0459577515721,0.0219681970775,-0.00942974261965
1576080093197239038,0.0444336384535,0.0219318848103,-0.00659230737569
1576080093216941763,0.0432330816984,0.0219508707523,-0.00204947255184
1576080093236937744,0.0423029065132,0.0216732788831,-0.00720197759159
1576080093257026735,0.0414003394544,0.0217850618064,-0.00853747162108
1576080093277085936,0.0406686067581,0.0218529868871,-0.0122171962647
1576080093297342447,0.0401475839317,0.0217670761049,-0.017898647163
1576080093316938011,0.0398346595466,0.0218269396573,-0.0164688409402
1576080093341301548,0.0401126928627,0.0219000317156,-0.000300962878631
1576080093356928968,0.0402470454574,0.022114481777,-0.00559487131035
1576080093377201527,0.040414493531,0.0219157654792,-0.00785713946978
1576080093396885819,0.0406584143639,0.0220673494041,-0.0289279538969
1576080093417483765,0.0415206700563,0.0221851188689,-0.0135419407663
1576080093437884479,0.0420734621584,0.0218445919454,-0.0187511844132
1576080093457308612,0.043104942888,0.0220828652382,-0.0205062359064
1576080093477017088,0.0438435338438,0.0216135457158,-0.0330189453345
1576080093497082568,0.0446521230042,0.0220178961754,-0.0499397662767
1576080093518323603,0.0454842559993,0.0222290102392,-0.104510326578
1576080093537264121,0.0464527718723,0.0215748567134,-0.136203439807
1576080093557947292,0.0474437735975,0.0220952816308,-0.887474051303
1576080093577187720,0.0481596775353,0.0217877589166,-2.84230455208
1576080093597707378,0.0490640588105,0.0216586962342,-3.01375508512
1576080093617202714,0.0496934391558,0.0216025132686,-3.03318487594
1576080093637413816,0.0504780039191,0.0217366907746,-3.05623931446
1576080093657283184,0.0509323626757,0.0214379318058,-3.08216535674
1576080093677158394,0.0513112396002,0.0217711497098,-3.08191970003
1576080093696896492,0.0515203326941,0.0217976085842,-3.09690686865
1576080093717039519,0.0513533018529,0.0218063127249,-3.10664066506
1576080093737455828,0.0511261262,0.0218021385372,-3.11347284086
1576080093757044023,0.0505650192499,0.0216144137084,-3.11687548543
1576080093777145507,0.0500560700893,0.0213494896889,-3.10819186331
1576080093800393790,0.0489308983088,0.0218411050737,-3.11655226848
1576080093816985413,0.0476634055376,0.0212985277176,-3.1201449765
1576080093837260185,0.0463652908802,0.021428829059,-3.11334156086
1576080093858488073,0.044246610254,0.0216118469834,-3.111130075
1576080093877157379,0.0420792214572,0.0214649736881,-3.11448225865
1576080093897182310,0.0396719947457,0.0219121221453,-3.11014055358
1576080093920140965,0.0370215661824,0.0213564261794,-3.11685589432
1576080093937197129,0.033980935812,0.0212346203625,-3.11756230921
1576080093957171101,0.0304296500981,0.0211634598672,-3.11802274687
1576080093977124087,0.0267704222351,0.0209984816611,-3.12063019299
1576080094007548780,0.0227643791586,0.0208753198385,-3.12107455266
1576080094017134512,0.0188437961042,0.0209899097681,-3.11259145487
1576080094036850337,0.0139155331999,0.0206981003284,-3.11268170172
1576080094065928085,0.00934881716967,0.0208897721022,-3.10666907327
1576080094077767107,0.00459221517667,0.020709676668,-3.09270484559
1576080094097083909,-0.000213241204619,0.0207649990916,-3.08106828537
1576080094116868851,-0.00539645925164,0.0203872695565,-3.07626409365
1576080094136934466,-0.0105930268764,0.0203914437443,-3.03047211095
1576080094156949773,-0.0157569702715,0.0203524399549,-2.55752839443
1576080094177098369,-0.0208259932697,0.0203374549747,-0.0664386227393
1576080094197263667,-0.0262012705207,0.0199894346297,-0.0342810377701
1576080094217073700,-0.0310164503753,0.0198683459312,-0.0167821784192
1576080094237078094,-0.0360705256462,0.0194827672094,-0.0368224400262
1576080094256972807,-0.0408987440169,0.0199040770531,-0.0193070783637
1576080094277067529,-0.0456319227815,0.0197239425033,-0.0210679727507
1576080094297661097,-0.0503394305706,0.0199561994523,-0.0130904334845
1576080094316846514,-0.0545762889087,0.019844584167,-0.00652998267013
1576080094337464340,-0.0586077049375,0.0197294130921,-0.00711547691589
1576080094357201891,-0.0623203590512,0.0196798499674,-0.0101611549036
1576080094377263452,-0.0658679679036,0.0196616966277,-0.00902485056168
1576080094397270018,-0.0690246298909,0.0196194518358,-0.00455721855664
1576080094421203796,-0.0720087811351,0.0192517098039,-0.00601134161043
1576080094447727548,-0.074567578733,0.0191517081112,-0.0103583099202
1576080094456782352,-0.076912291348,0.0192674212158,-0.0113062275239
1576080094476910549,-0.0788437277079,0.019543338567,-0.016740545737
1576080094496722654,-0.080701507628,0.0193044506013,-0.0221864694514
1576080094516810030,-0.0819648206234,0.0192032735795,-0.0184667057545
1576080094537014605,-0.0829253345728,0.0196538399905,-0.0187491651617
1576080094556999243,-0.083974301815,0.0195756237954,-0.0175535719146
1576080094577321603,-0.0847605839372,0.0193559192121,-0.0179313181858
1576080094597079889,-0.0852764770389,0.019566046074,-0.0362419556861
1576080094617012256,-0.0857632085681,0.0194339733571,-0.0479141588486
1576080094646839511,-0.0861657336354,0.0190517287701,-0.0414696617248
1576080094657469371,-0.0866029262543,0.0189623627812,-0.32355723398
1576080094677795927,-0.0868766158819,0.0190212242305,-2.80179717402
1576080094697222311,-0.087363474071,0.0191438756883,-3.00632311905
1576080094717332219,-0.0875641182065,0.0191618315876,-3.04691285795
1576080094737446886,-0.0881741270423,0.0185862444341,-3.08789827392
1576080094757186338,-0.0891090407968,0.0187777522951,-3.1076295643
1576080094777487298,-0.0901704803109,0.0189140252769,-3.10284316844
1576080094797190485,-0.091565400362,0.0188857447356,-3.09586180958
1576080094817677159,-0.0930766612291,0.0186229813844,-3.10760975267
1576080094837129467,-0.0949530303478,0.0186663735658,-3.11031222605
1576080094857206511,-0.096832498908,0.0184980649501,-3.10561394723
1576080094877634312,-0.0999580472708,0.018280910328,-3.11209391129
1576080094897256040,-0.102822043002,0.0183342173696,-3.11708241894
1576080094917172741,-0.106249183416,0.018284637481,-3.11658981393
1576080094936990949,-0.110013976693,0.0180122666061,-3.1134252542
1576080094957029137,-0.114254891872,0.0179042965174,-3.11345406249
1576080094977082130,-0.119069777429,0.0179603118449,-3.11459446722
1576080094996985492,-0.12374548614,0.0176929812878,-3.11637621392
1576080095017170323,-0.129078745842,0.0177343394607,-3.11268658032
1576080095040892602,-0.134673759341,0.0174054633826,-3.12134863801
1576080095057185409,-0.140437960625,0.0171761941165,-3.11724120099
1576080095077114956,-0.146288722754,0.0170702021569,-3.10968966286
1576080095097204825,-0.152358159423,0.0169618036598,-3.12577962309
1576080095117910819,-0.158666372299,0.0169143378735,-2.5897959893
1576080095137563954,-0.1647605896,0.0165844466537,0.0154188590109
1576080095157566245,-0.171087682247,0.016748547554,0.0172917474916
1576080095177237271,-0.177383348346,0.0160920824856,-0.00581547453204
1576080095197229131,-0.1833396703,0.0162051115185,0.00253018680407
1576080095217226159,-0.189004555345,0.0161202959716,3.26100774413e-05
1576080095237431373,-0.194847360253,0.016388271004,-0.0115370565605
1576080095259010148,-0.199843227863,0.0159847028553,0.000981588331758
1576080095277242112,-0.204712927341,0.0157362837344,0.0100504210763
1576080095297381666,-0.2094848454,0.0156119354069,0.0017302782526
1576080095317550316,-0.213936060667,0.0156221818179,-0.002228043984
1576080095337682550,-0.217823252082,0.0157242845744,-0.00471839818411
1576080095357334888,-0.22178389132,0.0155574604869,-0.00383207217036
1576080095379523558,-0.225326538086,0.0151362670586,-0.0054878245818
1576080095397243549,-0.228734061122,0.0152771184221,-0.0113794518461
1576080095417679000,-0.231724798679,0.0151980901137,-0.0132666758649
1576080095437077835,-0.234443828464,0.0154403671622,-0.00719362962136
1576080095456972852,-0.236845195293,0.0152800921351,-0.0112388910439
1576080095477253660,-0.239198878407,0.0148459579796,-0.00905121216399
1576080095497221056,-0.241445422173,0.0152728334069,-0.0225397083184
1576080095517049517,-0.243356600404,0.0154592897743,-0.0214374855256
1576080095537171125,-0.245167255402,0.0150219760835,-0.0263005566733
1576080095557379854,-0.24687205255,0.0148803992197,-0.0306742233346
1576080095577264499,-0.24848125875,0.0148067222908,-0.0240827077198
1576080095597489526,-0.250296711922,0.0141750965267,-0.00198405218436
1576080095617676428,-0.251839488745,0.0148311015218,-0.158417407769
1576080095637454772,-0.253264516592,0.0145775843412,-0.879123305002
1576080095657578440,-0.254711449146,0.0143905617297,-2.82767707229
1576080095677573305,-0.256345361471,0.0147292753682,-3.0303069483
1576080095697504764,-0.257578581572,0.0142799234018,-3.02073539244
1576080095717576567,-0.259408891201,0.0146936904639,-3.06588171366
1576080095737465344,-0.261470407248,0.0143001712859,-3.10001900506
1576080095757467834,-0.263150900602,0.0142045430839,-3.0997196663
1576080095777237923,-0.265262246132,0.0143371336162,-3.11237220378
1576080095797191672,-0.267346769571,0.0143245989457,-3.11760584375
1576080095817033499,-0.269659668207,0.014327827841,-3.11477774278
1576080095837318984,-0.272018551826,0.0143412593752,-3.11409161785
1576080095857478438,-0.274553149939,0.0143297817558,-3.11203328069
1576080095883787496,-0.277029007673,0.0142445079982,-3.12657235367
1576080095912195184,-0.279682248831,0.0139699038118,-3.1296367991
1576080095917189861,-0.282415986061,0.0137824900448,-3.12320761914
1576080095937441826,-0.285458445549,0.01426252909,-3.11550383429
1576080095957212977,-0.288547992706,0.014089897275,-3.11759817412
1576080095977197849,-0.291894584894,0.0138675477356,-3.12042244056
1576080095997297623,-0.295223593712,0.0137427644804,-3.11590570704
1576080096017475481,-0.298829346895,0.0136487428099,-3.12184598255
1576080096037473361,-0.30278813839,0.0135966995731,-3.12173221254
1576080096057316676,-0.306645452976,0.0136011345312,-3.11465615219
1576080096078288122,-0.310955822468,0.0136436028406,-3.11929034884
1576080096097259528,-0.315177857876,0.0134233012795,-3.11736474322
1576080096117248772,-0.319631695747,0.0137618752196,-3.114307579
1576080096137250654,-0.323786318302,0.0140839088708,-3.11532202946
1576080096157117007,-0.328076213598,0.0135836275294,-3.11939382366
1576080096177065588,-0.332630872726,0.0128171453252,-3.11711909245
1576080096197613877,-0.337607294321,0.0132101066411,-3.12377763468
1576080096217045106,-0.342248111963,0.0134274121374,-3.1169741931
1576080096237200712,-0.347416460514,0.0133228516206,-3.12590652519
1576080096257029731,-0.352119326591,0.0128808105364,-3.12260848207
1576080096277693377,-0.357544898987,0.0129859978333,-3.11872412345
1576080096297118230,-0.362634420395,0.0128633528948,-3.1230313248
1576080096317393755,-0.367955952883,0.0126649606973,-3.12776312541
1576080096337641692,-0.373335987329,0.0121085848659,-3.1292675644
1576080096357110103,-0.37903636694,0.0121088502929,-3.12455263681
1576080096377045010,-0.384497433901,0.0123775582761,-3.13749373263
1576080096397192895,-0.38977009058,0.0125534962863,-3.13939009642
1576080096416907130,-0.395155757666,0.0123934522271,-3.1316270248
1576080096437247396,-0.400610625744,0.0122535787523,-3.12093951095
1576080096456877288,-0.40590518713,0.0119645958766,-3.11637485642
1576080096477007824,-0.411658763885,0.0120629640296,-3.12031972498
1576080096498314409,-0.417050421238,0.0118487607688,-3.12623588095
1576080096516977334,-0.422688156366,0.0111943464726,-3.13554782975
1576080096536839221,-0.4283618927,0.0112716825679,-3.13005045032
1576080096557095743,-0.434354394674,0.0115341329947,-3.12540658544
1576080096577056707,-0.440167963505,0.011676245369,-3.13100890227
1576080096596936180,-0.446447730064,0.0111356340349,-3.12920651097
1576080096617083465,-0.452774643898,0.01088190265,-3.1301645555
1576080096637704584,-0.459348410368,0.010903974995,-3.12672920226
1576080096657334459,-0.465466529131,0.0108065903187,-3.13288359771
1576080096677521070,-0.472121685743,0.0108440415934,-3.12859458935
1576080096697055903,-0.478757947683,0.0105541450903,-3.11623602912
1576080096717239514,-0.485582143068,0.0106627829373,-3.12725659072
1576080096737164271,-0.492550164461,0.0105769569054,-3.1204331617
1576080096757072450,-0.499553203583,0.0104244332761,-3.12126767933
1576080096777101683,-0.50655579567,0.0103691024706,-3.12506156821
1576080096797774222,-0.513933598995,0.0101778656244,-3.12322136216
1576080096817085835,-0.521058499813,0.00992434006184,-3.1180715656
1576080096837064800,-0.528359293938,0.00965391844511,-3.12273564632
1576080096857049889,-0.535892486572,0.00982253812253,-3.11580848804
1576080096877296967,-0.543452858925,0.00954293366522,-3.11286748431
1576080096897925143,-0.551127195358,0.00955324620008,-3.12455950113
1576080096917397063,-0.558837592602,0.00913752336055,-3.11534833711
1576080096937190238,-0.566941320896,0.00929997861385,-3.11013138908
1576080096957303736,-0.575187504292,0.00920663308352,-3.11525437484
1576080096976995386,-0.583171248436,0.00893577374518,-3.11492835697
1576080096999723237,-0.591646432877,0.0087142502889,-3.10894811924
1576080097016977935,-0.599794387817,0.00839610025287,-3.11515435587
1576080097036983766,-0.60838162899,0.00852774828672,-3.11547117433
1576080097057295425,-0.617128431797,0.00840361882001,-3.10460810607
1576080097076878927,-0.625622034073,0.00814955402166,-3.11817095198
1576080097096886109,-0.634692430496,0.00791661720723,-3.12455256099
1576080097117835383,-0.643816351891,0.00792135111988,-3.11173016357
1576080097136744215,-0.652870595455,0.00786320120096,-3.11681822678
1576080097157075523,-0.661857843399,0.00764927687123,-3.11706539282
1576080097176771693,-0.671403408051,0.00760462880135,-3.12275718565
1576080097196876592,-0.68085116148,0.00715359812602,-3.1242840702
1576080097216676341,-0.690404355526,0.00732477288693,-3.11701979517
1576080097240503612,-0.700091421604,0.00744526553899,-3.1151805115
1576080097257027732,-0.709861457348,0.00720093771815,-3.11672592325
1576080097277441916,-0.719545066357,0.00688109407201,-3.12358107757
1576080097297748387,-0.729794561863,0.0071625825949,-3.11179384011
1576080097316864282,-0.739917099476,0.00710292439908,-3.11497273651
1576080097336961976,-0.750330328941,0.00694295018911,-3.11292785665
1576080097356747983,-0.76074808836,0.00692056771368,-3.11223270459
1576080097376748342,-0.771282553673,0.00682970974594,-3.11495276998
1576080097396756573,-0.782267451286,0.00683925300837,-3.11563291818
1576080097417350494,-0.793129742146,0.00675082392991,-3.11112447844
1576080097436988533,-0.803918540478,0.00681185023859,-3.1252230493
1576080097456708764,-0.814547657967,0.00666566099972,-3.13269799724
1576080097476803385,-0.825529158115,0.006445387844,-3.12092865908
1576080097496815239,-0.836726546288,0.00603319238871,-3.1181316989
1576080097517444851,-0.847873568535,0.00628416333348,-3.11616942585
1576080097536867842,-0.859079062939,0.00625422038138,-3.12553661646
1576080097556744158,-0.870412528515,0.00593845080584,-3.11377864367
1576080097576893176,-0.88203817606,0.00599449733272,-3.11552200458
1576080097596810017,-0.893510997295,0.0058875894174,-3.12918143539
1576080097616719535,-0.904856204987,0.00587811134756,-3.12215122228
1576080097636830482,-0.916619777679,0.00537140155211,-3.11301063614
1576080097656824055,-0.928336799145,0.00559133151546,-3.11980808994
1576080097677057994,-0.940205276012,0.00541878957301,-3.12229817439
1576080097696931904,-0.952616095543,0.00501523446292,-3.11754046372
1576080097716652901,-0.964736104012,0.00501467520371,-3.11492898219
1576080097736861161,-0.977202832699,0.00499237282202,-3.11339561462
1576080097756869501,-0.989682376385,0.00477259792387,-3.12693552397
1576080097777528802,-1.00231325626,0.00487884320319,-3.12166783041
1576080097796975149,-1.01517486572,0.00466569093987,-3.11292513011
1576080097819093037,-1.02814030647,0.00513661140576,-3.11038334843
1576080097837107292,-1.04125726223,0.00495195668191,-3.11284113862
1576080097857370677,-1.05421519279,0.00448618177325,-3.12171405371
1576080097876812722,-1.06740677357,0.00463636452332,-3.12147934934
1576080097896660701,-1.0806658268,0.00409710966051,-3.12326469662
1576080097924047115,-1.09413290024,0.00464721256867,-3.10887983138
1576080097936598970,-1.10782408714,0.00460472144186,-3.11824623984
1576080097956608979,-1.12156105042,0.00432661222294,-3.11682907241
1576080097976612074,-1.13555383682,0.00364714558236,-3.10200174134
1576080097996907608,-1.14948832989,0.00382414855994,-3.11345477706
1576080098017179022,-1.16376125813,0.00402483157814,-3.1345653509
1576080098040701281,-1.17771816254,0.00395974423736,-3.13358224453
1576080098056852134,-1.19183671474,0.00402115704492,-3.10903397841
1576080098076679224,-1.20603346825,0.00387299875729,-3.09138563887
1576080098097125706,-1.22041547298,0.00426590628922,-3.08586750831
1576080098120218296,-1.23479115963,0.00382369337603,-3.09239917704
1576080098136666753,-1.24904501438,0.00386677822098,-3.05230457906
1576080098156584133,-1.26357007027,0.00381787400693,-3.08805043211
1576080098176648813,-1.27796661854,0.00380787858739,-2.12120939292
1576080098196552566,-1.29230964184,0.00413127802312,-0.172109533185
1576080098216646713,-1.30686438084,0.00361661799252,-0.0608395791684
1576080098236517507,-1.32098925114,0.00336265563965,-0.0495166338388
1576080098256924678,-1.33534300327,0.00376278324984,0.0257121621563
1576080098276654543,-1.34938538074,0.00386070879176,-0.004729763905
1576080098296895670,-1.36317133904,0.00370572716929,0.0129390583808
1576080098316549327,-1.37717854977,0.00419249339029,-0.00994057251702
1576080098336983418,-1.39071381092,0.00365487113595,-0.01415742415
1576080098356724333,-1.4043828249,0.00369716016576,-0.0102807795289
1576080098376435839,-1.41762661934,0.0035729710944,-0.0138324198179
1576080098397418297,-1.43026638031,0.00358502240852,-0.00696726892213
1576080098416623514,-1.44315958023,0.00379131594673,-0.0134388147798
1576080098436754576,-1.45556735992,0.00382396136411,-0.0182178148099
1576080098456653778,-1.46763396263,0.00371886882931,-0.0206011962525
1576080098476622299,-1.47955906391,0.00389137701131,-0.0213402971181
1576080098497014202,-1.49095034599,0.00370305986144,-0.0186005205657
1576080098516808960,-1.50216090679,0.00373785523698,-0.0194277961326
1576080098536896659,-1.51280856133,0.00403358507901,-0.0163323680032
1576080098556540182,-1.52323591709,0.00412336410955,-0.0184405993389
1576080098576544681,-1.53323411942,0.00429472886026,-0.0148505259056
1576080098597311973,-1.54320037365,0.00454565091059,-0.0201706611574
1576080098616408413,-1.55279147625,0.00462497025728,-0.0254024699975
1576080098638245543,-1.56196975708,0.00454903533682,-0.0230211834568
1576080098656566476,-1.57112550735,0.00444543268532,-0.0263891423284
1576080098676620428,-1.57970619202,0.00437132967636,-0.0463200580502
1576080098696661622,-1.58880758286,0.00490891840309,-0.0938680847066
1576080098716777970,-1.59737670422,0.00488299084827,-0.153048103918
1576080098736932429,-1.60568571091,0.00433497829363,-2.87054154886
1576080098756554893,-1.6140897274,0.00455347355455,-3.01144501652
1576080098776518002,-1.62262046337,0.00459451274946,-3.05573462538
1576080098796452815,-1.63113296032,0.00482747517526,-3.09171832595
1576080098816731735,-1.63989043236,0.004433860071,-3.0931496771
1576080098836815660,-1.6487275362,0.0051702526398,-3.10393387592
1576080098856638503,-1.65771055222,0.00504633132368,-3.11253098305
1576080098877183475,-1.66645109653,0.00464915903285,-3.12226309295
1576080098896377434,-1.675812006,0.00483447127044,-3.11901872811
1576080098916487194,-1.6855301857,0.00506350304931,-3.12133932803
1576080098936890858,-1.69499731064,0.00489709479734,-3.13208480176
1576080098956599756,-1.70515477657,0.00487830583006,-3.13792165922
1576080098976602970,-1.71544981003,0.00456811487675,-3.13316959783
1576080098996642794,-1.7259157896,0.00500818854198,-3.13249871068
1576080099016465543,-1.73699080944,0.0050470167771,3.13675098256
1576080099036645142,-1.74781525135,0.00516235176474,-3.13566676333
1576080099056464392,-1.7590482235,0.00486944755539,-3.13079981601
1576080099077012672,-1.77017450333,0.00583165604621,3.13398840568
1576080099096566566,-1.78121352196,0.006108767353,3.12256824199
1576080099116598944,-1.79188752174,0.00582901434973,3.12545155928
1576080099136559299,-1.803581357,0.00449346005917,3.12772663086
1576080099156666065,-1.81461501122,0.00497901951894,3.12370581833
1576080099176591429,-1.82614099979,0.00543839810416,3.11034409519
1576080099196853154,-1.83714044094,0.00563425151631,-2.44796121263
1576080099216669143,-1.84847950935,0.00573650049046,-0.0010078582614
1576080099240655070,-1.85956227779,0.00559878628701,-0.0201967075261
1576080099257285117,-1.87071371078,0.00585233420134,-0.00119295929414
1576080099276541810,-1.88186073303,0.00626694085076,-0.000126418050977
1576080099296528383,-1.892370224,0.00577086815611,0.00265186656532
1576080099316593438,-1.90282285213,0.00567354355007,-0.00896900293398
1576080099336801731,-1.91342175007,0.00646460754797,-0.00409275143679
1576080099356396638,-1.92307555676,0.00604551332071,-0.0168409843995
1576080099376501980,-1.93276798725,0.0058270227164,-0.0104151407032
1576080099397418089,-1.94225478172,0.00628007855266,-0.0236116750639
1576080099416634449,-1.95094919205,0.00602276436985,-0.0191655749607
1576080099436476229,-1.95940041542,0.00579452887177,-0.0195939220971
1576080099457560414,-1.96772933006,0.00596468988806,-0.0214789017092
1576080099476578839,-1.97536706924,0.00577705632895,-0.0190977274612
1576080099496515628,-1.98279750347,0.00594740174711,-0.0208214254102
1576080099516706164,-1.98983836174,0.00621112436056,-0.0157791622979
1576080099540317634,-1.99648845196,0.00622186018154,-0.0172856860232
1576080099556889053,-2.00275182724,0.00615747319534,-0.0190371829332
1576080099576658402,-2.00889730453,0.00615706946701,-0.0321441002242
1576080099597467422,-2.01499795914,0.00621524034068,-0.0444976384802
