rosbagTimestamp,transforms,-,header,seq,stamp,secs,nsecs,frame_id,child_frame_id,transform,translation,x,y,z,rotation,x,y,z,w
1576079640030280992,,,0,,1576079640,30185735,"""world""","""hoverOpti/base_link""",,,-0.204639837146,0.0194957535714,2.59309744835,,0.00872641353007,-0.0477635497128,-0.0106287265384,0.998763997748
1576079640050253558,,,0,,1576079640,50159783,"""world""","""hoverOpti/base_link""",,,-0.204648464918,0.0195167846978,2.59314584732,,0.00894227496164,-0.04794084095,-0.010591851137,0.998753985813
1576079640070149624,,,0,,1576079640,70055536,"""world""","""hoverOpti/base_link""",,,-0.204640001059,0.0194896943867,2.59308576584,,0.00864701567408,-0.047762319992,-0.0105557239108,0.998765521332
1576079640089818485,,,0,,1576079640,89743843,"""world""","""hoverOpti/base_link""",,,-0.20464284718,0.0195077974349,2.59312176704,,0.00882572342847,-0.048074536566,-0.0105751829667,0.998748772738
1576079640110117640,,,0,,1576079640,110030356,"""world""","""hoverOpti/base_link""",,,-0.204654112458,0.0195131022483,2.59312224388,,0.00883982095259,-0.0477211039118,-0.0107709424183,0.998763505844
1576079640130132520,,,0,,1576079640,130039874,"""world""","""hoverOpti/base_link""",,,-0.204652711749,0.0194938331842,2.59309220314,,0.00881172930678,-0.0477762522142,-0.0107722917035,0.998761103008
1576079640150145291,,,0,,1576079640,150043112,"""world""","""hoverOpti/base_link""",,,-0.204627737403,0.01950025931,2.59312462807,,0.00890650860607,-0.0480040823122,-0.0105643139763,0.998751559426
1576079640169949771,,,0,,1576079640,169873038,"""world""","""hoverOpti/base_link""",,,-0.204637497663,0.0194827243686,2.5930929184,,0.00865588887749,-0.047752428346,-0.010655022125,0.998764863058
1576079640190000658,,,0,,1576079640,189882189,"""world""","""hoverOpti/base_link""",,,-0.204615041614,0.0195032339543,2.59312343597,,0.00874492619628,-0.0481235012655,-0.0104120448284,0.998748839406
1576079640209952643,,,0,,1576079640,209826347,"""world""","""hoverOpti/base_link""",,,-0.204641506076,0.0194938182831,2.59308362007,,0.00875637165387,-0.0476991693673,-0.0107206668264,0.998765829662
1576079640229843503,,,0,,1576079640,229759247,"""world""","""hoverOpti/base_link""",,,-0.204627484083,0.0194837320596,2.59309792519,,0.00868560893899,-0.0477974840575,-0.0108053716676,0.998760834564
1576079640250843759,,,0,,1576079640,250716451,"""world""","""hoverOpti/base_link""",,,-0.204631879926,0.0194933190942,2.59308934212,,0.00873586085434,-0.0476982327708,-0.010666711241,0.9987666317
1576079640270632015,,,0,,1576079640,270541507,"""world""","""hoverOpti/base_link""",,,-0.204630449414,0.0195084977895,2.59311342239,,0.00878204336317,-0.0479818632978,-0.0105563460957,0.998753813543
1576079640289886250,,,0,,1576079640,289800328,"""world""","""hoverOpti/base_link""",,,-0.204657763243,0.0194937195629,2.59309339523,,0.00878758022873,-0.0477104642141,-0.010783961315,0.998764334674
1576079640310094996,,,0,,1576079640,310012009,"""world""","""hoverOpti/base_link""",,,-0.204618543386,0.0195067692548,2.59313440323,,0.00880464549208,-0.0479614205228,-0.010466708748,0.998755539843
1576079640329930219,,,0,,1576079640,329850716,"""world""","""hoverOpti/base_link""",,,-0.204656794667,0.0194948017597,2.59309577942,,0.00879027472874,-0.0477572287798,-0.0107881236211,0.998762030995
1576079640349940540,,,0,,1576079640,349859556,"""world""","""hoverOpti/base_link""",,,-0.204645976424,0.0194845404476,2.59308958054,,0.00870620395176,-0.0478171484706,-0.0106650070812,0.99876122269
1576079640370691052,,,0,,1576079640,370621562,"""world""","""hoverOpti/base_link""",,,-0.204647511244,0.0194963365793,2.59309244156,,0.00881794397,-0.0477701773052,-0.0107738592625,0.998761321829
1576079640390838715,,,0,,1576079640,390765499,"""world""","""hoverOpti/base_link""",,,-0.204651862383,0.0194959938526,2.59309267998,,0.00876545168907,-0.0477938023046,-0.0106519824854,0.998761960923
1576079640411094481,,,0,,1576079640,411027685,"""world""","""hoverOpti/base_link""",,,-0.20465041697,0.0195026118308,2.59309411049,,0.00870072619294,-0.0477928611186,-0.0107304756736,0.998761731687
1576079640429838930,,,0,,1576079640,429769259,"""world""","""hoverOpti/base_link""",,,-0.20464849472,0.0195312593132,2.5931429863,,0.00900003143423,-0.0478815395152,-0.0106747988737,0.99875542866
1576079640449860335,,,0,,1576079640,449772106,"""world""","""hoverOpti/base_link""",,,-0.204639554024,0.0195076800883,2.59308648109,,0.00863804385608,-0.047791044983,-0.0105116180688,0.998764690056
1576079640469764855,,,0,,1576079640,469692227,"""world""","""hoverOpti/base_link""",,,-0.204641819,0.0195016935468,2.59311389923,,0.00881000929594,-0.0480476701681,-0.010658620238,0.998749317368
1576079640490202387,,,0,,1576079640,490133504,"""world""","""hoverOpti/base_link""",,,-0.204627662897,0.0195046663284,2.59310030937,,0.00868724720428,-0.0477980357799,-0.0106956461256,0.99876197498
1576079640509875341,,,0,,1576079640,509800536,"""world""","""hoverOpti/base_link""",,,-0.204644843936,0.0195145886391,2.59309434891,,0.00875919870087,-0.047679893621,-0.0107544939849,0.998766361589
1576079640529867345,,,0,,1576079640,529778692,"""world""","""hoverOpti/base_link""",,,-0.204651385546,0.0195138957351,2.59308981895,,0.00889687280833,-0.0477991895525,-0.0105864892995,0.998761237422
1576079640549990243,,,0,,1576079640,549911835,"""world""","""hoverOpti/base_link""",,,-0.204640597105,0.0195153597742,2.59312939644,,0.00876370474231,-0.0480282197203,-0.0105450685842,0.998751865639
1576079640569866244,,,0,,1576079640,569777405,"""world""","""hoverOpti/base_link""",,,-0.204640045762,0.0195248275995,2.59313225746,,0.00870365483154,-0.048011035828,-0.01039191173,0.998754822267
1576079640589776915,,,0,,1576079640,589707277,"""world""","""hoverOpti/base_link""",,,-0.20464541018,0.0195264983922,2.5931456089,,0.00881543690584,-0.0480206722405,-0.0105024466004,0.998752222388
1576079640610197141,,,0,,1576079640,610129303,"""world""","""hoverOpti/base_link""",,,-0.204722672701,0.0194992795587,2.59308767319,,0.00923708955135,-0.0485719337662,-0.0103576707733,0.998723266017
1576079640629930465,,,0,,1576079640,629849765,"""world""","""hoverOpti/base_link""",,,-0.204651966691,0.0195162538439,2.5931224823,,0.00890959881688,-0.0479834036709,-0.0105137795806,0.998753058799
1576079640649938577,,,0,,1576079640,649866615,"""world""","""hoverOpti/base_link""",,,-0.204637676477,0.0195048134774,2.59311366081,,0.00863255205556,-0.0479668351405,-0.0104889881152,0.998756548364
1576079640670283796,,,0,,1576079640,670205438,"""world""","""hoverOpti/base_link""",,,-0.204646468163,0.019508594647,2.59312105179,,0.00874552868009,-0.0480046230772,-0.0104863884861,0.998753777238
1576079640689889562,,,0,,1576079640,689811742,"""world""","""hoverOpti/base_link""",,,-0.204646408558,0.0195309091359,2.59314322472,,0.00895301921897,-0.0479871329289,-0.0105120568022,0.998752509475
1576079640712071658,,,0,,1576079640,711982497,"""world""","""hoverOpti/base_link""",,,-0.204649373889,0.0195338577032,2.59313511848,,0.00871951740035,-0.0479819116619,-0.0103885153547,0.998756118839
1576079640730031597,,,0,,1576079640,729945436,"""world""","""hoverOpti/base_link""",,,-0.204641446471,0.0195147600025,2.59315490723,,0.00901290056247,-0.0479659365664,-0.0105564679651,0.998752520666
1576079640749840841,,,0,,1576079640,749759487,"""world""","""hoverOpti/base_link""",,,-0.204643473029,0.0195028018206,2.59312677383,,0.00884872028029,-0.04797383425,-0.0105335554705,0.99875385135
1576079640769848073,,,0,,1576079640,769777717,"""world""","""hoverOpti/base_link""",,,-0.204642131925,0.0195277649909,2.59315609932,,0.0089449622982,-0.0479073220493,-0.0105887166918,0.99875560335
1576079640790050323,,,0,,1576079640,789980017,"""world""","""hoverOpti/base_link""",,,-0.204645186663,0.0195351503789,2.59314227104,,0.00883581236654,-0.0479086787755,-0.0105546863268,0.998756870071
1576079640810511946,,,0,,1576079640,810427608,"""world""","""hoverOpti/base_link""",,,-0.204646468163,0.019517948851,2.59311747551,,0.00889801098636,-0.0476869024051,-0.010729983871,0.998765063559
1576079640829741101,,,0,,1576079640,829668434,"""world""","""hoverOpti/base_link""",,,-0.204644963145,0.0195085089654,2.59312486649,,0.00874521881316,-0.047961078222,-0.0105679510468,0.99875501227
1576079640850053788,,,0,,1576079640,849934346,"""world""","""hoverOpti/base_link""",,,-0.204645559192,0.0194963309914,2.59310007095,,0.00856656884166,-0.0477674989154,-0.0105664248696,0.998765853747
1576079640869828151,,,0,,1576079640,869737572,"""world""","""hoverOpti/base_link""",,,-0.204636231065,0.0195142365992,2.59313154221,,0.00880893636764,-0.0480039163922,-0.0103959071406,0.998754199874
1576079640889856445,,,0,,1576079640,889758357,"""world""","""hoverOpti/base_link""",,,-0.204649999738,0.0195137467235,2.59314393997,,0.00900489604619,-0.0479237189224,-0.0106677603109,0.998753436991
1576079640910021384,,,0,,1576079640,909934882,"""world""","""hoverOpti/base_link""",,,-0.204639881849,0.0195139534771,2.59312367439,,0.00884735089016,-0.0479634127375,-0.0105293510686,0.998754408344
1576079640930156203,,,0,,1576079640,930074876,"""world""","""hoverOpti/base_link""",,,-0.204634130001,0.0194988660514,2.59309530258,,0.00870925954761,-0.0478126977342,-0.0106117178529,0.998761976738
1576079640950201120,,,0,,1576079640,950072996,"""world""","""hoverOpti/base_link""",,,-0.204653725028,0.0194963812828,2.59310913086,,0.00869625435591,-0.0477342382794,-0.0105850696723,0.998766125755
1576079640969927311,,,0,,1576079640,969816356,"""world""","""hoverOpti/base_link""",,,-0.204642951488,0.0195007808506,2.59311461449,,0.00889849964871,-0.0477179027574,-0.0107721621957,0.998763124561
1576079640989772012,,,0,,1576079640,989680460,"""world""","""hoverOpti/base_link""",,,-0.204642131925,0.0195165071636,2.59315133095,,0.00888033430163,-0.0479041901396,-0.010593357706,0.998756281083
1576079641009803312,,,0,,1576079641,9728726,"""world""","""hoverOpti/base_link""",,,-0.204640343785,0.0195026658475,2.59312987328,,0.0088821096837,-0.0479682852743,-0.0105403583384,0.998753749721
1576079641030004828,,,0,,1576079641,29878485,"""world""","""hoverOpti/base_link""",,,-0.204638004303,0.0195076819509,2.59313488007,,0.00871579997704,-0.0480936354088,-0.0103689515575,0.998750980929
1576079641049859310,,,0,,1576079641,49787548,"""world""","""hoverOpti/base_link""",,,-0.204657047987,0.0195344947278,2.59315562248,,0.00894341027779,-0.0479150583989,-0.0105384537993,0.998755777747
1576079641069861183,,,0,,1576079641,69761610,"""world""","""hoverOpti/base_link""",,,-0.204646706581,0.0195107124746,2.59309482574,,0.00871226479248,-0.0478648794791,-0.0105592728559,0.998760006964
1576079641090153756,,,0,,1576079641,90054121,"""world""","""hoverOpti/base_link""",,,-0.204656779766,0.0194999072701,2.59308862686,,0.00867001964089,-0.0478082433008,-0.0106131514877,0.998762516141
1576079641110273353,,,0,,1576079641,110180850,"""world""","""hoverOpti/base_link""",,,-0.204648077488,0.0194996874779,2.59309625626,,0.00877752864556,-0.047758886518,-0.0105174058512,0.998764951289
1576079641130620542,,,0,,1576079641,130549995,"""world""","""hoverOpti/base_link""",,,-0.20464463532,0.0194967836142,2.59312129021,,0.00887276860937,-0.0480298275591,-0.0103787218297,0.998752567844
1576079641149868063,,,0,,1576079641,149769342,"""world""","""hoverOpti/base_link""",,,-0.204650148749,0.0195000078529,2.59309959412,,0.00873212956615,-0.0478010014721,-0.0107341237975,0.998761028854
1576079641169784165,,,0,,1576079641,169703800,"""world""","""hoverOpti/base_link""",,,-0.204644948244,0.0195007566363,2.59309649467,,0.00869994586899,-0.0477536195947,-0.010553514298,0.998765501053
1576079641189929316,,,0,,1576079641,189823876,"""world""","""hoverOpti/base_link""",,,-0.204635962844,0.0194963254035,2.59310030937,,0.00879522895882,-0.0477981898649,-0.0106110107307,0.998761925308
1576079641210169340,,,0,,1576079641,210075405,"""world""","""hoverOpti/base_link""",,,-0.204631701112,0.0194942615926,2.59312915802,,0.00874885672496,-0.0479869326457,-0.0105132351185,0.99875431598
1576079641232800648,,,0,,1576079641,230510726,"""world""","""hoverOpti/base_link""",,,-0.204660385847,0.0195180084556,2.59313154221,,0.00884855147751,-0.0477121611488,-0.0108056429398,0.998763480958
1576079641249956539,,,0,,1576079641,249846715,"""world""","""hoverOpti/base_link""",,,-0.204663440585,0.0195349771529,2.59315061569,,0.00890019929361,-0.0479699148003,-0.0105275670826,0.998753645329
1576079641269872858,,,0,,1576079641,269791335,"""world""","""hoverOpti/base_link""",,,-0.204649731517,0.0195117071271,2.59312558174,,0.00884667294143,-0.0479985313414,-0.0105389186096,0.99875262631
1576079641289811127,,,0,,1576079641,289725419,"""world""","""hoverOpti/base_link""",,,-0.204656809568,0.0195020958781,2.5930929184,,0.00866357529699,-0.0478148616686,-0.0107182703683,0.998761132677
1576079641310259049,,,0,,1576079641,310189477,"""world""","""hoverOpti/base_link""",,,-0.204664215446,0.019530588761,2.59314775467,,0.00898163690016,-0.0477923275891,-0.010555332732,0.998761136896
1576079641332221340,,,0,,1576079641,332143674,"""world""","""hoverOpti/base_link""",,,-0.204641088843,0.0195075049996,2.5931224823,,0.00869591377799,-0.0479766989645,-0.0104855300688,0.998755561236
1576079641349980234,,,0,,1576079641,349896661,"""world""","""hoverOpti/base_link""",,,-0.204649865627,0.0195107068866,2.59312772751,,0.0087460253152,-0.0476874108427,-0.0106899235316,0.998766811334
1576079641369789473,,,0,,1576079641,369719901,"""world""","""hoverOpti/base_link""",,,-0.204639136791,0.0194928329438,2.59310150146,,0.00872100130318,-0.0477988563087,-0.010584123259,0.998762829608
1576079641389912508,,,0,,1576079641,389845139,"""world""","""hoverOpti/base_link""",,,-0.204657927155,0.0195057094097,2.59312200546,,0.00887268121068,-0.0477909999887,-0.0106222041776,0.998761465329
1576079641410640018,,,0,,1576079641,410568376,"""world""","""hoverOpti/base_link""",,,-0.204642117023,0.0195418484509,2.59313869476,,0.00887660516246,-0.0478835588153,-0.0105052600378,0.998758234102
1576079641429803021,,,0,,1576079641,429732910,"""world""","""hoverOpti/base_link""",,,-0.204711839557,0.0194995515049,2.59308600426,,0.00926217598063,-0.0486022965907,-0.0103042569956,0.998722109072
1576079641450194030,,,0,,1576079641,450113894,"""world""","""hoverOpti/base_link""",,,-0.204663813114,0.0194950290024,2.59311509132,,0.00888974369349,-0.0476724560369,-0.010822227712,0.998764831569
1576079641469777831,,,0,,1576079641,469712492,"""world""","""hoverOpti/base_link""",,,-0.204647615552,0.019522625953,2.59312558174,,0.00882586605464,-0.0476749738538,-0.0105698596874,0.998767980575
1576079641489773068,,,0,,1576079641,489705125,"""world""","""hoverOpti/base_link""",,,-0.204630702734,0.019509634003,2.59312963486,,0.00866526172099,-0.0480547208229,-0.0105107919405,0.998751811162
1576079641509828893,,,0,,1576079641,509739053,"""world""","""hoverOpti/base_link""",,,-0.204645469785,0.0195328574628,2.59315419197,,0.00889322380601,-0.047921952327,-0.0105808658781,0.99875544671
1576079641530017531,,,0,,1576079641,529941881,"""world""","""hoverOpti/base_link""",,,-0.204630866647,0.0195078514516,2.59311747551,,0.00870148679264,-0.0477481387998,-0.0107334864981,0.998763831762
1576079641549843368,,,0,,1576079641,549764481,"""world""","""hoverOpti/base_link""",,,-0.204628139734,0.0195193998516,2.59312987328,,0.00865295476413,-0.0480083495802,-0.0105000029412,0.998754261409
1576079641570140720,,,0,,1576079641,570056273,"""world""","""hoverOpti/base_link""",,,-0.204627409577,0.019497089088,2.59310007095,,0.00873331149221,-0.0478659895856,-0.0106083757902,0.998759249606
1576079641589807940,,,0,,1576079641,589724460,"""world""","""hoverOpti/base_link""",,,-0.204640284181,0.0194949768484,2.59310889244,,0.00876737494864,-0.0477800811375,-0.0105698537065,0.998763473088
1576079641609738295,,,0,,1576079641,609669717,"""world""","""hoverOpti/base_link""",,,-0.20462270081,0.0195172205567,2.59312176704,,0.00874106891991,-0.0479388535795,-0.0104053552726,0.998757822805
1576079641630012591,,,0,,1576079641,629935050,"""world""","""hoverOpti/base_link""",,,-0.204634532332,0.019511135295,2.59309530258,,0.0085584336746,-0.04779473043,-0.0104727048665,0.998765607842
1576079641649962029,,,0,,1576079641,649882149,"""world""","""hoverOpti/base_link""",,,-0.204645782709,0.0195135418326,2.59309339523,,0.0086960270067,-0.047740645194,-0.010608107669,0.998765577081
1576079641670952849,,,0,,1576079641,670853649,"""world""","""hoverOpti/base_link""",,,-0.204650133848,0.0195212904364,2.59309339523,,0.00874789419589,-0.047772678817,-0.0106067320727,0.998763607036
1576079641689917201,,,0,,1576079641,689824167,"""world""","""hoverOpti/base_link""",,,-0.204627007246,0.0195103809237,2.59312915802,,0.00861702460789,-0.0479719847821,-0.0103630904697,0.998757749366
1576079641709869965,,,0,,1576079641,709774645,"""world""","""hoverOpti/base_link""",,,-0.204649373889,0.019508715719,2.59310007095,,0.00874642147164,-0.0477811074921,-0.0106517220337,0.998762737939
1576079641729816536,,,0,,1576079641,729747816,"""world""","""hoverOpti/base_link""",,,-0.204626366496,0.0195228662342,2.59312677383,,0.00865745724317,-0.0480328384972,-0.010315189062,0.998754970818
1576079641749785938,,,0,,1576079641,749708556,"""world""","""hoverOpti/base_link""",,,-0.204645633698,0.0195110663772,2.59313011169,,0.00883124098243,-0.048009405766,-0.0104391256015,0.998753288254
1576079641769892754,,,0,,1576079641,769810163,"""world""","""hoverOpti/base_link""",,,-0.204634681344,0.0195035133511,2.59311962128,,0.00893046982565,-0.0480085609329,-0.0106345843078,0.998750384432
1576079641789718977,,,0,,1576079641,789654047,"""world""","""hoverOpti/base_link""",,,-0.204631283879,0.0195058844984,2.59312200546,,0.00867500842632,-0.04804154161,-0.0104324289071,0.99875318219
1576079641810131104,,,0,,1576079641,810040352,"""world""","""hoverOpti/base_link""",,,-0.204643219709,0.0195048097521,2.59310269356,,0.00866941035645,-0.0478906754199,-0.0105412075099,0.998759334112
1576079641829928746,,,0,,1576079641,829847430,"""world""","""hoverOpti/base_link""",,,-0.204639732838,0.0194982420653,2.59309887886,,0.00867106049224,-0.0478135959279,-0.0105876525652,0.998762521507
1576079641849842606,,,0,,1576079641,849767245,"""world""","""hoverOpti/base_link""",,,-0.204644575715,0.0194891989231,2.59309148788,,0.00864647760431,-0.0477969888383,-0.0106052267841,0.998763343064
1576079641871106605,,,0,,1576079641,871033012,"""world""","""hoverOpti/base_link""",,,-0.204638674855,0.0194986294955,2.59312057495,,0.00881681402991,-0.0480329691265,-0.0104722436278,0.998751936059
1576079641889973717,,,0,,1576079641,889902436,"""world""","""hoverOpti/base_link""",,,-0.204648599029,0.0194965936244,2.59309339523,,0.00867875563241,-0.0478038671096,-0.010718541108,0.998761524272
1576079641909965956,,,0,,1576079641,909898220,"""world""","""hoverOpti/base_link""",,,-0.204660475254,0.0195185225457,2.59311747551,,0.00882017150945,-0.0476999843874,-0.0106309298926,0.998766188551
1576079641930016550,,,0,,1576079641,929947996,"""world""","""hoverOpti/base_link""",,,-0.204665616155,0.019491404295,2.59310555458,,0.00876680425747,-0.0478140569248,-0.0106562611307,0.998760933959
1576079641951057934,,,0,,1576079641,950987664,"""world""","""hoverOpti/base_link""",,,-0.204646766186,0.0194914080203,2.59310126305,,0.00871219983363,-0.0478055592447,-0.0106223739645,0.998762179526
1576079641969826131,,,0,,1576079641,969758294,"""world""","""hoverOpti/base_link""",,,-0.204638719559,0.0195005610585,2.59309434891,,0.00854967103354,-0.0477803950013,-0.0105984417901,0.998765042445
1576079641989834888,,,0,,1576079641,989767834,"""world""","""hoverOpti/base_link""",,,-0.204647108912,0.019507009536,2.59310317039,,0.00870419624452,-0.0477643958683,-0.0106550189216,0.998763871006
1576079642009836364,,,0,,1576079642,9767256,"""world""","""hoverOpti/base_link""",,,-0.204656392336,0.0195115376264,2.59310531616,,0.00877237308354,-0.0478059605897,-0.0106329106252,0.998761521493
1576079642030499483,,,0,,1576079642,30431663,"""world""","""hoverOpti/base_link""",,,-0.204666033387,0.0195111650974,2.5931251049,,0.00880535642111,-0.0477615605069,-0.0107581264766,0.998762014572
1576079642049849056,,,0,,1576079642,49749545,"""world""","""hoverOpti/base_link""",,,-0.204660952091,0.0195400826633,2.59314751625,,0.00893908196961,-0.047950058799,-0.0104380837095,0.998755190767
1576079642070152713,,,0,,1576079642,70072152,"""world""","""hoverOpti/base_link""",,,-0.204662322998,0.0194885656238,2.59310388565,,0.00882529297255,-0.0478511224684,-0.0107505815042,0.998757632902
1576079642096060987,,,0,,1576079642,95968480,"""world""","""hoverOpti/base_link""",,,-0.204632744193,0.0195087529719,2.5931289196,,0.00878009440935,-0.0480192617846,-0.0105975945483,0.998751596459
1576079642110208224,,,0,,1576079642,110135241,"""world""","""hoverOpti/base_link""",,,-0.204639777541,0.0194994043559,2.5931019783,,0.00867584644651,-0.0478024641397,-0.0104772087441,0.998764177475
1576079642129825661,,,0,,1576079642,129755359,"""world""","""hoverOpti/base_link""",,,-0.204631447792,0.0195181109011,2.59314131737,,0.00883458396983,-0.0479818547434,-0.0105952938718,0.998752938163
1576079642151389001,,,0,,1576079642,151318940,"""world""","""hoverOpti/base_link""",,,-0.204642817378,0.0195027440786,2.59310698509,,0.00866672665017,-0.0477738039071,-0.0106176751245,0.998764144573
1576079642169812091,,,0,,1576079642,169734532,"""world""","""hoverOpti/base_link""",,,-0.204642653465,0.0195109117776,2.59310531616,,0.00876047936074,-0.0477190767218,-0.0105264578998,0.998766908444
1576079642189807757,,,0,,1576079642,189739492,"""world""","""hoverOpti/base_link""",,,-0.204648464918,0.0195095259696,2.59309744835,,0.0087374107002,-0.0478231624276,-0.0105799495857,0.99876156687
1576079642209795964,,,0,,1576079642,209717161,"""world""","""hoverOpti/base_link""",,,-0.204645112157,0.0195183977485,2.59311461449,,0.00881433550382,-0.047990119331,-0.0105540758169,0.9987531564
1576079642229948657,,,0,,1576079642,229845070,"""world""","""hoverOpti/base_link""",,,-0.204633906484,0.0195096675307,2.59311938286,,0.00871777822563,-0.0480314595662,-0.0104801328014,0.998752795266
1576079642249831836,,,0,,1576079642,249730593,"""world""","""hoverOpti/base_link""",,,-0.204656347632,0.019523544237,2.59314703941,,0.00884700597977,-0.0479229059184,-0.0105816975308,0.998755802612
1576079642269791498,,,0,,1576079642,269696713,"""world""","""hoverOpti/base_link""",,,-0.204644471407,0.0194908753037,2.59310317039,,0.00862911720278,-0.0476628059965,-0.0106632244358,0.998769288127
1576079642289778992,,,0,,1576079642,289702520,"""world""","""hoverOpti/base_link""",,,-0.204650729895,0.0195270106196,2.59314656258,,0.00897892533143,-0.0479444956408,-0.01052122992,0.998754228005
1576079642310029081,,,0,,1576079642,309871763,"""world""","""hoverOpti/base_link""",,,-0.204654201865,0.0194988306612,2.59309506416,,0.0086923807379,-0.0478106165456,-0.0107289149328,0.998760971327
1576079642329968495,,,0,,1576079642,329869346,"""world""","""hoverOpti/base_link""",,,-0.204639136791,0.019517948851,2.5931417942,,0.008761710077,-0.0480058170726,-0.0104994033203,0.998753441293
1576079642351236238,,,0,,1576079642,351152741,"""world""","""hoverOpti/base_link""",,,-0.204647302628,0.0195371713489,2.59312868118,,0.00899941044896,-0.0478631972874,-0.0105030986374,0.998758133822
1576079642369763365,,,0,,1576079642,369686710,"""world""","""hoverOpti/base_link""",,,-0.204650014639,0.0194968320429,2.59309959412,,0.00876591181182,-0.047802810326,-0.0105824844599,0.998762264574
1576079642389996094,,,0,,1576079642,389927307,"""world""","""hoverOpti/base_link""",,,-0.204640328884,0.0195052158087,2.59310674667,,0.00861725687873,-0.047763307261,-0.0105342288923,0.998765958263
1576079642411001816,,,0,,1576079642,410930214,"""world""","""hoverOpti/base_link""",,,-0.204639643431,0.0195150189102,2.59315705299,,0.00891626259968,-0.0479223508018,-0.0105807325612,0.998755223593
1576079642429884748,,,0,,1576079642,429767907,"""world""","""hoverOpti/base_link""",,,-0.204636961222,0.0195019561797,2.59314441681,,0.00883278842192,-0.0480275568291,-0.0104500886354,0.998752287247
1576079642450107230,,,0,,1576079642,450016035,"""world""","""hoverOpti/base_link""",,,-0.204636201262,0.0194977205247,2.59310460091,,0.0086482634875,-0.0477791104172,-0.0105774051125,0.998764478067
1576079642469821899,,,0,,1576079642,469747391,"""world""","""hoverOpti/base_link""",,,-0.20464335382,0.0194911770523,2.59311008453,,0.00865450371649,-0.0478076318516,-0.0107465102442,0.998761253964
1576079642489799776,,,0,,1576079642,489732579,"""world""","""hoverOpti/base_link""",,,-0.204644307494,0.0194875597954,2.59310388565,,0.00858805408,-0.0478117570082,-0.0106679413623,0.998762472386
1576079642509785682,,,0,,1576079642,509714290,"""world""","""hoverOpti/base_link""",,,-0.204644933343,0.0195277873427,2.59315490723,,0.00881884236525,-0.0479784900176,-0.0105503647259,0.998753714546
1576079642529794428,,,0,,1576079642,529711079,"""world""","""hoverOpti/base_link""",,,-0.204634740949,0.0194949135184,2.59309768677,,0.00874140224659,-0.0478215213705,-0.0105332210912,0.998762104424
1576079642549755116,,,0,,1576079642,549688335,"""world""","""hoverOpti/base_link""",,,-0.204632818699,0.0195165481418,2.59310722351,,0.00856356956449,-0.0477770854786,-0.010353323783,0.998767652693
1576079642573717850,,,0,,1576079642,573634186,"""world""","""hoverOpti/base_link""",,,-0.204633414745,0.0195144489408,2.59310889244,,0.00878572505561,-0.0477407658395,-0.0104414535147,0.998766542472
1576079642589821697,,,0,,1576079642,589755208,"""world""","""hoverOpti/base_link""",,,-0.204649060965,0.0195301547647,2.59312772751,,0.00880628154631,-0.0480366525842,-0.0104545203733,0.998752037504
1576079642609757200,,,0,,1576079642,609691672,"""world""","""hoverOpti/base_link""",,,-0.204656168818,0.0195348765701,2.59311318398,,0.00890892226804,-0.0477020899145,-0.0107209666942,0.998764337867
1576079642629824792,,,0,,1576079642,629752231,"""world""","""hoverOpti/base_link""",,,-0.204647645354,0.0195167865604,2.59309434891,,0.00867000922308,-0.0477733959818,-0.0106317097396,0.998763986297
1576079642649875688,,,0,,1576079642,649801903,"""world""","""hoverOpti/base_link""",,,-0.204662516713,0.0195214785635,2.59310030937,,0.00887517923252,-0.0476884178245,-0.0106584924879,0.998765959841
1576079642669750310,,,0,,1576079642,669675092,"""world""","""hoverOpti/base_link""",,,-0.204641908407,0.0195241291076,2.59312582016,,0.00874223372116,-0.0480875879509,-0.010493161881,0.998749743824
1576079642689853193,,,0,,1576079642,689768814,"""world""","""hoverOpti/base_link""",,,-0.204651087523,0.0195144135505,2.59311532974,,0.00888397690746,-0.0480215565024,-0.0106801730412,0.998749687844
1576079642710576334,,,0,,1576079642,710490148,"""world""","""hoverOpti/base_link""",,,-0.204634711146,0.0195013172925,2.59309339523,,0.00874022878386,-0.047814182569,-0.0106236012871,0.998761508791
1576079642730473367,,,0,,1576079642,730384118,"""world""","""hoverOpti/base_link""",,,-0.204620927572,0.0195251777768,2.59313035011,,0.00877393514821,-0.0480536080062,-0.010565114353,0.998750342768
1576079642749839304,,,0,,1576079642,749768107,"""world""","""hoverOpti/base_link""",,,-0.204634547234,0.0194997489452,2.59309482574,,0.00862686257434,-0.0477727868837,-0.0105779030966,0.998764960359
1576079642769790305,,,0,,1576079642,769715969,"""world""","""hoverOpti/base_link""",,,-0.204658716917,0.0195205006748,2.5930993557,,0.00875931493799,-0.0477331494,-0.0105795122279,0.99876568562
1576079642790131306,,,0,,1576079642,790061065,"""world""","""hoverOpti/base_link""",,,-0.204655006528,0.0195294264704,2.5931096077,,0.00877537617628,-0.0477183469161,-0.0105860990495,0.998766182171
1576079642810168117,,,0,,1576079642,810099837,"""world""","""hoverOpti/base_link""",,,-0.204646617174,0.0195060893893,2.593105793,,0.00862566339457,-0.0478152646553,-0.0106416684021,0.998762260646
1576079642829858530,,,0,,1576079642,829792903,"""world""","""hoverOpti/base_link""",,,-0.20464374125,0.0195158366114,2.59312295914,,0.00871092370662,-0.0480096383051,-0.0105186106006,0.998753499753
1576079642849757553,,,0,,1576079642,849684417,"""world""","""hoverOpti/base_link""",,,-0.204659029841,0.0195128507912,2.59310030937,,0.00877940960917,-0.0477744751817,-0.0104481355771,0.99876491626
1576079642874288669,,,0,,1576079642,874205413,"""world""","""hoverOpti/base_link""",,,-0.204653680325,0.0195117797703,2.5931019783,,0.00875981083892,-0.0477281287425,-0.0105789351427,0.998765927318
1576079642889840276,,,0,,1576079642,889774047,"""world""","""hoverOpti/base_link""",,,-0.204656988382,0.0195091292262,2.59310555458,,0.00872383532361,-0.0477259375098,-0.0106797421534,0.998765274073
1576079642909901172,,,0,,1576079642,909787590,"""world""","""hoverOpti/base_link""",,,-0.204636007547,0.019503319636,2.593095541,,0.00860968448564,-0.0477325546094,-0.010630998914,0.998766468413
1576079642929950718,,,0,,1576079642,929855588,"""world""","""hoverOpti/base_link""",,,-0.204646319151,0.0194955803454,2.59310412407,,0.00854321425625,-0.0477530518289,-0.0105178489658,0.998767257365
1576079642949849743,,,0,,1576079642,949778696,"""world""","""hoverOpti/base_link""",,,-0.204637542367,0.0195140093565,2.59310078621,,0.00868829173255,-0.0477754521814,-0.01061172435,0.998763941611
1576079642970857722,,,0,,1576079642,970786027,"""world""","""hoverOpti/base_link""",,,-0.204635620117,0.0195104312152,2.59309411049,,0.00869383873571,-0.0477966493354,-0.0105446803545,0.998763589243
1576079642989851298,,,0,,1576079642,989750098,"""world""","""hoverOpti/base_link""",,,-0.204628750682,0.0195062290877,2.59310030937,,0.00867454212819,-0.0478086977037,-0.0104833763296,0.998763825718
1576079643010031575,,,0,,1576079643,9948988,"""world""","""hoverOpti/base_link""",,,-0.204643845558,0.0195038300008,2.59310293198,,0.00870105019731,-0.0477619704865,-0.0106856053674,0.998763687635
1576079643029787421,,,0,,1576079643,29721038,"""world""","""hoverOpti/base_link""",,,-0.204642504454,0.0194962136447,2.5930891037,,0.00858894130281,-0.0478509564123,-0.010623291491,0.998761063386
1576079643049673967,,,0,,1576079643,49609409,"""world""","""hoverOpti/base_link""",,,-0.204646006227,0.0195157695562,2.59312081337,,0.00884949903304,-0.0479593424541,-0.0104598739126,0.998755314817
1576079643069789288,,,0,,1576079643,69717976,"""world""","""hoverOpti/base_link""",,,-0.204641520977,0.0195123050362,2.593095541,,0.00858891103537,-0.0477367639609,-0.0107556870222,0.99876511111
1576079643089861520,,,0,,1576079643,89777919,"""world""","""hoverOpti/base_link""",,,-0.204642355442,0.0195001140237,2.59309434891,,0.00865468196119,-0.0478067956615,-0.010556172574,0.998763322309
1576079643109806613,,,0,,1576079643,109722500,"""world""","""hoverOpti/base_link""",,,-0.204654559493,0.019491257146,2.59308791161,,0.00877061821401,-0.0477792451288,-0.0107509424054,0.998761551737
1576079643129735637,,,0,,1576079643,129665776,"""world""","""hoverOpti/base_link""",,,-0.204652190208,0.0195024926215,2.5930891037,,0.00870901838707,-0.047824911858,-0.0106727798727,0.998760743409
1576079643150567222,,,0,,1576079643,150501342,"""world""","""hoverOpti/base_link""",,,-0.204648852348,0.0195167027414,2.59309649467,,0.00868275218627,-0.0477434144671,-0.0105079209484,0.998766619279
1576079643176291383,,,0,,1576079643,176223274,"""world""","""hoverOpti/base_link""",,,-0.204647094011,0.0195134077221,2.59309792519,,0.00878939144545,-0.0477526222049,-0.0106188683179,0.998764072895
1576079643189881313,,,0,,1576079643,189817134,"""world""","""hoverOpti/base_link""",,,-0.204659044743,0.0195289608091,2.59311294556,,0.00882797503897,-0.0476922095857,-0.0107816988836,0.998764874718
1576079643209774488,,,0,,1576079643,209689409,"""world""","""hoverOpti/base_link""",,,-0.204669222236,0.0195375848562,2.59312701225,,0.00883619991522,-0.0476664573326,-0.0106286390641,0.998767671908
1576079643229756054,,,0,,1576079643,229681829,"""world""","""hoverOpti/base_link""",,,-0.204635873437,0.0195239242166,2.593126297,,0.00866478493019,-0.0480175240564,-0.0105220824203,0.998753485434
1576079643251547624,,,0,,1576079643,249772301,"""world""","""hoverOpti/base_link""",,,-0.204658016562,0.0195373222232,2.59311461449,,0.00874675791065,-0.0476411011749,-0.0107834467151,0.998768009591
1576079643269798056,,,0,,1576079643,269686926,"""world""","""hoverOpti/base_link""",,,-0.204664856195,0.0195156112313,2.59310388565,,0.0087459735659,-0.0477372984099,-0.0106968754177,0.998764354161
1576079643289730648,,,0,,1576079643,289652305,"""world""","""hoverOpti/base_link""",,,-0.204632669687,0.0195195768028,2.59312772751,,0.00875780709441,-0.0480539749413,-0.010444580315,0.998751734441
1576079643309732050,,,0,,1576079643,309627761,"""world""","""hoverOpti/base_link""",,,-0.204663261771,0.0195315480232,2.59311127663,,0.00887670205841,-0.0477104237245,-0.010735994497,0.998764065258
1576079643329713816,,,0,,1576079643,329642832,"""world""","""hoverOpti/base_link""",,,-0.204654544592,0.019515382126,2.59310245514,,0.0087203184645,-0.0477811601979,-0.0107107642805,0.998762332242
1576079643350906395,,,0,,1576079643,350835350,"""world""","""hoverOpti/base_link""",,,-0.204656898975,0.0195575747639,2.59314155579,,0.00886985204831,-0.0478965236168,-0.010499571579,0.998757732259
1576079643369793907,,,0,,1576079643,369679325,"""world""","""hoverOpti/base_link""",,,-0.20463296771,0.0195174831897,2.59312200546,,0.00876577490232,-0.0479694760632,-0.0105032344895,0.998755111437
1576079643390790624,,,0,,1576079643,390687596,"""world""","""hoverOpti/base_link""",,,-0.204644396901,0.0195489116013,2.59315633774,,0.0087965839479,-0.0478626792385,-0.0105512245668,0.998759458382
1576079643409663895,,,0,,1576079643,409580936,"""world""","""hoverOpti/base_link""",,,-0.204641550779,0.0195120889693,2.59310412407,,0.00875758470626,-0.0477136260561,-0.0106724491074,0.998765644898
1576079643430711637,,,0,,1576079643,430641737,"""world""","""hoverOpti/base_link""",,,-0.204641103745,0.0195096861571,2.59309458733,,0.00873331793028,-0.0477063157526,-0.0106214253831,0.998766750507
1576079643449836059,,,0,,1576079643,449755087,"""world""","""hoverOpti/base_link""",,,-0.204656228423,0.0195300243795,2.59315490723,,0.00888943329714,-0.0478699694883,-0.0107008071475,0.998756695459
1576079643469690672,,,0,,1576079643,469623111,"""world""","""hoverOpti/base_link""",,,-0.204633146524,0.0195227637887,2.59313011169,,0.00874224947444,-0.0479922438339,-0.0104266050054,0.998755026778
1576079643490576338,,,0,,1576079643,490509992,"""world""","""hoverOpti/base_link""",,,-0.204646587372,0.019508915022,2.59309196472,,0.00873389070162,-0.0477409274673,-0.0105773580038,0.998765559326
1576079643510087858,,,0,,1576079643,510014033,"""world""","""hoverOpti/base_link""",,,-0.204644709826,0.0195191707462,2.59312391281,,0.00886733718443,-0.0479571436825,-0.010680155607,0.998752930898
1576079643529806938,,,0,,1576079643,529725547,"""world""","""hoverOpti/base_link""",,,-0.204639032483,0.0195084754378,2.59310865402,,0.00871516535442,-0.0477157398165,-0.0105789149614,0.998766910057
1576079643549848862,,,0,,1576079643,549748735,"""world""","""hoverOpti/base_link""",,,-0.204647034407,0.0195172969252,2.59310030937,,0.00864870681343,-0.047811392451,-0.0104914531716,0.998763835966
1576079643569766425,,,0,,1576079643,569700330,"""world""","""hoverOpti/base_link""",,,-0.20463514328,0.0195125974715,2.59312701225,,0.00891052949302,-0.0480582338151,-0.0105855204524,0.998748694809
1576079643589907210,,,0,,1576079643,589840190,"""world""","""hoverOpti/base_link""",,,-0.204648792744,0.0195213314146,2.59310531616,,0.00870646321167,-0.0477286151589,-0.0105828099163,0.998766329492
1576079643609759561,,,0,,1576079643,609656459,"""world""","""hoverOpti/base_link""",,,-0.204658180475,0.0195265226066,2.59312582016,,0.00871862750612,-0.0477415844859,-0.0107406117036,0.998763919005
1576079643629850300,,,0,,1576079643,629760615,"""world""","""hoverOpti/base_link""",,,-0.204629033804,0.0195262450725,2.59312200546,,0.00878944413132,-0.047992652993,-0.0104718298932,0.998754119746
1576079643649807235,,,0,,1576079643,649722126,"""world""","""hoverOpti/base_link""",,,-0.204649940133,0.0195274949074,2.59311270714,,0.00871259066368,-0.0477138347464,-0.010618814257,0.998766600123
1576079643669779241,,,0,,1576079643,669703575,"""world""","""hoverOpti/base_link""",,,-0.204653978348,0.0195212028921,2.59312534332,,0.00891157758681,-0.0476149932643,-0.0107326586596,0.998768344632
1576079643689699003,,,0,,1576079643,689615833,"""world""","""hoverOpti/base_link""",,,-0.204667940736,0.0195354241878,2.59312176704,,0.0088539866214,-0.0477104472214,-0.0106874775995,0.998764786108
1576079643709799629,,,0,,1576079643,709716277,"""world""","""hoverOpti/base_link""",,,-0.204650193453,0.0195072926581,2.59310221672,,0.00876000224559,-0.0478151839698,-0.0107640519191,0.998759783796
1576079643730039848,,,0,,1576079643,729968443,"""world""","""hoverOpti/base_link""",,,-0.204649403691,0.0195406656712,2.59314799309,,0.00886742559266,-0.0478879944813,-0.0106510200312,0.998756559188
1576079643750029382,,,0,,1576079643,749959681,"""world""","""hoverOpti/base_link""",,,-0.204655095935,0.0195250082761,2.59312558174,,0.00886837267815,-0.0479116534237,-0.0105947205687,0.998756014915
1576079643769720304,,,0,,1576079643,769638067,"""world""","""hoverOpti/base_link""",,,-0.204640865326,0.0195135455579,2.59310555458,,0.00867457566045,-0.0477164595446,-0.0106243375902,0.998766746882
1576079643790099465,,,0,,1576079643,790031686,"""world""","""hoverOpti/base_link""",,,-0.204664483666,0.0195183884352,2.59310126305,,0.00882157588949,-0.0477222576039,-0.010703726656,0.998764334647
1576079643809729508,,,0,,1576079643,809662299,"""world""","""hoverOpti/base_link""",,,-0.204644814134,0.0195250343531,2.59311342239,,0.00874040833711,-0.0477372034896,-0.0106030423086,0.998765407971
1576079643836452107,,,0,,1576079643,836383443,"""world""","""hoverOpti/base_link""",,,-0.20463038981,0.0195143297315,2.59311366081,,0.00854461998915,-0.0477488070502,-0.0105882667166,0.998766704242
1576079643851036325,,,0,,1576079643,850949571,"""world""","""hoverOpti/base_link""",,,-0.204651221633,0.019533643499,2.59314370155,,0.00885484247756,-0.0479709007271,-0.0105451584405,0.998753815553
1576079643869887440,,,0,,1576079643,869812866,"""world""","""hoverOpti/base_link""",,,-0.204640135169,0.0195125583559,2.59310817719,,0.00863985833585,-0.0477319894113,-0.010594013431,0.998766627854
1576079643892215978,,,0,,1576079643,892148521,"""world""","""hoverOpti/base_link""",,,-0.204643934965,0.0195176154375,2.59310913086,,0.0085758996808,-0.0477140018327,-0.0106144202569,0.998767821897
1576079643909835303,,,0,,1576079643,909749743,"""world""","""hoverOpti/base_link""",,,-0.204661741853,0.0195251125842,2.59310078621,,0.00877259034286,-0.0476475985866,-0.0107896895724,0.998767405659
1576079643930089155,,,0,,1576079643,929971757,"""world""","""hoverOpti/base_link""",,,-0.204655468464,0.0195256676525,2.59310746193,,0.00877628926241,-0.0477791234218,-0.0106944877708,0.998762113841
1576079643949766724,,,0,,1576079643,949697469,"""world""","""hoverOpti/base_link""",,,-0.204649239779,0.0195182804018,2.59309506416,,0.00880990063935,-0.0476566281351,-0.0107518152647,0.99876705488
1576079643969902679,,,0,,1576079643,969830205,"""world""","""hoverOpti/base_link""",,,-0.204644948244,0.0195046123117,2.59309148788,,0.00861689517458,-0.0478172214405,-0.0105875187395,0.99876281814
1576079643990512094,,,0,,1576079643,990444202,"""world""","""hoverOpti/base_link""",,,-0.204648047686,0.0195035915822,2.59309697151,,0.00886757630114,-0.0477586440625,-0.0106185697611,0.998763097028
1576079644009782826,,,0,,1576079644,9704774,"""world""","""hoverOpti/base_link""",,,-0.204644098878,0.0194946341217,2.59308624268,,0.0087382027738,-0.0477582093551,-0.0106021601138,0.998764432413
1576079644030015901,,,0,,1576079644,29935463,"""world""","""hoverOpti/base_link""",,,-0.204655960202,0.0195125602186,2.59308791161,,0.00859390934829,-0.0478587517861,-0.010780673356,0.998758960752
1576079644049857078,,,0,,1576079644,49787306,"""world""","""hoverOpti/base_link""",,,-0.204648479819,0.0195035412908,2.59309744835,,0.00874319625431,-0.0477622833421,-0.0107167478459,0.998762970942
1576079644070029729,,,0,,1576079644,69956225,"""world""","""hoverOpti/base_link""",,,-0.204651579261,0.0195183828473,2.59309744835,,0.00874332887723,-0.0477018611833,-0.0105978128263,0.998767126513
1576079644089776433,,,0,,1576079644,89708744,"""world""","""hoverOpti/base_link""",,,-0.204663082957,0.0195146556944,2.59309577942,,0.0087556930566,-0.0477400599879,-0.0106128284685,0.998765033621
1576079644109792302,,,0,,1576079644,109727888,"""world""","""hoverOpti/base_link""",,,-0.204642608762,0.0195118729025,2.59308695793,,0.00859452353909,-0.0477729742981,-0.0105785999805,0.99876522282
1576079644129958647,,,0,,1576079644,129893674,"""world""","""hoverOpti/base_link""",,,-0.204650983214,0.0195098742843,2.59309315681,,0.00875906923764,-0.0477813332245,-0.0105967111658,0.998763201472
1576079644149835693,,,0,,1576079644,149744249,"""world""","""hoverOpti/base_link""",,,-0.204664334655,0.0195172056556,2.59309363365,,0.00866226085614,-0.0478469829435,-0.010629310943,0.998760556494
1576079644173466910,,,0,,1576079644,173322463,"""world""","""hoverOpti/base_link""",,,-0.204659804702,0.019520541653,2.59309697151,,0.00865857252959,-0.0477378564227,-0.0106052284502,0.998766066362
1576079644189826666,,,0,,1576079644,189711312,"""world""","""hoverOpti/base_link""",,,-0.204653516412,0.0195013936609,2.59310388565,,0.00872387085433,-0.0478114485917,-0.0107248500029,0.998760700595
1576079644209779685,,,0,,1576079644,209702052,"""world""","""hoverOpti/base_link""",,,-0.204648762941,0.0194904524833,2.59310007095,,0.00868932372301,-0.047806065687,-0.0106950142821,0.99876157936
1576079644232580973,,,0,,1576079644,232461786,"""world""","""hoverOpti/base_link""",,,-0.204639852047,0.0195044055581,2.59311056137,,0.00853945951874,-0.0477988488062,-0.0106029061609,0.998764199431
1576079644249824979,,,0,,1576079644,249714649,"""world""","""hoverOpti/base_link""",,,-0.204647898674,0.0195119082928,2.5931019783,,0.008716449349,-0.0476711352816,-0.0106301242971,0.9987684851
1576079644269780205,,,0,,1576079644,269667516,"""world""","""hoverOpti/base_link""",,,-0.204654440284,0.0195069387555,2.593105793,,0.00878798183207,-0.0478047896648,-0.0108053698757,0.998759589412
1576079644289793596,,,0,,1576079644,289707963,"""world""","""hoverOpti/base_link""",,,-0.204640865326,0.0195163972676,2.5931084156,,0.00866489264856,-0.0477041471775,-0.0106208469303,0.998767456212
1576079644309785926,,,0,,1576079644,309712391,"""world""","""hoverOpti/base_link""",,,-0.204631537199,0.0195034183562,2.59310293198,,0.00853114179304,-0.0477873632663,-0.0106229779201,0.998764606838
1576079644330021980,,,0,,1576079644,329947055,"""world""","""hoverOpti/base_link""",,,-0.204645559192,0.0195000004023,2.59309077263,,0.00875856444768,-0.0478009877844,-0.0107546364496,0.998760577371
1576079644349747531,,,0,,1576079644,349663985,"""world""","""hoverOpti/base_link""",,,-0.204634964466,0.0195043385029,2.59309577942,,0.008563136752,-0.0477368336588,-0.0105452117149,0.998767573518
1576079644369907834,,,0,,1576079644,369841298,"""world""","""hoverOpti/base_link""",,,-0.204634934664,0.0195058789104,2.59309148788,,0.00855811048791,-0.0477520198768,-0.0105821613263,0.998766499841
1576079644389826262,,,0,,1576079644,389760103,"""world""","""hoverOpti/base_link""",,,-0.204649314284,0.0195041112602,2.59309673309,,0.00873985721351,-0.0477294113802,-0.0105969107467,0.998765850271
1576079644409792539,,,0,,1576079644,409726975,"""world""","""hoverOpti/base_link""",,,-0.204634934664,0.0194970853627,2.59309101105,,0.00859223119239,-0.047790139876,-0.010603573165,0.99876415651
1576079644429934551,,,0,,1576079644,429861067,"""world""","""hoverOpti/base_link""",,,-0.204652830958,0.019493540749,2.59310722351,,0.00867855033327,-0.0478214705822,-0.010627511278,0.998761656112
1576079644449825095,,,0,,1576079644,449754819,"""world""","""hoverOpti/base_link""",,,-0.20464220643,0.0194900017232,2.59309720993,,0.00866414437787,-0.0478646392346,-0.0105831895296,0.998760183934
1576079644469804093,,,0,,1576079644,469733693,"""world""","""hoverOpti/base_link""",,,-0.20464348793,0.0194981582463,2.59309506416,,0.00880720157686,-0.0478028192118,-0.0106648650199,0.998761024635
1576079644489816737,,,0,,1576079644,489740522,"""world""","""hoverOpti/base_link""",,,-0.204640492797,0.0194987617433,2.59309101105,,0.0087700819751,-0.0477832285693,-0.0106199865955,0.998762766934
1576079644513982266,,,0,,1576079644,513879108,"""world""","""hoverOpti/base_link""",,,-0.204652279615,0.01950372383,2.59309744835,,0.00867158960938,-0.0478362263495,-0.010706738861,0.998760163766
1576079644531961456,,,0,,1576079644,531871227,"""world""","""hoverOpti/base_link""",,,-0.204645901918,0.0194936264306,2.59309315681,,0.00868419846935,-0.0477252384406,-0.0107014841668,0.998765420181
1576079644549826355,,,0,,1576079644,549743917,"""world""","""hoverOpti/base_link""",,,-0.20464527607,0.0195024609566,2.5930891037,,0.00872765663198,-0.0477715206642,-0.010588504319,0.998764032892
1576079644569739949,,,0,,1576079644,569670620,"""world""","""hoverOpti/base_link""",,,-0.204653933644,0.0194939598441,2.59309649467,,0.00864595251744,-0.0477400860198,-0.0106130203109,0.998765986351
1576079644589790681,,,0,,1576079644,589720341,"""world""","""hoverOpti/base_link""",,,-0.204644903541,0.0194965768605,2.59309077263,,0.00873336311756,-0.0478069892702,-0.0105769998243,0.998762407793
1576079644610054149,,,0,,1576079644,609987319,"""world""","""hoverOpti/base_link""",,,-0.204633489251,0.0195001885295,2.5930993557,,0.00857538750415,-0.0477484461461,-0.010577101296,0.998766576107
1576079644629804416,,,0,,1576079644,629731319,"""world""","""hoverOpti/base_link""",,,-0.204634487629,0.0195161253214,2.59310865402,,0.00874943591748,-0.0477897376501,-0.0105172955764,0.99876372323
1576079644649936777,,,0,,1576079644,649867387,"""world""","""hoverOpti/base_link""",,,-0.20464001596,0.0194958467036,2.59309339523,,0.00873660507849,-0.0478535159424,-0.0106739460798,0.998759119918
1576079644669955791,,,0,,1576079644,669861259,"""world""","""hoverOpti/base_link""",,,-0.204648852348,0.0195089764893,2.59311103821,,0.00889695086359,-0.0477038547114,-0.0108792959534,0.998762648196
1576079644689937810,,,0,,1576079644,689867050,"""world""","""hoverOpti/base_link""",,,-0.204637423158,0.019504038617,2.59309744835,,0.00870329574286,-0.0477550831215,-0.0105281905937,0.998765669155
1576079644711342376,,,0,,1576079644,711276125,"""world""","""hoverOpti/base_link""",,,-0.204644024372,0.0194919686764,2.59308934212,,0.00869375757828,-0.0477414547059,-0.0105816304176,0.998765839013
1576079644730078570,,,0,,1576079644,729997095,"""world""","""hoverOpti/base_link""",,,-0.204628184438,0.0194977708161,2.59309387207,,0.00867357808276,-0.047712740983,-0.0105533836912,0.998767685442
1576079644750133838,,,0,,1576079644,749997780,"""world""","""hoverOpti/base_link""",,,-0.20464900136,0.0195080917329,2.593085289,,0.00867206132462,-0.0477420722085,-0.0105759109672,0.998766058695
1576079644770071476,,,0,,1576079644,769998373,"""world""","""hoverOpti/base_link""",,,-0.204641744494,0.0194897688925,2.59309506416,,0.0086631826039,-0.047805466866,-0.0106109542551,0.998762731711
1576079644789785892,,,0,,1576079644,789716570,"""world""","""hoverOpti/base_link""",,,-0.204633668065,0.0195030141622,2.59309911728,,0.00864027745782,-0.0477779410165,-0.0105491069506,0.998764902417
1576079644809727751,,,0,,1576079644,809662506,"""world""","""hoverOpti/base_link""",,,-0.204644605517,0.019506579265,2.59309458733,,0.00866761367513,-0.0478650259131,-0.0105649001597,0.998760328934
1576079644829833278,,,0,,1576079644,829768217,"""world""","""hoverOpti/base_link""",,,-0.204639330506,0.0195007715374,2.59309005737,,0.00860395261577,-0.0477634693984,-0.0105422341494,0.998765980743
1576079644850097818,,,0,,1576079644,850023188,"""world""","""hoverOpti/base_link""",,,-0.204638272524,0.019502023235,2.59310483932,,0.00861076352844,-0.047799735936,-0.0107192629219,0.998762302752
1576079644870066517,,,0,,1576079644,869978534,"""world""","""hoverOpti/base_link""",,,-0.204650402069,0.0194918755442,2.59309720993,,0.00868184315585,-0.0478284476167,-0.0107209916512,0.998760294333
1576079644890078631,,,0,,1576079644,890008521,"""world""","""hoverOpti/base_link""",,,-0.204653918743,0.0194991864264,2.59310126305,,0.00864968534015,-0.0477289352644,-0.0105457451904,0.998767199572
1576079644910201155,,,0,,1576079644,910128124,"""world""","""hoverOpti/base_link""",,,-0.204635575414,0.0194938033819,2.59310102463,,0.00852401397549,-0.0477047377824,-0.0105897943932,0.998768969999
1576079644929890731,,,0,,1576079644,929802025,"""world""","""hoverOpti/base_link""",,,-0.204628169537,0.019499566406,2.59310555458,,0.00860268029771,-0.0478205475643,-0.0105964015698,0.998762687227
1576079644949761993,,,0,,1576079644,949680479,"""world""","""hoverOpti/base_link""",,,-0.204650372267,0.0194926448166,2.59311342239,,0.00862016602331,-0.0477219548376,-0.0107209829033,0.998765922671
1576079644969899209,,,0,,1576079644,969825366,"""world""","""hoverOpti/base_link""",,,-0.204644694924,0.0195093154907,2.59312438965,,0.00878377034143,-0.0479879023034,-0.0105736446605,0.998753325226
1576079644989869243,,,0,,1576079644,989799874,"""world""","""hoverOpti/base_link""",,,-0.204647958279,0.0194984879345,2.59310603142,,0.00864684920449,-0.0477632787015,-0.0107335425438,0.99876358177
1576079645009814987,,,0,,1576079645,9742754,"""world""","""hoverOpti/base_link""",,,-0.204644158483,0.0195069108158,2.59310626984,,0.0087913439536,-0.04778872647,-0.0106517268596,0.998761978956
1576079645029770270,,,0,,1576079645,29691879,"""world""","""hoverOpti/base_link""",,,-0.20463898778,0.0194931458682,2.59310412407,,0.00871552042845,-0.0477442954807,-0.0107330575177,0.99876389774
1576079645049852919,,,0,,1576079645,49782830,"""world""","""hoverOpti/base_link""",,,-0.204645976424,0.0194985195994,2.59309887886,,0.00867736642662,-0.0478313876339,-0.0106207023481,0.998761263942
1576079645069674385,,,0,,1576079645,69595855,"""world""","""hoverOpti/base_link""",,,-0.204646646976,0.0195323526859,2.59313225746,,0.00883738011489,-0.0480418969545,-0.0103942831803,0.998752139285
1576079645089732732,,,0,,1576079645,89665659,"""world""","""hoverOpti/base_link""",,,-0.204657316208,0.0195296164602,2.59309148788,,0.00875605536589,-0.0477277890172,-0.0105438249474,0.998766347754
1576079645110350025,,,0,,1576079645,110268090,"""world""","""hoverOpti/base_link""",,,-0.204659730196,0.0195269491524,2.59311032295,,0.00888209995451,-0.0476798760764,-0.0106623417208,0.998766265042
1576079645130333374,,,0,,1576079645,130244422,"""world""","""hoverOpti/base_link""",,,-0.204652711749,0.0194999314845,2.59310555458,,0.00862052405278,-0.04781328628,-0.0106143013306,0.998762690947
1576079645150241882,,,0,,1576079645,150166630,"""world""","""hoverOpti/base_link""",,,-0.204646587372,0.0195136982948,2.59310793877,,0.00870369528636,-0.0477489960311,-0.0105779027356,0.99876543144
1576079645169841924,,,0,,1576079645,169772259,"""world""","""hoverOpti/base_link""",,,-0.204642355442,0.0194949693978,2.59309697151,,0.00867429675077,-0.0477738093441,-0.0107806616158,0.998762332616
1576079645190126738,,,0,,1576079645,190055674,"""world""","""hoverOpti/base_link""",,,-0.2046200037,0.0195211693645,2.59313201904,,0.00868056663244,-0.0479605542097,-0.0105873489085,0.998755396003
1576079645210568586,,,0,,1576079645,210471617,"""world""","""hoverOpti/base_link""",,,-0.204632431269,0.01950689964,2.59312725067,,0.00876384453786,-0.0480703383824,-0.0105608518238,0.998749671342
1576079645229827217,,,0,,1576079645,229751143,"""world""","""hoverOpti/base_link""",,,-0.20465195179,0.0195061136037,2.59308552742,,0.00868861780033,-0.047768228025,-0.0106640115115,0.9987637274
1576079645249771444,,,0,,1576079645,249677543,"""world""","""hoverOpti/base_link""",,,-0.20464284718,0.019489267841,2.59310221672,,0.00869788442102,-0.0476770140889,-0.0106015364884,0.998768670193
1576079645269758148,,,0,,1576079645,269661844,"""world""","""hoverOpti/base_link""",,,-0.204624637961,0.0195166952908,2.59312963486,,0.00857272390297,-0.0480239513532,-0.0103953529548,0.998755297928
1576079645291457823,,,0,,1576079645,291350775,"""world""","""hoverOpti/base_link""",,,-0.204635694623,0.0195027086884,2.59309005737,,0.0087105142155,-0.0477472625954,-0.0105373359289,0.998765883683
1576079645309774000,,,0,,1576079645,309699983,"""world""","""hoverOpti/base_link""",,,-0.204654321074,0.0195187143981,2.59311842918,,0.00874513173512,-0.0476920179707,-0.0107537895735,0.998765913567
1576079645329833973,,,0,,1576079645,329745506,"""world""","""hoverOpti/base_link""",,,-0.204642906785,0.0195167530328,2.59312224388,,0.0087490962562,-0.0479898505426,-0.0105712017822,0.998753561822
1576079645349979697,,,0,,1576079645,349881371,"""world""","""hoverOpti/base_link""",,,-0.204647928476,0.0195260792971,2.59311175346,,0.00885148737902,-0.0477622558381,-0.0106973974382,0.998762225846
1576079645369647646,,,0,,1576079645,369572918,"""world""","""hoverOpti/base_link""",,,-0.204659178853,0.0195357576013,2.59314370155,,0.00892895317996,-0.0478931862655,-0.0105107644393,0.998757247951
1576079645389858000,,,0,,1576079645,389786565,"""world""","""hoverOpti/base_link""",,,-0.204645603895,0.0195113755763,2.5931429863,,0.00903129591277,-0.0479442025245,-0.0106012877059,0.998752923319
1576079645410046518,,,0,,1576079645,409966973,"""world""","""hoverOpti/base_link""",,,-0.204647302628,0.0195292979479,2.59315752983,,0.00883623322419,-0.0479584220298,-0.0105551062336,0.998754474569
1576079645429832457,,,0,,1576079645,429682604,"""world""","""hoverOpti/base_link""",,,-0.204636633396,0.0195017140359,2.59312033653,,0.00878172548583,-0.0480363030707,-0.0106445624759,0.998750263166
1576079645449769134,,,0,,1576079645,449687508,"""world""","""hoverOpti/base_link""",,,-0.204661041498,0.0195189360529,2.59312987328,,0.00880402936645,-0.0476757004538,-0.0106852096081,0.99876691122
1576079645469710056,,,0,,1576079645,469629336,"""world""","""hoverOpti/base_link""",,,-0.204635590315,0.0194855071604,2.59310650826,,0.00860566846265,-0.0478525467629,-0.0105734320232,0.998761372288
1576079645490024855,,,0,,1576079645,489936319,"""world""","""hoverOpti/base_link""",,,-0.204647898674,0.0195057429373,2.59312391281,,0.00879686775091,-0.0480304798492,-0.0105584792692,0.998751323723
1576079645510310298,,,0,,1576079645,510218800,"""world""","""hoverOpti/base_link""",,,-0.204662203789,0.0194963775575,2.59308934212,,0.00869696763713,-0.047759055549,-0.0107591467619,0.99876307307
1576079645530553148,,,0,,1576079645,530463327,"""world""","""hoverOpti/base_link""",,,-0.204632207751,0.0194935426116,2.59310412407,,0.00880400575302,-0.0477599945265,-0.0107133928885,0.998762582208
1576079645550005895,,,0,,1576079645,549729341,"""world""","""hoverOpti/base_link""",,,-0.204637616873,0.0194923523813,2.59310150146,,0.0087171386616,-0.0477718841367,-0.0106194153862,0.998763779177
1576079645569742845,,,0,,1576079645,569635551,"""world""","""hoverOpti/base_link""",,,-0.204648062587,0.0194997321814,2.59308815002,,0.00867484074502,-0.0478438402286,-0.0106488831069,0.998760389372
1576079645589634578,,,0,,1576079645,589531632,"""world""","""hoverOpti/base_link""",,,-0.204628154635,0.0195079445839,2.5931289196,,0.00882366464843,-0.0480406086606,-0.0105299639797,0.998750901236
1576079645609880292,,,0,,1576079645,609805992,"""world""","""hoverOpti/base_link""",,,-0.204655125737,0.0195289757103,2.59311914444,,0.00894742603837,-0.0477217190192,-0.0106334299507,0.998763991776
1576079645630110855,,,0,,1576079645,629952977,"""world""","""hoverOpti/base_link""",,,-0.204635247588,0.0195201151073,2.59310245514,,0.00871825216089,-0.0477745345568,-0.0105429384602,0.9987644529
1576079645649766986,,,0,,1576079645,649690676,"""world""","""hoverOpti/base_link""",,,-0.204635113478,0.0195328872651,2.59311914444,,0.00883773641468,-0.0480669138454,-0.0104940590182,0.998749889078
1576079645669857674,,,0,,1576079645,669690044,"""world""","""hoverOpti/base_link""",,,-0.204619780183,0.0195271652192,2.59313154221,,0.00865170307778,-0.0479767480061,-0.0104182533266,0.998756646878
1576079645689907474,,,0,,1576079645,689807020,"""world""","""hoverOpti/base_link""",,,-0.204642891884,0.0195154994726,2.59313440323,,0.00891701204225,-0.0479726817355,-0.0106080469975,0.998752510907
1576079645709937981,,,0,,1576079645,709811228,"""world""","""hoverOpti/base_link""",,,-0.204639360309,0.0194989647716,2.59310030937,,0.00865272918409,-0.0477458957543,-0.0107670084291,0.998764001777
1576079645729873207,,,0,,1576079645,729751022,"""world""","""hoverOpti/base_link""",,,-0.204645708203,0.0195052120835,2.59310889244,,0.00857718164027,-0.0477550533624,-0.0106088124015,0.998765908476
1576079645749655956,,,0,,1576079645,749568629,"""world""","""hoverOpti/base_link""",,,-0.204633116722,0.0195077508688,2.59313726425,,0.00870367422361,-0.04807014037,-0.0105771208594,0.998750034881
1576079645770314142,,,0,,1576079645,770146492,"""world""","""hoverOpti/base_link""",,,-0.204647436738,0.019487451762,2.59310793877,,0.00873925136879,-0.047829488652,-0.0106400629887,0.998760609235
1576079645789915183,,,0,,1576079645,789738362,"""world""","""hoverOpti/base_link""",,,-0.204642772675,0.019502941519,2.59313225746,,0.00872379518969,-0.0479993398068,-0.0107206764669,0.998751733852
1576079645810211863,,,0,,1576079645,810017922,"""world""","""hoverOpti/base_link""",,,-0.204649910331,0.0195345394313,2.59315538406,,0.00893352228983,-0.047918991573,-0.0105642652421,0.998755404854
1576079645831564159,,,0,,1576079645,831451273,"""world""","""hoverOpti/base_link""",,,-0.204625502229,0.0195094142109,2.59313750267,,0.00885234659909,-0.0480725605292,-0.0105634310676,0.998748756599
1576079645850147573,,,0,,1576079645,849864992,"""world""","""hoverOpti/base_link""",,,-0.204637229443,0.0195139423013,2.59313440323,,0.00867054221387,-0.047806627082,-0.0107248954169,0.998761395291
1576079645869720663,,,0,,1576079645,869614307,"""world""","""hoverOpti/base_link""",,,-0.20464296639,0.0195073727518,2.59310173988,,0.0087315424465,-0.0478662529168,-0.0105473207104,0.998759899087
1576079645890332658,,,0,,1576079645,890241528,"""world""","""hoverOpti/base_link""",,,-0.204638004303,0.0195174105465,2.59312987328,,0.00877821033073,-0.0480120458257,-0.0104853450216,0.998753144685
1576079645912830298,,,0,,1576079645,910876295,"""world""","""hoverOpti/base_link""",,,-0.204649373889,0.0195421036333,2.59314918518,,0.00891223507823,-0.0479619256891,-0.0105109573043,0.998754096626
1576079645929843173,,,0,,1576079645,929728093,"""world""","""hoverOpti/base_link""",,,-0.20463706553,0.0195144116879,2.59311056137,,0.00852480629487,-0.0477659668195,-0.0105245132693,0.998766726875
1576079645949811260,,,0,,1576079645,949653384,"""world""","""hoverOpti/base_link""",,,-0.204644396901,0.0195232015103,2.59313201904,,0.00885862550983,-0.0479699098004,-0.0105859261538,0.99875339833
1576079645969929146,,,0,,1576079645,969825278,"""world""","""hoverOpti/base_link""",,,-0.204653322697,0.0194962471724,2.59309315681,,0.00868442666638,-0.0478417134951,-0.0106145266051,0.998760773663
1576079645990675490,,,0,,1576079645,990569370,"""world""","""hoverOpti/base_link""",,,-0.20464245975,0.0195046868175,2.59309959412,,0.00877877676403,-0.0477797228619,-0.0107015461902,0.998761987698
1576079646010292559,,,0,,1576079646,10061977,"""world""","""hoverOpti/base_link""",,,-0.20463591814,0.0195181723684,2.59312200546,,0.00876510321967,-0.0480330284258,-0.0105385146124,0.99875169129
1576079646029676957,,,0,,1576079646,29574682,"""world""","""hoverOpti/base_link""",,,-0.20465990901,0.0195543915033,2.5931391716,,0.00892222960877,-0.0478859734777,-0.0105431453431,0.998757312589
1576079646049764931,,,0,,1576079646,49629806,"""world""","""hoverOpti/base_link""",,,-0.204634681344,0.0195316579193,2.59312081337,,0.00870714201772,-0.0479484550027,-0.0104097439575,0.998757612522
