rosbagTimestamp,x,y,theta
1576079640030293990,-0.204639837146,0.0194957535714,-0.0221673251591
1576079640050237262,-0.204648464918,0.0195167846978,-0.0221177476723
1576079640070158940,-0.204640001059,0.0194896943867,-0.0220131901267
1576079640089824602,-0.20464284718,0.0195077974349,-0.0220758972366
1576079640110125610,-0.204654112458,0.0195131022483,-0.022462700476
1576079640130153100,-0.204652711749,0.0194938331842,-0.022463877719
1576079640150153040,-0.204627737403,0.01950025931,-0.0220603812353
1576079640169957736,-0.204637497663,0.0194827243686,-0.0222131147146
1576079640189996901,-0.204615041614,0.0195032339543,-0.0217417145874
1576079640209963230,-0.204641506076,0.0194938182831,-0.0223533641313
1576079640229851264,-0.204627484083,0.0194837320596,-0.0225186262139
1576079640250851427,-0.204631879926,0.0194933190942,-0.0222431023686
1576079640270663259,-0.204630449414,0.0195084977895,-0.0220319479838
1576079640289914421,-0.204657763243,0.0194937195629,-0.022483607503
1576079640310123295,-0.204618543386,0.0195067692548,-0.0218537991162
1576079640330011763,-0.204656794667,0.0194948017597,-0.0224931973591
1576079640349961597,-0.204645976424,0.0194845404476,-0.022239311746
1576079640370716038,-0.204647511244,0.0194963365793,-0.0224674913094
1576079640390902730,-0.204651862383,0.0194959938526,-0.0222183655945
1576079640411116965,-0.20465041697,0.0195026118308,-0.0223696711468
1576079640429861133,-0.20464849472,0.0195312593132,-0.0222885023127
1576079640449884400,-0.204639554024,0.0195076800883,-0.0219244065113
1576079640469791386,-0.204641819,0.0195016935468,-0.0222412748187
1576079640490227347,-0.204627662897,0.0195046663284,-0.0222985879962
1576079640509899540,-0.204644843936,0.0195145886391,-0.0224211186116
1576079640529888943,-0.204651385546,0.0195138957351,-0.0220996341065
1576079640550015976,-0.204640597105,0.0195153597742,-0.0220085163103
1576079640569887673,-0.204640045762,0.0195248275995,-0.0216950012175
1576079640589806352,-0.20464541018,0.0195264983922,-0.0219277996722
1576079640610222567,-0.204722672701,0.0194992795587,-0.0216898315436
1576079640629958952,-0.204651966691,0.0195162538439,-0.0219588226311
1576079640649966833,-0.204637676477,0.0195048134774,-0.0218820753415
1576079640670301876,-0.204646468163,0.019508594647,-0.0218885079903
1576079640689907024,-0.204646408558,0.0195309091359,-0.0219596211155
1576079640712114186,-0.204649373889,0.0195338577032,-0.0216891090931
1576079640730035175,-0.204641446471,0.0195147600025,-0.0220540596931
1576079640749850730,-0.204643473029,0.0195028018206,-0.0219924541645
1576079640769858813,-0.204642131925,0.0195277649909,-0.0221110046057
1576079640790061490,-0.204645186663,0.0195351503789,-0.0220322541928
1576079640810518477,-0.204646468163,0.019517948851,-0.0223853461416
1576079640829750890,-0.204644963145,0.0195085089654,-0.0220512636903
1576079640850066128,-0.204645559192,0.0194963309914,-0.0220270681953
1576079640869834938,-0.204636231065,0.0195142365992,-0.0217130054352
1576079640889873760,-0.204649999738,0.0195137467235,-0.0222757439733
1576079640910032753,-0.204639881849,0.0195139534771,-0.02198366574
1576079640930163252,-0.204634130001,0.0194988660514,-0.0221325668577
1576079640950223728,-0.204653725028,0.0194963812828,-0.0220762171736
1576079640969958130,-0.204642951488,0.0195007808506,-0.0224706939467
1576079640989784800,-0.204642131925,0.0195165071636,-0.0221140457451
1576079641009810875,-0.204640343785,0.0195026658475,-0.0220092014728
1576079641030016515,-0.204638004303,0.0195076819509,-0.0216517993018
1576079641049871550,-0.204657047987,0.0195344947278,-0.0220101464338
1576079641069869660,-0.204646706581,0.0195107124746,-0.0220286848794
1576079641090183345,-0.204656779766,0.0194999072701,-0.0221315907396
1576079641110287284,-0.204648077488,0.0194996874779,-0.0219487161843
1576079641130630648,-0.20464463532,0.0194967836142,-0.0216852032983
1576079641149879814,-0.204650148749,0.0195000078529,-0.022380170643
1576079641169793527,-0.204644948244,0.0195007566363,-0.0220136439857
1576079641189982940,-0.204635962844,0.0194963254035,-0.0221390849281
1576079641210184164,-0.204631701112,0.0194942615926,-0.021942340068
1576079641232815943,-0.204660385847,0.0195180084556,-0.0225329864629
1576079641249994150,-0.204663440585,0.0195349771529,-0.0219853043594
1576079641269898365,-0.204649731517,0.0195117071271,-0.0220035392343
1576079641289816564,-0.204656809568,0.0195020958781,-0.0223420716327
1576079641310278784,-0.204664215446,0.019530588761,-0.0220450830724
1576079641332236432,-0.204641088843,0.0195075049996,-0.0218814326752
1576079641350000708,-0.204649865627,0.0195107068866,-0.0222904327378
1576079641369811750,-0.204639136791,0.0194928329438,-0.0220780260427
1576079641389931271,-0.204657927155,0.0195057094097,-0.0221688189962
1576079641410661752,-0.204642117023,0.0195418484509,-0.0219364495555
1576079641429825042,-0.204711839557,0.0194995515049,-0.0215857307057
1576079641450207906,-0.204663813114,0.0194950290024,-0.0225693699673
1576079641469795563,-0.204647615552,0.019522625953,-0.0220568547985
1576079641489798920,-0.204630702734,0.019509634003,-0.0219307921608
1576079641509851187,-0.204645469785,0.0195328574628,-0.0220905883607
1576079641530047011,-0.204630866647,0.0195078514516,-0.0223748587845
1576079641549859373,-0.204628139734,0.0195193998516,-0.0219069983328
1576079641570143753,-0.204627409577,0.019497089088,-0.0221292723207
1576079641589828255,-0.204640284181,0.0194949768484,-0.0220534414357
1576079641609763397,-0.20462270081,0.0195172205567,-0.0217240858501
1576079641630023811,-0.204634532332,0.019511135295,-0.0218387596288
1576079641649991199,-0.204645782709,0.0195135418326,-0.0221225621255
1576079641670964781,-0.204650133848,0.0195212904364,-0.0221254317878
1576079641689950382,-0.204627007246,0.0195103809237,-0.0216280197076
1576079641709852235,-0.204649373889,0.019508715719,-0.022215755369
1576079641729844449,-0.204626366496,0.0195228662342,-0.0215370243747
1576079641749921115,-0.204645633698,0.0195110663772,-0.0218020037368
1576079641769908326,-0.204634681344,0.0195035133511,-0.0222038102858
1576079641789736572,-0.204631283879,0.0195058844984,-0.021774188338
1576079641810152877,-0.204643219709,0.0195048097521,-0.0219888493066
1576079641829944667,-0.204639732838,0.0194982420653,-0.0220806275415
1576079641849858119,-0.204644575715,0.0194891989231,-0.022113198565
1576079641871128939,-0.204638674855,0.0194986294955,-0.0218675738615
1576079641889994915,-0.204648599029,0.0194965936244,-0.0223438425856
1576079641909985090,-0.204660475254,0.0195185225457,-0.0221793928537
1576079641930038855,-0.204665616155,0.019491404295,-0.022227504315
1576079641951083108,-0.204646766186,0.0194914080203,-0.0221540862966
1576079641969843110,-0.204638719559,0.0195005610585,-0.0220899669976
1576079641989851686,-0.204647108912,0.019507009536,-0.0222179808049
1576079642009853273,-0.204656392336,0.0195115376264,-0.0221810074071
1576079642030516002,-0.204666033387,0.0195111650974,-0.022434531568
1576079642049858732,-0.204660952091,0.0195400826633,-0.0218090372542
1576079642070171258,-0.204662322998,0.0194885656238,-0.0224231793976
1576079642096083676,-0.204632744193,0.0195087529719,-0.0221153242622
1576079642110228026,-0.204639777541,0.0194994043559,-0.0218592085535
1576079642129854613,-0.204631447792,0.0195181109011,-0.0221151675299
1576079642151406841,-0.204642817378,0.0195027440786,-0.0221396427451
1576079642169839843,-0.204642653465,0.0195109117776,-0.0219644220655
1576079642189835997,-0.204648464918,0.0195095259696,-0.0220717273274
1576079642209816322,-0.204645112157,0.0195183977485,-0.0220306708881
1576079642229976136,-0.204633906484,0.0195096675307,-0.0218738384232
1576079642249904710,-0.204656347632,0.019523544237,-0.022087837204
1576079642269856844,-0.204644471407,0.0194908753037,-0.0222251692865
1576079642289800980,-0.204650729895,0.0195270106196,-0.0219796168238
1576079642309978369,-0.204654201865,0.0194988306612,-0.0223661073022
1576079642329991393,-0.204639136791,0.019517948851,-0.021916210191
1576079642351268627,-0.204647302628,0.0195371713489,-0.0219434670402
1576079642369782250,-0.204650014639,0.0194968320429,-0.0220791230929
1576079642390017707,-0.204640328884,0.0195052158087,-0.0219672230683
1576079642411022598,-0.204639643431,0.0195150189102,-0.0220925425981
1576079642429905029,-0.204636961222,0.0195019561797,-0.0218245349807
1576079642450117893,-0.204636201262,0.0194977205247,-0.0220571667228
1576079642469843491,-0.20464335382,0.0194911770523,-0.022397727098
1576079642489822256,-0.204644307494,0.0194875597954,-0.0222337638699
1576079642509812223,-0.204644933343,0.0195277873427,-0.0220234130346
1576079642529820728,-0.204634740949,0.0194949135184,-0.0219782970587
1576079642549787279,-0.204632818699,0.0195165481418,-0.0215993089329
1576079642573720690,-0.204633414745,0.0195144489408,-0.0217966972774
1576079642589838392,-0.204649060965,0.0195301547647,-0.021831066919
1576079642609778340,-0.204656168818,0.0195348765701,-0.0223686143164
1576079642629841141,-0.204647645354,0.0195167865604,-0.0221681144573
1576079642649888670,-0.204662516713,0.0195214785635,-0.0222397231486
1576079642669770933,-0.204641908407,0.0195241291076,-0.0219035082995
1576079642689870922,-0.204651087523,0.0195144135505,-0.0222911038253
1576079642710596559,-0.204634711146,0.0195013172925,-0.0221594149305
1576079642730504506,-0.204620927572,0.0195251777768,-0.0220502618018
1576079642749860894,-0.204634547234,0.0194997489452,-0.022055986251
1576079642769807371,-0.204658716917,0.0195205006748,-0.022071076039
1576079642790155431,-0.204655006528,0.0195294264704,-0.0220855232436
1576079642810186944,-0.204646617174,0.0195060893893,-0.0221847140254
1576079642829874506,-0.20464374125,0.0195158366114,-0.0219499492088
1576079642849772374,-0.204659029841,0.0195128507912,-0.0218102045067
1576079642874316079,-0.204653680325,0.0195117797703,-0.0220698608709
1576079642889864975,-0.204656988382,0.0195091292262,-0.0222686789825
1576079642909977060,-0.204636007547,0.019503319636,-0.0221600720719
1576079642929970373,-0.204646319151,0.0194955803454,-0.0219270516696
1576079642949870331,-0.204637542367,0.0195140093565,-0.0221297997617
1576079642970880889,-0.204635620117,0.0195104312152,-0.0219962202578
1576079642989865785,-0.204628750682,0.0195062290877,-0.0218715896925
1576079643010040560,-0.204643845558,0.0195038300008,-0.0222790124412
1576079643029802288,-0.204642504454,0.0194962136447,-0.0221450445798
1576079643049695806,-0.204646006227,0.0195157695562,-0.0218443514438
1576079643069806786,-0.204641520977,0.0195123050362,-0.022408403145
1576079643089866167,-0.204642355442,0.0195001140237,-0.0220157406615
1576079643109831487,-0.204654559493,0.019491257146,-0.0224171574158
1576079643129760656,-0.204652190208,0.0195024926215,-0.0222553417114
1576079643150585313,-0.204648852348,0.0195167027414,-0.0219202874515
1576079643176306403,-0.204647094011,0.0195134077221,-0.022153343034
1576079643189896454,-0.204659044743,0.0195289608091,-0.0224825470273
1576079643209783214,-0.204669222236,0.0195375848562,-0.022175624844
1576079643229777129,-0.204635873437,0.0195239242166,-0.021952638499
1576079643251561167,-0.204658016562,0.0195373222232,-0.0224772249219
1576079643269886067,-0.204664856195,0.0195156112313,-0.0223054176919
1576079643289761798,-0.204632669687,0.0195195768028,-0.0218068093816
1576079643309748613,-0.204663261771,0.0195315480232,-0.0223958677107
1576079643329740076,-0.204654544592,0.019515382126,-0.0223317467526
1576079643350927610,-0.204656898975,0.0195575747639,-0.0219246576813
1576079643369891292,-0.20463296771,0.0195174831897,-0.0219235336571
1576079643390789145,-0.204644396901,0.0195489116013,-0.0220205780268
1576079643409680834,-0.204641550779,0.0195120889693,-0.0222570153352
1576079643430732898,-0.204641103745,0.0195096861571,-0.022152144976
1576079643449850795,-0.204656228423,0.0195300243795,-0.0223298381378
1576079643469709428,-0.204633146524,0.0195227637887,-0.0217679536766
1576079643490600765,-0.204646587372,0.019508915022,-0.0220644813787
1576079643510102542,-0.204644709826,0.0195191707462,-0.0222881091441
1576079643529810965,-0.204639032483,0.0195084754378,-0.0220652918839
1576079643549862971,-0.204647034407,0.0195172969252,-0.0218853781178
1576079643569785328,-0.20463514328,0.0195125974715,-0.022104473154
1576079643589936197,-0.204648792744,0.0195213314146,-0.0220725426602
1576079643609769296,-0.204658180475,0.0195265226066,-0.0223906626811
1576079643629893653,-0.204629033804,0.0195262450725,-0.0218632666741
1576079643649850039,-0.204649940133,0.0195274949074,-0.022145078363
1576079643669798089,-0.204653978348,0.0195212028921,-0.0223904894346
1576079643689721640,-0.204667940736,0.0195354241878,-0.0222963292654
1576079643709816088,-0.204650193453,0.0195072926581,-0.0224431998912
1576079643730070628,-0.204649403691,0.0195406656712,-0.0222281880164
1576079643750056311,-0.204655095935,0.0195250082761,-0.0221157892483
1576079643769743157,-0.204640865326,0.0195135455579,-0.022152580865
1576079643790119384,-0.204664483666,0.0195183884352,-0.0223260866654
1576079643809751437,-0.204644814134,0.0195250343531,-0.0221165727237
1576079643836478279,-0.20463038981,0.0195143297315,-0.0220684191841
1576079643851056799,-0.204651221633,0.019533643499,-0.0220162676854
1576079643869903728,-0.204640135169,0.0195125583559,-0.0220887229615
1576079643892242173,-0.204643934965,0.0195176154375,-0.0221231885504
1576079643909873222,-0.204661741853,0.0195251125842,-0.0224923560954
1576079643930098537,-0.204655468464,0.0195256676525,-0.0223044004928
1576079643949789389,-0.204649239779,0.0195182804018,-0.0224201012716
1576079643969924175,-0.204644948244,0.0195046123117,-0.0220752412699
1576079643990533633,-0.204648047686,0.0195035915822,-0.0221603551445
1576079644009806766,-0.204644098878,0.0194946341217,-0.0221150276322
1576079644030038241,-0.204655960202,0.0195125602186,-0.0224615313462
1576079644049880045,-0.204648479819,0.0195035412908,-0.0223455533938
1576079644070048827,-0.204651579261,0.0195183828473,-0.0221056228237
1576079644089831764,-0.204663082957,0.0195146556944,-0.0221377344176
1576079644109814576,-0.204642608762,0.0195118729025,-0.0220542913657
1576079644129981993,-0.204650983214,0.0195098742843,-0.0221065715164
1576079644149848124,-0.204664334655,0.0195172056556,-0.0221640767411
1576079644173459817,-0.204659804702,0.019520541653,-0.0221131417254
1576079644189837716,-0.204653516412,0.0195013936609,-0.0223609849608
1576079644209797845,-0.204648762941,0.0194904524833,-0.0222976852209
1576079644232596092,-0.204639852047,0.0195044055581,-0.0220983243122
1576079644249839961,-0.204647898674,0.0195119082928,-0.0221672596846
1576079644269799630,-0.204654440284,0.0195069387555,-0.0225285847339
1576079644289861748,-0.204640865326,0.0195163972676,-0.0221443953222
1576079644309804899,-0.204631537199,0.0195034183562,-0.0221375750666
1576079644330041497,-0.204645559192,0.0195000004023,-0.0224238700463
1576079644349769150,-0.204634964466,0.0195043385029,-0.0219835416027
1576079644369929534,-0.204634934664,0.0195058789104,-0.0220575234274
1576079644389849441,-0.204649314284,0.0195041112602,-0.0221040528699
1576079644409841746,-0.204634934664,0.0194970853627,-0.0221045415541
1576079644429950444,-0.204652830958,0.019493540749,-0.0221615002156
1576079644449845511,-0.20464220643,0.0194900017232,-0.02207206068
1576079644469823373,-0.20464348793,0.0194981582463,-0.0222484082601
1576079644492625450,-0.204640492797,0.0194987617433,-0.022154376847
1576079644514001682,-0.204652279615,0.01950372383,-0.0223201391519
1576079644531984658,-0.204645901918,0.0194936264306,-0.0223085054776
1576079644549865727,-0.20464527607,0.0195024609566,-0.0220868887437
1576079644569756320,-0.204653933644,0.0194939598441,-0.0221276170896
1576079644589814185,-0.204644903541,0.0194965768605,-0.0220650835966
1576079644610098958,-0.204633489251,0.0195001885295,-0.0220489495507
1576079644629835953,-0.204634487629,0.0195161253214,-0.021946446117
1576079644649966440,-0.20464001596,0.0194958467036,-0.0222609220662
1576079644669968433,-0.204648852348,0.0195089764893,-0.0226852507233
1576079644689963042,-0.204637423158,0.019504038617,-0.0219631736038
1576079644711368468,-0.204644024372,0.0194919686764,-0.0220692253594
1576079644730098024,-0.204628184438,0.0194977708161,-0.0220100142065
1576079644750077595,-0.20464900136,0.0195080917329,-0.0220556833723
1576079644770095096,-0.204641744494,0.0194897688925,-0.022126468563
1576079644789810887,-0.204633668065,0.0195030141622,-0.0219995867526
1576079644809748775,-0.204644605517,0.019506579265,-0.0220356965934
1576079644829852435,-0.204639330506,0.0195007715374,-0.021982017953
1576079644850132118,-0.204638272524,0.019502023235,-0.0223386902698
1576079644870142595,-0.204650402069,0.0194918755442,-0.0223495652945
1576079644890092875,-0.204653918743,0.0194991864264,-0.0219927326584
1576079644910221478,-0.204635575414,0.0194938033819,-0.0220686162167
1576079644929914195,-0.204628169537,0.019499566406,-0.0220917736268
1576079644949790048,-0.204650372267,0.0194926448166,-0.0223414429471
1576079644969926084,-0.204644694924,0.0195093154907,-0.0220669572662
1576079644989887713,-0.204647958279,0.0194984879345,-0.0223700536467
1576079645009844397,-0.204644158483,0.0195069108158,-0.0222202272991
1576079645029793136,-0.20463898778,0.0194931458682,-0.0223752613565
1576079645049875921,-0.204645976424,0.0194985195994,-0.0221479268653
1576079645069700631,-0.204646646976,0.0195323526859,-0.0217132790086
1576079645089757149,-0.204657316208,0.0195296164602,-0.0219990332027
1576079645110371149,-0.204659730196,0.0195269491524,-0.022247929509
1576079645130404351,-0.204652711749,0.0194999314845,-0.0221292580169
1576079645150275113,-0.204646587372,0.0195136982948,-0.0220628516379
1576079645169860534,-0.204642355442,0.0194949693978,-0.022467461922
1576079645190164263,-0.2046200037,0.0195211693645,-0.0220839663728
1576079645210597260,-0.204632431269,0.01950689964,-0.0220410836172
1576079645229845252,-0.20465195179,0.0195061136037,-0.0222346153993
1576079645249807605,-0.20464284718,0.019489267841,-0.0221082357853
1576079645269780922,-0.204624637961,0.0195166952908,-0.0216895674081
1576079645291466230,-0.204635694623,0.0195027086884,-0.0219820562805
1576079645309786205,-0.204654321074,0.0195187143981,-0.0224186129835
1576079645329862427,-0.204642906785,0.0195167530328,-0.0220587591735
1576079645349989117,-0.204647928476,0.0195260792971,-0.0223170875909
1576079645369671777,-0.204659178853,0.0195357576013,-0.0219527250975
1576079645389879261,-0.204645603895,0.0195113755763,-0.0221453135555
1576079645410069860,-0.204647302628,0.0195292979479,-0.0220341807217
1576079645429819258,-0.204636633396,0.0195017140359,-0.0222100994826
1576079645449775891,-0.204661041498,0.0195189360529,-0.0222862724895
1576079645469718526,-0.204635590315,0.0194855071604,-0.0220466189094
1576079645490044591,-0.204647898674,0.0195057429373,-0.022038671356
1576079645510319362,-0.204662203789,0.0194963775575,-0.0224261494506
1576079645530563742,-0.204632207751,0.0194935426116,-0.0223445948468
1576079645550033726,-0.204637616873,0.0194923523813,-0.022147923619
1576079645569752397,-0.204648062587,0.0194997321814,-0.0222044978317
1576079645589636809,-0.204628154635,0.0195079445839,-0.0219842352802
1576079645609914956,-0.204655125737,0.0195289757103,-0.0221970391858
1576079645630137933,-0.204635247588,0.0195201151073,-0.0219946055802
1576079645649802327,-0.204635113478,0.0195328872651,-0.0219140828092
1576079645669822917,-0.204619780183,0.0195271652192,-0.0217421611741
1576079645689975380,-0.204642891884,0.0195154994726,-0.0221484971025
1576079645709948297,-0.204639360309,0.0194989647716,-0.0224374195878
1576079645729885208,-0.204645708203,0.0195052120835,-0.0221128965313
1576079645749679874,-0.204633116722,0.0195077508688,-0.0220679318423
1576079645770362295,-0.204647436738,0.019487451762,-0.0221926763092
1576079645789909103,-0.204642772675,0.019502941519,-0.0223565087767
1576079645810315664,-0.204649910331,0.0195345394313,-0.0220610811577
1576079645831593109,-0.204625502229,0.0195094142109,-0.0220548361188
1576079645850201500,-0.204637229443,0.0195139423013,-0.0223558649171
1576079645869750614,-0.20464296639,0.0195073727518,-0.0220065765032
1576079645890355519,-0.204638004303,0.0195174105465,-0.0218897139513
1576079645912842044,-0.204649373889,0.0195421036333,-0.0219529585108
1576079645929870675,-0.20463706553,0.0195144116879,-0.0219389261906
1576079645949842955,-0.204644396901,0.0195232015103,-0.0220984285601
1576079645969963972,-0.204653322697,0.0194962471724,-0.0221364233424
1576079645990736787,-0.20464245975,0.0195046868175,-0.0223188166553
1576079646011290071,-0.20463591814,0.0195181723684,-0.0219955976807
1576079646029701284,-0.20465990901,0.0195543915033,-0.0220169124081
1576079646049817552,-0.204634681344,0.0195316579193,-0.021729831247
1576079646069854058,-0.204652816057,0.019513996318,-0.0222834293847
1576079646089923027,-0.204643189907,0.0194894373417,-0.0223505567734
1576079646110232093,-0.204639807343,0.0194997377694,-0.0222338819722
1576079646129896702,-0.20463116467,0.0195075813681,-0.0220180815639
1576079646150329445,-0.204668074846,0.019518410787,-0.022470686781
1576079646170393823,-0.204652801156,0.0195078793913,-0.0224947882963
1576079646189888186,-0.204658761621,0.0195034816861,-0.0221593931411
1576079646210508548,-0.204661414027,0.0195076726377,-0.0225079921185
1576079646229833293,-0.204658225179,0.0194911882281,-0.0223902309606
1576079646250801619,-0.204651713371,0.019484847784,-0.0226010013895
1576079646269950683,-0.204630255699,0.0194968897849,-0.022244347428
1576079646290131667,-0.204666823149,0.019503839314,-0.02236107313
1576079646310050457,-0.20464797318,0.0195090062916,-0.0223491642574
1576079646330186574,-0.204646721482,0.019487798214,-0.0221239924023
1576079646349899234,-0.204643860459,0.0195072889328,-0.0221040483653
1576079646369979086,-0.204657718539,0.0194995645434,-0.022128629123
1576079646389843077,-0.204644665122,0.0194977708161,-0.022272585528
1576079646409900446,-0.204641535878,0.0194969605654,-0.0221027013898
1576079646429749777,-0.204627797008,0.0195005293936,-0.0218467441405
1576079646452427424,-0.204638183117,0.0194858536124,-0.0221450764012
1576079646469874568,-0.204660281539,0.0195142067969,-0.0224210539655
1576079646489770252,-0.20466171205,0.0195197053254,-0.0224210714846
1576079646510561297,-0.204645931721,0.0194900911301,-0.0222560949914
1576079646532043424,-0.204650178552,0.0194994937629,-0.022067620727
1576079646556606070,-0.204650998116,0.0195052959025,-0.0220795072162
1576079646571124088,-0.204655140638,0.0195016413927,-0.0223808475326
1576079646591058043,-0.204649835825,0.0195058584213,-0.0222976503979
1576079646609919414,-0.204644009471,0.0194923728704,-0.0222290825991
1576079646629726071,-0.204654172063,0.0194967500865,-0.0222216373809
1576079646650820363,-0.204634875059,0.0195152498782,-0.0219248212659
1576079646670787537,-0.204650640488,0.0195046439767,-0.0221106208119
1576079646689872167,-0.204648330808,0.0195060819387,-0.0222657927265
1576079646709928678,-0.204642593861,0.0194926410913,-0.0219877735142
1576079646730518722,-0.204637929797,0.0195050723851,-0.0222097106866
1576079646749925959,-0.204645246267,0.0194932669401,-0.0222316271003
1576079646770358756,-0.204655528069,0.0195179320872,-0.0222529802997
1576079646790997310,-0.204646021128,0.0195009242743,-0.0221085953055
1576079646809682405,-0.20463962853,0.0195089075714,-0.0220186473579
1576079646830359516,-0.204644173384,0.0195016916841,-0.0222096931355
1576079646851752640,-0.204640462995,0.0194971933961,-0.0221231648072
1576079646870952084,-0.204655438662,0.0195259507746,-0.02200620622
1576079646891659752,-0.2046456635,0.0194942113012,-0.0222675892818
1576079646910072872,-0.204646810889,0.0195148028433,-0.0220906745039
1576079646929740998,-0.20463553071,0.0195128284395,-0.022114454511
1576079646951143828,-0.204644322395,0.019511654973,-0.0221649279176
1576079646969769254,-0.204637929797,0.0194960627705,-0.0220449534414
1576079646990364567,-0.204646319151,0.0194950439036,-0.0224105399934
1576079647009757918,-0.204654693604,0.0194953735918,-0.0225334355899
1576079647029856338,-0.204655006528,0.0195235684514,-0.0220092412963
1576079647051005468,-0.204640999436,0.0195059366524,-0.0220037243278
1576079647069892150,-0.204653099179,0.0195196066052,-0.0221441856749
1576079647089669197,-0.204643592238,0.0195256676525,-0.0218671178509
1576079647113647401,-0.20465092361,0.0195258576423,-0.0221792805579
1576079647130161870,-0.204645112157,0.0195130258799,-0.0220346536271
1576079647150382186,-0.204647108912,0.0195030644536,-0.0222582195675
1576079647170464244,-0.204649552703,0.0195107739419,-0.0222840824461
1576079647189721855,-0.204649984837,0.0195005573332,-0.0226224014159
1576079647209736306,-0.204650968313,0.0195037405938,-0.0224396947529
1576079647238257085,-0.20464605093,0.0195166375488,-0.0220168938749
1576079647250479443,-0.204655334353,0.0195361953229,-0.0220735711148
1576079647271377308,-0.204659000039,0.0195165164769,-0.0221956803985
1576079647290311513,-0.204637721181,0.0195183698088,-0.0220709677603
1576079647309835304,-0.204638764262,0.019528189674,-0.0219560081561
1576079647329994430,-0.204655095935,0.0195182841271,-0.0225332322563
1576079647350169148,-0.204647853971,0.0195151306689,-0.0222619368554
1576079647371123802,-0.20463617146,0.0195174273103,-0.0218390193335
1576079647389990405,-0.204648450017,0.0195445138961,-0.0220192818206
1576079647413500877,-0.204644411802,0.0195275414735,-0.0221207228512
1576079647429951901,-0.204641744494,0.0195075217634,-0.0221354566252
1576079647449708626,-0.204637378454,0.0194987133145,-0.0223936280624
1576079647473338795,-0.204639062285,0.0195002648979,-0.022385198304
1576079647489797664,-0.204633027315,0.0195239074528,-0.0219875708389
1576079647509718691,-0.204651966691,0.0195118226111,-0.0223801508555
1576079647531289777,-0.204636752605,0.0195075664669,-0.0217669583524
1576079647551654698,-0.20464374125,0.0194956753403,-0.0224937824726
1576079647569666582,-0.204637333751,0.0194992627949,-0.0222452711396
1576079647589782894,-0.204622849822,0.019499707967,-0.0219796226714
1576079647610654319,-0.204647704959,0.0195073131472,-0.0223832276644
1576079647630299986,-0.20463848114,0.0195411480963,-0.0220542629302
1576079647649869424,-0.204634964466,0.0195022616535,-0.0220933121345
1576079647670052003,-0.204624414444,0.0195177961141,-0.0218671358384
1576079647689928776,-0.204686209559,0.0195230897516,-0.0229011444385
1576079647709803253,-0.204635351896,0.0194777846336,-0.0228538910942
1576079647729790890,-0.204606935382,0.0194446723908,-0.0224960803059
1576079647753675954,-0.204681590199,0.0195643287152,-0.0219443140627
1576079647769665501,-0.204684153199,0.0195331424475,-0.0228129859614
1576079647789627210,-0.204576268792,0.0194803867489,-0.0219440492033
1576079647810320909,-0.204710423946,0.019414966926,-0.0226308091162
1576079647833581505,-0.204625710845,0.0194687396288,-0.0227510148748
1576079647849809753,-0.204667508602,0.0194873232394,-0.0227413023573
1576079647869877918,-0.204620167613,0.019394217059,-0.022457477844
1576079647889948183,-0.20462243259,0.0194953139871,-0.0214768384967
1576079647909757494,-0.204582899809,0.019441658631,-0.0224588627363
1576079647930344728,-0.204630076885,0.0194946024567,-0.0225257429839
1576079647950495212,-0.204589247704,0.0194899253547,-0.0225071018869
1576079647970356383,-0.204491659999,0.019536210224,-0.0205452936488
1576079647989604163,-0.204409524798,0.0196518748999,-0.02201596448
1576079648009967182,-0.204114690423,0.0197243690491,-0.0236834918436
1576079648030541043,-0.203501790762,0.0201088171452,-0.028060043049
1576079648050084893,-0.202878028154,0.0200750324875,-0.025792639423
1576079648069804946,-0.202030077577,0.0201601739973,-0.0300539311212
1576079648091444376,-0.200929239392,0.0198827646673,-0.0257954415181
1576079648109982201,-0.199574202299,0.0199659876525,-0.0196461877741
1576079648129934487,-0.198424428701,0.0202001389116,-0.026563136437
1576079648149605583,-0.196776613593,0.0200441274792,-0.0249340003514
1576079648169717273,-0.195022732019,0.0200338941067,-0.0268419010748
1576079648189886907,-0.193265542388,0.0200846698135,-0.0274938707493
1576079648210150199,-0.191216051579,0.0200906861573,-0.0283792490901
1576079648230032194,-0.1892067343,0.019681615755,-0.0236289822896
1576079648249965992,-0.18667049706,0.0197920203209,-0.0237440972927
1576079648269616487,-0.18418648839,0.0199634376913,-0.0210409178626
1576079648289862254,-0.181454077363,0.0198896955699,-0.0206781793414
1576079648309760113,-0.178661569953,0.0202646516263,-0.00824138466399
1576079648329893634,-0.175722002983,0.019960667938,-0.0214294014963
1576079648349895317,-0.172915667295,0.0206047296524,-0.00649172850049
1576079648369590210,-0.169885218143,0.0205027665943,-0.00899522266087
1576079648389723213,-0.166453942657,0.0205340497196,-0.00637830738337
1576079648410304857,-0.163474082947,0.0200224313885,-0.017762472327
1576079648429704028,-0.160247027874,0.0198598094285,-0.0139563671469
1576079648450092844,-0.156408593059,0.0200181063265,-0.00893275058446
1576079648470162038,-0.153659388423,0.0199292283505,-0.012260322417
1576079648490168256,-0.150607705116,0.0198997445405,-0.0061499716284
1576079648509751777,-0.147336006165,0.0202284343541,-0.00259990224817
1576079648529572876,-0.14426741004,0.0196357853711,-0.0155891713561
1576079648549628894,-0.140822380781,0.0197244510055,-0.0176210002347
1576079648569682699,-0.137308418751,0.0198391396552,-0.0192438330937
1576079648589719174,-0.133690685034,0.0196343287826,-0.0187190208842
1576079648609828718,-0.129633843899,0.0197165645659,-0.0124254816663
1576079648629668189,-0.125818878412,0.0197816155851,-0.0158663774487
1576079648649730244,-0.121738381684,0.0198052562773,-0.0111654521747
1576079648669540355,-0.117659851909,0.0195822957903,-0.0118541249612
1576079648689801736,-0.113368414342,0.0195045918226,-0.0151792661143
1576079648709772049,-0.109067037702,0.0195920728147,-0.0154500517512
1576079648734101835,-0.104480721056,0.0194936636835,-0.0140895751374
1576079648769086386,-0.0999648496509,0.0195206906646,-0.0170000061339
1576079648803414046,-0.0952348560095,0.0195082109421,-0.0182949019858
1576079648803591679,-0.0903838574886,0.0196093749255,-0.0204388414723
1576079648811510459,-0.0857097879052,0.0193872489035,-0.0196847704252
1576079648829914504,-0.0809117555618,0.0194252580404,-0.00966988070616
1576079648858395753,-0.076189160347,0.0196077227592,-0.0187501386242
1576079648869592925,-0.0712558478117,0.0197240356356,-0.0105224131872
1576079648890029993,-0.0666689276695,0.0192057825625,-0.00767085395607
1576079648913367899,-0.0617412924767,0.0191957876086,-0.0112728006504
1576079648930811577,-0.0565767064691,0.0194761231542,-0.0253522437877
1576079648949745279,-0.051715824753,0.019518930465,-0.0304683290463
1576079648969684236,-0.0469147637486,0.019389860332,-0.0335481780831
1576079648989608154,-0.0417020693421,0.0194652248174,-0.0316080395977
1576079649011981636,-0.0365869402885,0.0193046107888,-0.0235004074224
1576079649029691587,-0.0314814895391,0.0195312518626,-0.0296597411256
1576079649049829202,-0.026399500668,0.0195190086961,-0.0430726703642
1576079649069608080,-0.0209378320724,0.0196885429323,-0.0809686270407
1576079649089971002,-0.0164935458452,0.0206206664443,-0.204327922728
1576079649109535292,-0.0124339722097,0.020366538316,-0.321126769894
1576079649130136045,-0.00841150991619,0.0198003314435,-3.01744999159
1576079649150192780,-0.00485291983932,0.0195184741169,-3.05195990856
1576079649169862870,-0.00106115173548,0.0199497938156,-3.05751593387
1576079649189976026,0.00266557512805,0.0196656566113,-3.12203683781
1576079649209666305,0.00600370438769,0.0198966041207,-3.09560542412
1576079649230028466,0.00938552431762,0.0198287572712,-3.12422560497
1576079649249941368,0.0124828051776,0.0200300142169,-3.12321578715
1576079649269924853,0.0159297268838,0.0197233837098,-3.13283108545
1576079649289662364,0.0187072902918,0.0194116029888,-3.10966990121
1576079649310708713,0.0216863453388,0.0197658222169,-3.12379780518
1576079649331721036,0.0246571190655,0.0195531900972,-3.12271202339
1576079649349647059,0.027380168438,0.0194693915546,-3.13003905507
1576079649369667218,0.0299009531736,0.0196772683412,-3.12755718355
1576079649389622139,0.0322575047612,0.0199445262551,-3.12185360044
1576079649415686171,0.0344285443425,0.0196672938764,-3.12257820609
1576079649429627533,0.0365508459508,0.01933879219,-3.13483078953
1576079649450405753,0.0386524759233,0.0196326505393,-3.13612765321
1576079649470172840,0.0403072573245,0.0197166781873,-3.12932207045
1576079649489653480,0.0419890061021,0.0197568964213,-3.13344110311
1576079649509641908,0.0442897938192,0.019890319556,-3.12636782859
1576079649529898121,0.045817386359,0.019615188241,-3.13393329691
1576079649549732733,0.047171421349,0.0198401622474,-3.13310162221
1576079649569841636,0.0481558665633,0.0199545398355,-3.13398128256
1576079649590122514,0.0492511428893,0.0198485143483,-3.13219006813
1576079649609891541,0.0500207133591,0.0196534730494,-3.13321448796
1576079649629666054,0.050766825676,0.019508862868,-3.13641651705
1576079649649774734,0.0512625724077,0.0200727228075,-3.13959033315
1576079649669679093,0.0515291765332,0.0199454519898,-3.13965499398
1576079649689663685,0.0516090728343,0.0197657234967,-3.13287502799
1576079649709763645,0.0513377450407,0.0195710901171,-3.13209833117
1576079649731690576,0.0511828400195,0.019942831248,-3.12785756853
1576079649749693277,0.0508241131902,0.0201877728105,-3.12805638268
1576079649769722134,0.0504869036376,0.0201457738876,-3.12528169846
1576079649790636912,0.0495276302099,0.0202879868448,-3.12482464807
1576079649809695659,0.0485531017184,0.0203902609646,-3.12879590813
1576079649831538610,0.047412764281,0.0198052190244,-3.1292443998
1576079649850205529,0.0462213344872,0.0199440550059,-3.12863200477
1576079649869951757,0.0448160804808,0.020207112655,-3.12326893257
1576079649889636731,0.0433192849159,0.0202345233411,-3.12299174653
1576079649909782612,0.0416118763387,0.020292064175,-3.12370268059
1576079649929759318,0.0398930311203,0.0206249412149,-3.12867466236
1576079649949664329,0.0383960679173,0.0205134823918,-3.11477953567
1576079649969669178,0.0365212708712,0.0202651545405,-3.11213533802
1576079649989618850,0.0343604981899,0.0204726420343,-3.1088134647
1576079650009564767,0.0322984866798,0.0204360280186,-3.11204538919
1576079650031344942,0.0301338732243,0.0204693991691,-3.10752787496
1576079650049683416,0.028029654175,0.020597750321,-3.09983062126
1576079650069554242,0.0257787443697,0.0205839667469,-3.09393849767
1576079650089423838,0.023298855871,0.0205495040864,-3.07680130654
1576079650109715237,0.0208730585873,0.0205107349902,-3.08099777987
1576079650129729560,0.0183278098702,0.0205696504563,-3.06527926057
1576079650149526177,0.0159107260406,0.0206715036184,-3.03477197298
1576079650169394655,0.0133547075093,0.0207432154566,-2.93652271703
1576079650189524590,0.0108763892204,0.0208012554795,-2.57714749272
1576079650209849301,0.00813408754766,0.0207048915327,-0.547160405235
1576079650229486486,0.00556106865406,0.0207314286381,-0.205393786506
1576079650254947654,0.00301054981537,0.0208602957428,-0.11688728786
1576079650269701892,0.000814419239759,0.0206865556538,-0.0908967956651
1576079650289526273,-0.00164021877572,0.0208092927933,-0.0837508379315
1576079650309666152,-0.0040427823551,0.0209544301033,-0.0692660311027
1576079650329506775,-0.00634578987956,0.0209732856601,-0.0469169960987
1576079650349588641,-0.00841445848346,0.0208582468331,-0.0486983472141
1576079650369606926,-0.0104838386178,0.0206592101604,-0.0387120685718
1576079650390364769,-0.0126120001078,0.0210223309696,-0.0381704124965
1576079650409782829,-0.0142108900473,0.0207349788398,-0.0348971576529
1576079650429473396,-0.0159401036799,0.0207896847278,-0.0352032020352
1576079650450089289,-0.0173731073737,0.020701687783,-0.0312895852607
1576079650469593324,-0.0187169797719,0.0205020010471,-0.029227828372
1576079650489479893,-0.0198454521596,0.0206721276045,-0.0285252628989
1576079650509625496,-0.0208744127303,0.0205224901438,-0.030936248175
1576079650529908870,-0.0215719882399,0.0205998178571,-0.0219408528048
1576079650549875446,-0.0221013948321,0.0204290617257,-0.019824530117
1576079650569738736,-0.022349357605,0.0204508118331,-0.020216041493
1576079650589589435,-0.0225105062127,0.0204653777182,-0.0263719823678
1576079650609803049,-0.0223801992834,0.0208364930004,-0.0293298847448
1576079650629524906,-0.0220775101334,0.0206075180322,-0.0231655669092
1576079650650478066,-0.0213277190924,0.0204597525299,-0.0185313611877
1576079650669669235,-0.0205752346665,0.0208791736513,-0.00563034060647
1576079650690146719,-0.019590716809,0.0209636744112,-0.0081067794725
1576079650709757251,-0.018298799172,0.0205048117787,-0.0208930953035
1576079650729796929,-0.0167787838727,0.0203904919326,-0.0126202688353
1576079650749557350,-0.0150073999539,0.0204744208604,-0.0182743339699
1576079650769659692,-0.0131685193628,0.0203609056771,-0.0141420294018
1576079650789701162,-0.0110401045531,0.0203577727079,-0.0166161732397
1576079650811049074,-0.0087879979983,0.0202024560422,-0.015845688225
1576079650832315300,-0.00623471103609,0.0203198660165,-0.0175599854993
1576079650850126819,-0.00352802523412,0.0205636415631,-0.011977787934
1576079650869661283,-0.000968744396232,0.0201382599771,-0.0222931482083
1576079650889541511,0.00174156599678,0.0201891120523,-0.0245264991032
1576079650909493444,0.00483837444335,0.020126728341,-0.0215606227593
1576079650930218815,0.00788646936417,0.0203104596585,-0.0393763456187
1576079650949836394,0.0110442312434,0.0202877055854,-0.0563804944982
1576079650969772174,0.0145411137491,0.0206764563918,-0.0144151068773
1576079650990690010,0.0177388954908,0.0204564519227,-0.0252222307427
1576079651013330324,0.0208452250808,0.020324351266,-2.51809247224
1576079651029458980,0.0241803284734,0.0203387849033,-3.04379944375
1576079651049624136,0.0272476635873,0.0205245055258,-3.06938454935
1576079651069566373,0.0305753573775,0.0205971915275,-3.10227035427
1576079651089625267,0.0337043181062,0.0204410478473,-3.11436011715
1576079651109579352,0.0366301350296,0.0200772583485,-3.11152971886
1576079651129555693,0.0397572219372,0.0200876090676,-3.12610150481
1576079651149608523,0.0420112982392,0.020125746727,-3.13815749448
1576079651169525113,0.0447840541601,0.0203253403306,3.14056972574
1576079651189308206,0.0472730286419,0.020204603672,-3.13386443603
1576079651210604258,0.0493348650634,0.0200214385986,-3.13528337362
1576079651229521339,0.051430337131,0.0200035385787,-3.13547828297
1576079651249594732,0.0533261038363,0.0201039742678,-3.13173402442
1576079651269632661,0.0550691261888,0.0198799334466,-3.1364071447
1576079651289641950,0.0567803159356,0.0200593173504,-3.12978160726
1576079651310234474,0.0578959733248,0.0201701037586,-3.13392567229
1576079651330012854,0.0588895380497,0.0199052207172,-3.13608473458
1576079651350154101,0.0597715303302,0.0197607651353,-3.13406955809
1576079651369601883,0.0603089593351,0.0197078771889,-3.13266907668
1576079651389729031,0.0608254671097,0.0200030207634,-3.12745712952
1576079651409587979,0.0608914270997,0.0200274568051,-3.12749844088
1576079651430428151,0.0609921999276,0.0199667848647,-3.12413168899
1576079651449716557,0.0608603544533,0.0200405772775,-3.12564525657
1576079651469677284,0.0603818781674,0.0201303176582,-3.12724617299
1576079651489480886,0.05949973315,0.0206159465015,3.1338673393
1576079651509476691,0.0588141791523,0.0199964363128,-3.12278416688
1576079651529814839,0.0577002130449,0.020007301122,-3.12457925391
1576079651549790749,0.0566864870489,0.0199948158115,-3.11268274899
1576079651572246823,0.0552862882614,0.0199052076787,-3.117687334
1576079651589753279,0.0538822934031,0.0200530216098,-3.11462675726
1576079651609909997,0.0521201454103,0.0201354641467,-3.10238361082
1576079651629389430,0.0503844283521,0.0202014353126,-3.09261950087
1576079651649591870,0.0485950224102,0.0203135833144,-3.07353180739
1576079651669892184,0.0465552359819,0.0202558450401,-3.04965377357
1576079651689378846,0.0446720831096,0.0204485971481,-2.98225372505
1576079651709827811,0.0422963015735,0.020535428077,-1.54914941116
1576079651729448768,0.0404760539532,0.0202532093972,-0.238900088679
1576079651750412787,0.0385114103556,0.0202690251172,-0.101548138153
1576079651769878787,0.0365695916116,0.0202971026301,-0.0745848457611
1576079651790230117,0.034582156688,0.0201247166842,-0.0480353622051
1576079651809591765,0.0329384058714,0.0202741418034,-0.0431675379408
1576079651829437858,0.0313298143446,0.0205355677754,-0.0425988284006
1576079651849748133,0.0297320820391,0.0204786211252,-0.03194220996
1576079651869493324,0.0284900441766,0.0204017404467,-0.0266412748604
1576079651889502151,0.0270610619336,0.0201845150441,-0.0275088600147
1576079651909979854,0.0259772799909,0.0200461000204,-0.0273114119884
1576079651933183413,0.0251429341733,0.020259860903,-0.0250319969003
1576079651949580355,0.0246672518551,0.0200355239213,-0.0288553943686
1576079651969499742,0.0243039987981,0.0201033260673,-0.0276164216619
1576079651989474347,0.0243415404111,0.0200067013502,-0.0240762760085
1576079652009754182,0.0247092526406,0.0201514139771,-0.0203055808903
1576079652029745185,0.0253181047738,0.020239200443,-0.0180821020755
1576079652050355707,0.0261453092098,0.0206006038934,-0.00376231286874
1576079652069662493,0.0274395290762,0.0198865178972,-0.0213718469487
1576079652089508595,0.0286760982126,0.0201477333903,-0.0205600902701
1576079652110167028,0.0303914453834,0.0202984847128,-0.0095233880264
1576079652133020760,0.032396659255,0.0198306031525,-0.0185242442488
1576079652149484647,0.0345558039844,0.0198292788118,-0.0207408579533
1576079652169930346,0.0368926748633,0.0199708528817,-0.014528793765
1576079652189563737,0.0396874472499,0.0198068246245,-0.0102627287174
1576079652209517660,0.0426185503602,0.0198230911046,-0.0190225253328
1576079652229432490,0.0452743917704,0.0198335759342,-0.0258777125993
1576079652249580063,0.0480003543198,0.0199616346508,-0.0286806024221
1576079652269803758,0.0509709604084,0.0201236382127,-0.028567996309
1576079652289487443,0.0537839792669,0.020101826638,-0.0498396124205
1576079652313424169,0.0567781738937,0.0199667513371,-0.0483646701048
1576079652329709575,0.0597233884037,0.0201179310679,-0.0157668876776
1576079652349512232,0.0626973807812,0.0197217985988,-0.0939865225839
1576079652370102484,0.0658828541636,0.0200856290758,-0.172493541058
1576079652391268474,0.0687186419964,0.020037619397,-2.90312792512
1576079652410235217,0.071839928627,0.0199231151491,-3.0477953733
1576079652430188043,0.0745174065232,0.0199904348701,-3.07054315447
1576079652450109886,0.0774082541466,0.0198509823531,-3.09324460867
1576079652469806178,0.080160357058,0.0201725177467,-3.08680015145
1576079652489602354,0.0829059183598,0.0197336412966,-3.12515197887
1576079652509575787,0.0854525864124,0.0199108999223,-3.10923345618
1576079652529720668,0.088117107749,0.0199235342443,-3.12369751909
1576079652549619097,0.0906855612993,0.0198869854212,-3.13503791642
1576079652569498509,0.0928686708212,0.0199233610183,-3.12974968338
1576079652589592678,0.095360301435,0.0198585353792,-3.13019811273
1576079652609848439,0.0972138345242,0.0193925611675,-3.12444632518
1576079652629389135,0.099326454103,0.0197048261762,-3.13640500326
1576079652649483473,0.101549327374,0.0199456699193,-3.13385909162
1576079652669538467,0.103419199586,0.0196460932493,-3.13614627215
1576079652689568940,0.105333402753,0.0196918789297,-3.13580676599
1576079652710015901,0.1067218557,0.0197726003826,-3.12605589981
1576079652729440619,0.108756758273,0.0198184605688,-3.12661329145
1576079652749441362,0.110136941075,0.0197654273361,-3.12495173392
1576079652769344440,0.111534707248,0.0197840742767,-3.13476495041
1576079652789468004,0.11254785955,0.0196281038225,-3.13272262464
1576079652809472539,0.113875128329,0.0199551172554,-3.13532040539
1576079652829485079,0.114892847836,0.0198726654053,-3.13292420397
1576079652849340548,0.115768350661,0.0196247398853,-3.13689587765
1576079652869497230,0.116643674672,0.0198082402349,-3.13689725982
1576079652890415866,0.117235913873,0.0199563894421,-3.12357892781
1576079652909378507,0.117800116539,0.0197929497808,-3.13114494115
1576079652950145061,0.118188336492,0.0196973569691,-3.13169226996
1576079652957032958,0.118698880076,0.0198888108134,-3.13737648562
1576079653047349820,0.119104959071,0.0198892001063,-3.13408917284
1576079653047473694,0.11923173815,0.0198112931103,-3.12589106103
1576079653047833871,0.119571872056,0.0201646443456,-3.13437446618
1576079653047836253,0.119465388358,0.0197492018342,-3.13643352273
1576079653049388300,0.119890451431,0.0199066568166,-3.13125199872
1576079653069457411,0.120211794972,0.0201652832329,-3.14043955451
1576079653090040939,0.120526432991,0.0202188380063,3.13965607853
1576079653190598870,0.120667822659,0.0199065413326,-3.13375552923
1576079653190766387,0.120880693197,0.0197206176817,-3.14030861514
1576079653190918531,0.121067687869,0.0198862757534,-3.13758428718
1576079653191066967,0.121066883206,0.0199596583843,-3.13400393959
1576079653191159817,0.121009469032,0.0199872814119,-3.12416302578
1576079653210431698,0.121010802686,0.020074699074,-3.12957336977
1576079653327730916,0.120677925646,0.0200928729028,-3.13546790558
1576079653327769984,0.120261609554,0.0202210843563,-3.13515668278
1576079653327882924,0.119656518102,0.0201523136348,-3.13371418092
1576079653328163693,0.11898830533,0.0200052559376,-3.13059941142
1576079653328287394,0.118339255452,0.0201697591692,-3.12905077208
1576079653329921647,0.117394350469,0.0199838653207,-3.12823024633
1576079653349397446,0.116455115378,0.0201884564012,-3.13889706549
1576079653403571120,0.115426339209,0.0200283471495,-3.12663106328
1576079653403647012,0.114248134196,0.0201171711087,-3.12829432571
1576079653409306943,0.112996727228,0.0201858114451,-3.12594460994
1576079653429615629,0.111611008644,0.0201681945473,-3.12587081382
1576079653500379886,0.11017241329,0.0202425960451,-3.13920779131
1576079653500508555,0.108580946922,0.0202509853989,-3.13023804988
1576079653500648490,0.107280060649,0.0206282865256,-3.14046951098
1576079653512256780,0.10526047647,0.0204166080803,-3.13337730797
1576079653529435367,0.103223435581,0.0202920138836,-3.12673287721
1576079653549494122,0.101497665048,0.0204935465008,-3.13555023136
1576079653740571244,0.0994998887181,0.0202528871596,-3.12467774563
1576079653740929861,0.0973735824227,0.0203697346151,-3.12752962912
1576079653741183888,0.0952744632959,0.0205867681652,-3.12711204914
1576079653741817779,0.093051917851,0.0205274689943,-3.13328385645
1576079653741830091,0.0906678065658,0.0208702441305,-3.14030061017
1576079653741945420,0.0883948504925,0.0207678638399,-3.13190874172
1576079653742098480,0.0856688991189,0.020799620077,-3.12968821639
1576079653742260518,0.0830285847187,0.0209324341267,-3.1206761091
1576079653742403941,0.0802494585514,0.0206017754972,-3.10519760808
1576079653749462109,0.0776165500283,0.0210860967636,-3.11485939145
1576079653770068474,0.0748973488808,0.0212115366012,-3.08570288169
1576079653831582906,0.0723072066903,0.0211239978671,-3.11769431546
1576079653831703203,0.0694265961647,0.021128827706,-3.10700429252
1576079653831872288,0.0668404847383,0.0210350230336,-3.12292781151
1576079653849509764,0.0640195831656,0.0212319139391,-3.08787348064
1576079653869569820,0.061058178544,0.0215333513916,-3.10709784853
1576079653919376230,0.0583777017891,0.0215949844569,-3.08026878766
1576079653919545515,0.0557270124555,0.0214441530406,-3.04505670327
1576079653929782728,0.0529050827026,0.0211920104921,-3.01866165143
1576079653949963455,0.0502945370972,0.0213354658335,-0.816917725317
1576079654147763090,0.0477101244032,0.0215059500188,-0.100954835553
1576079654148005834,0.0447623245418,0.0212516523898,-0.0874545613601
1576079654148168625,0.0420186296105,0.0216544400901,-0.0149794660101
1576079654148287566,0.0391974300146,0.0219720397145,-0.020127236773
1576079654148399027,0.0367138534784,0.0218259245157,-0.0198758549089
1576079654148510648,0.0266632512212,0.0214708000422,-0.0122516480492
1576079654148622834,0.0339577645063,0.0214109253138,-0.0189454669857
1576079654148729660,0.0313092395663,0.0218970682472,-0.0207098005827
1576079654148843747,0.0290677640587,0.0218040794134,-0.0224361072726
1576079654149412522,0.0243169553578,0.0216959454119,-0.0272576336735
1576079654169316246,0.0221021119505,0.0220449808985,-0.0270045945518
1576079654377107569,0.0198109745979,0.0217675548047,-0.0108417699967
1576079654377160238,0.0179351940751,0.0216487180442,-0.00607783615784
1576079654377284916,0.0160869974643,0.0217849165201,-0.0138091818165
1576079654377416597,0.0141269369051,0.0220179576427,-0.0139464876933
1576079654377553909,0.0123592270538,0.0221454389393,-0.015167208243
1576079654377659837,0.0105000119656,0.0221373941749,-0.00134277813268
1576079654377798932,0.00873921811581,0.0221954640001,-0.00682523872719
1576079654377936518,0.00688041048124,0.0221982747316,-0.0140031188686
1576079654378052737,0.00525650847703,0.0224296674132,-0.010631832944
1576079654378187119,0.00385038275272,0.0222458988428,-0.0134295910194
1576079654390445631,0.00240352097899,0.0222207456827,-0.00949112063408
1576079654409665385,0.00109249376692,0.0226824246347,-0.0094971587038
1576079654603575699,-0.000128179788589,0.0224974304438,-0.0131014406158
1576079654603578643,-0.00127508328296,0.0224132537842,-0.00945304812381
1576079654604140175,-0.00211758585647,0.0226226206869,-0.00718884245243
1576079654604263315,-0.00325318146497,0.0225459299982,-0.0144701522756
1576079654604434136,-0.00387898460031,0.0226728972048,-0.0162435861413
1576079654604673999,-0.00449889013544,0.0227230284363,-0.0184885236072
1576079654604685697,-0.00483841262758,0.0230105891824,-0.0181324239166
1576079654604924783,-0.00517301773652,0.0228919759393,-0.017129222569
1576079654605012903,-0.00530061591417,0.0228684302419,-0.0168021007873
1576079654609549781,-0.00503992196172,0.023295307532,-0.019061069176
1576079654629338964,-0.0045994152315,0.0233296658844,-0.0213334326371
1576079654837148993,-0.00431236065924,0.023073060438,-0.0179218478728
1576079654838275015,-0.00388219510205,0.0229656435549,-0.0215940551479
1576079654838278459,-0.00321845756844,0.0232048202306,-0.0251481194439
1576079654838285308,-0.002140421886,0.0232290551066,-0.0241839865805
1576079654838292927,-0.00103152578231,0.023268122226,-0.0218714364762
1576079654838473922,0.000491077254992,0.0233264733106,-0.0166404421143
1576079654838479735,0.00176132959314,0.023391392082,-0.0180999462979
1576079654838538050,0.00338055798784,0.023232543841,-0.0232574185227
1576079654838544682,0.00502489926293,0.0234648901969,-0.0300231122649
1576079654838547642,0.00707946158946,0.0238882172853,-0.0323814783265
1576079654849451428,0.0089138681069,0.0236376486719,-0.0366779309968
1576079654869619148,0.0109298219904,0.0233444999903,-0.0313361487017
1576079655060065345,0.0133294854313,0.0237796213478,-0.0258569100621
1576079655060180514,0.0153055349365,0.0240123085678,-0.0243308117588
1576079655060310339,0.0175609178841,0.0239786356688,-0.0350150401578
1576079655060420676,0.0198086537421,0.0236264392734,-0.0431307121979
1576079655060541272,0.0221332404763,0.0236919764429,-0.0431911377991
1576079655060683812,0.0244279801846,0.0237236563116,-0.0440831768631
1576079655060797793,0.0268907211721,0.0236391872168,-0.0543764281626
1576079655060948650,0.0294165275991,0.0237144231796,-0.0955334459509
1576079655061067114,0.0321956276894,0.0237858705223,-0.105825661259
1576079655070018287,0.0346089713275,0.0236313343048,-0.164796897758
1576079655089523294,0.0373756587505,0.0236713718623,-0.332576178336
1576079655288674148,0.0400781519711,0.0233939047903,-1.50236339832
1576079655288868033,0.0429945662618,0.02376627177,-2.82649905026
1576079655288972792,0.0454784817994,0.0238723102957,-2.94310734343
1576079655289088466,0.0481468550861,0.0235971622169,-3.01465322251
1576079655289218963,0.0557287745178,0.0234579816461,-3.09046589475
1576079655289357549,0.0579949095845,0.0234668105841,-3.09760478151
1576079655289522274,0.0510201565921,0.0236014667898,-3.05537355696
1576079655289723426,0.0531794540584,0.0235640108585,-3.08152566191
1576079655289809359,0.0601310990751,0.0233667995781,-3.10540498864
1576079655289925486,0.0624020062387,0.0234912913293,-3.09746295388
1576079655309640825,0.0641628876328,0.0235426798463,-3.10471698508
1576079655516106228,0.0661156997085,0.0235550142825,-3.10655906427
1576079655516257016,0.0674094557762,0.0232451986521,-3.11656826083
1576079655516345376,0.070151373744,0.0233709327877,-3.12194766489
1576079655516469421,0.0690230503678,0.0234108883888,-3.11602342475
1576079655516576775,0.0711160823703,0.0233791656792,-3.11700150587
1576079655516737214,0.0722955092788,0.0237683691084,-3.12480399906
1576079655516893615,0.0726831331849,0.0233971737325,-3.1177615535
1576079655517076355,0.0731818452477,0.0235628783703,-3.12226082016
1576079655517200568,0.0737369433045,0.0233801361173,-3.12284868116
1576079655517323808,0.0735299512744,0.0233160872012,-3.12521605951
1576079655529761995,0.0732938721776,0.0234430674464,-3.12490634496
1576079655549615501,0.0727284774184,0.0235009323806,-3.12415416168
1576079655743637534,0.071854621172,0.0231272224337,-3.13047449488
1576079655743867238,0.071015432477,0.0235243178904,-3.12612497017
1576079655743936287,0.0700253173709,0.0233528558165,-3.13177431145
1576079655744048603,0.0685772448778,0.0233526621014,-3.1282374719
1576079655744175741,0.0666055828333,0.0231420900673,-3.13217586095
1576079655744332023,0.0651698261499,0.0233852695674,-3.12708538785
1576079655744426416,0.0627900436521,0.02317844145,-3.13061883028
1576079655744578616,0.0606275014579,0.0233044140041,-3.12565334584
1576079655744719434,0.0585811138153,0.0236774142832,-3.12482182842
1576079655750129328,0.0565719418228,0.0233899783343,-3.12183600265
1576079655770325366,0.0542048476636,0.0231428705156,-3.12769086119
1576079655971798087,0.0516254156828,0.023406829685,-3.12323293643
1576079655971956294,0.0487589389086,0.0234033446759,-3.07610175695
1576079655972067168,0.0462159849703,0.0232177246362,-3.09008129771
1576079655972217070,0.0434394702315,0.0233124122024,-3.04732073342
1576079655972332703,0.0406313166022,0.0229259599,-3.00945420448
1576079655972465169,0.0376657955348,0.0231300536543,-0.135031405286
1576079655972591927,0.0349874831736,0.023272478953,-0.0722990099051
1576079655972715335,0.0321934223175,0.0232581049204,-0.0352435645786
1576079655972868177,0.0290204081684,0.0230820719153,-0.0232730535342
1576079655973002892,0.026120884344,0.0228237099946,-0.0178737778756
1576079655989732167,0.0234769601375,0.0229369420558,-0.0138644169889
1576079656009787325,0.0208126455545,0.0228779129684,-0.014372000729
1576079656203711704,0.0182727612555,0.0234519802034,-0.0255993962642
1576079656203854053,0.0157695151865,0.0231888368726,-0.0127449274402
1576079656203945974,0.0140532068908,0.0237040705979,-0.018500299546
1576079656204044381,0.0127987135202,0.0236577000469,-0.0154359938589
1576079656204152338,0.0116752712056,0.0232309196144,-0.00591118290678
1576079656204260671,0.0108838379383,0.0231121089309,-0.00574045501187
1576079656204391452,0.0099833291024,0.0230261329561,-0.00950998346044
1576079656204495992,0.00952938292176,0.02307433635,-0.0186202187682
1576079656204595934,0.0091864047572,0.02363428846,-0.018584807271
1576079656209931395,0.00892448984087,0.0234906952828,-0.00276323598289
1576079656230510447,0.00904658716172,0.0229880418628,-0.0137495298765
1576079656431545088,0.00930527318269,0.0231384970248,-0.0167245631503
1576079656431552732,0.00969525612891,0.0237888675183,-0.0083548423047
1576079656431637325,0.0106186186895,0.0232580527663,-0.0211907578102
1576079656431752959,0.0113178780302,0.0230155754834,-0.0189970342619
1576079656431878886,0.01244214084,0.02318963781,-0.0205657872628
1576079656432012287,0.0136769236997,0.0232008900493,-0.0263869653577
1576079656432128313,0.0153320068493,0.0229965057224,-0.026623789151
1576079656432270001,0.0171379856765,0.0231225118041,-0.0252110758598
1576079656432369620,0.0188118461519,0.0232224613428,-0.0326903357022
1576079656432475371,0.0210454370826,0.0233130827546,-0.0374039970958
1576079656449408439,0.0230938270688,0.0232484657317,-0.035296024753
1576079656469343015,0.0254472885281,0.0232259128243,-0.0385339374819
1576079656660301481,0.0279052071273,0.023188745603,-0.0433935666049
1576079656660304875,0.030564032495,0.0230127237737,-0.0474354268561
1576079656660572614,0.0330878198147,0.0230425614864,-0.0672191880847
1576079656660576616,0.0359968543053,0.0231453962624,-0.0836814895802
1576079656660708634,0.0388821177185,0.0229496136308,-0.100298311182
1576079656660809172,0.0417976677418,0.0229944530874,-0.198281321372
1576079656660945414,0.0447332449257,0.022949449718,-1.39646328893
1576079656661139935,0.0480103194714,0.0232361312956,-2.88029196594
1576079656661198518,0.0508657768369,0.0232235938311,-3.0334509924
1576079656669883603,0.0541500262916,0.0230192895979,-3.04866507293
1576079656691949934,0.0570366047323,0.0227057337761,-3.08125571835
1576079656887866057,0.0596272163093,0.0228325370699,-3.0922169431
1576079656888064197,0.0625013262033,0.0228039249778,-3.09664586871
1576079656888196004,0.0699134320021,0.0225176513195,-3.11017559708
1576079656888296800,0.0719675496221,0.0224634706974,-3.11756742135
1576079656888449379,0.0649624615908,0.0226930323988,-3.10253786933
1576079656888636157,0.0676806792617,0.0225397329777,-3.10465052924
1576079656888787208,0.0742333829403,0.0225365832448,-3.11932691666
1576079656888857576,0.0760729983449,0.0224708281457,-3.12337283533
1576079656888964053,0.0780504122376,0.022313747555,-3.12200241085
1576079656890306729,0.0797517225146,0.0225207079202,-3.12340842365
1576079656909678538,0.0810807943344,0.022079365328,-3.13188548584
1576079657115842994,0.0822559595108,0.0222943164408,-3.13007373621
1576079657116174213,0.0833936110139,0.0221048537642,-3.12819791117
1576079657116176995,0.0842243358493,0.0219791587442,-3.13199362587
1576079657116333744,0.0849649235606,0.0220834445208,-3.12813492344
1576079657116475921,0.0854804292321,0.0224566888064,-3.12424895645
1576079657116613132,0.0861151665449,0.0220899600536,-3.12822004558
1576079657116698792,0.0859967470169,0.0216376148164,-3.13682976629
1576079657116827424,0.0859650373459,0.0218426138163,-3.13518793325
1576079657116934561,0.0856468752027,0.0219066031277,-3.13345003439
1576079657117048361,0.0849118828773,0.0219744406641,-3.1340602964
1576079657129291342,0.0840080082417,0.021945040673,-3.13959240421
1576079657149338848,0.0828190222383,0.0217225495726,-3.14097561406
1576079657343593762,0.081651777029,0.021601587534,-3.13818646172
1576079657344428603,0.080195017159,0.0216374639422,3.13942264517
1576079657344466541,0.0789383277297,0.0215090699494,3.13101469238
1576079657344471821,0.0772161185741,0.0216005239636,3.13391958121
1576079657344667207,0.07165517658,0.0216655954719,-3.10552601929
1576079657344902123,0.0695172995329,0.0213463939726,-3.12442703285
1576079657345001023,0.0755228251219,0.0218748953193,-3.14020310152
1576079657345442555,0.0735980346799,0.0218658428639,3.13440691759
1576079657351739534,0.0673111975193,0.0214261915535,-3.13235640966
1576079657352077497,0.0652802661061,0.0215384755284,-3.04808937871
1576079657369437608,0.0630450919271,0.021390195936,-1.08439788702
1576079657389498249,0.060855448246,0.021435642615,-0.030011381499
1576079657409606547,0.058308660984,0.0216765254736,-0.0406797425876
1576079657429457379,0.0563380382955,0.0216512028128,-0.0487403563784
1576079657449550527,0.0540817379951,0.0215076617897,-0.0319410920462
1576079657469741406,0.0521146245301,0.0212877485901,-0.032822795773
1576079657490247852,0.0500089898705,0.0210864525288,-0.0214792178692
1576079657511061821,0.0480636395514,0.0210468824953,-0.0127597256716
1576079657530896818,0.0462677553296,0.0217623077333,-0.0221714504479
1576079657550033529,0.044408403337,0.0213521365076,-0.0134922754204
1576079657569364475,0.0424489378929,0.0210299920291,-0.0162726221317
1576079657589335099,0.0408402793109,0.020976241678,-0.0101312704211
