rosbagTimestamp,header,seq,stamp,secs,nsecs,frame_id,pose,position,x,y,z,orientation,x,y,z,w
1576079640030285561,,70027,,1576079640,30185735,"""world""",,,-0.204639837146,0.0194957535714,2.59309744835,,-0.00872641336173,0.0477635487914,0.0106287263334,-0.998763978481
1576079640050230366,,70028,,1576079640,50159783,"""world""",,,-0.204648464918,0.0195167846978,2.59314584732,,-0.00894227530807,0.0479408428073,0.0105918515474,-0.998754024506
1576079640070150445,,70029,,1576079640,70055536,"""world""",,,-0.204640001059,0.0194896943867,2.59308576584,,-0.0086470162496,0.0477623231709,0.0105557246134,-0.998765587807
1576079640089818483,,70030,,1576079640,89743843,"""world""",,,-0.20464284718,0.0195077974349,2.59312176704,,-0.00882572401315,0.0480745397508,0.0105751836672,-0.998748838902
1576079640110122877,,70031,,1576079640,110030356,"""world""",,,-0.204654112458,0.0195131022483,2.59312224388,,-0.00883982144296,0.047721106559,0.0107709430158,-0.998763561249
1576079640130143168,,70032,,1576079640,130039874,"""world""",,,-0.204652711749,0.0194938331842,2.59309220314,,-0.00881172996014,0.0477762557566,0.0107722925022,-0.998761177063
1576079640150152308,,70033,,1576079640,150043112,"""world""",,,-0.204627737403,0.01950025931,2.59312462807,,-0.00890650879592,0.0480040833354,0.0105643142015,-0.998751580715
1576079640169955406,,70034,,1576079640,169873038,"""world""",,,-0.204637497663,0.0194827243686,2.5930929184,,-0.00865588895977,0.0477524287999,0.0106550222263,-0.998764872551
1576079640189995117,,70035,,1576079640,189882189,"""world""",,,-0.204615041614,0.0195032339543,2.59312343597,,-0.00874492619187,0.0481235012412,0.0104120448232,-0.998748838902
1576079640209960947,,70036,,1576079640,209826347,"""world""",,,-0.204641506076,0.0194938182831,2.59308362007,,-0.00875637214631,0.0476991720498,0.0107206674293,-0.99876588583
1576079640229852474,,70037,,1576079640,229759247,"""world""",,,-0.204627484083,0.0194837320596,2.59309792519,,-0.00868560932577,0.047797486186,0.0108053721488,-0.99876087904
1576079640250851797,,70038,,1576079640,250716451,"""world""",,,-0.204631879926,0.0194933190942,2.59308934212,,-0.00873586162925,0.0476982370019,0.0106667121872,-0.998766720295
1576079640270639784,,70039,,1576079640,270541507,"""world""",,,-0.204630449414,0.0195084977895,2.59311342239,,-0.00878204312176,0.0479818619788,0.0105563458055,-0.998753786087
1576079640289910519,,70040,,1576079640,289800328,"""world""",,,-0.204657763243,0.0194937195629,2.59309339523,,-0.00878758076578,0.0477104671299,0.0107839619741,-0.998764395714
1576079640310102809,,70041,,1576079640,310012009,"""world""",,,-0.204618543386,0.0195067692548,2.59313440323,,-0.00880464632064,0.0479614250362,0.010466709733,-0.998755633831
1576079640329964004,,70042,,1576079640,329850716,"""world""",,,-0.204656794667,0.0194948017597,2.59309577942,,-0.00879027508199,0.0477572306991,0.0107881240547,-0.998762071133
1576079640349933368,,70043,,1576079640,349859556,"""world""",,,-0.204645976424,0.0194845404476,2.59308958054,,-0.00870620459318,0.0478171519935,0.0106650078669,-0.998761296272
1576079640370710872,,70044,,1576079640,370621562,"""world""",,,-0.204647511244,0.0194963365793,2.59309244156,,-0.00881794374436,0.0477701760828,0.0107738589868,-0.998761296272
1576079640390873423,,70045,,1576079640,390765499,"""world""",,,-0.204651862383,0.0194959938526,2.59309267998,,-0.00876545161009,0.0477938018739,0.0106519823894,-0.998761951923
1576079640411108214,,70046,,1576079640,411027685,"""world""",,,-0.20465041697,0.0195026118308,2.59309411049,,-0.0087007265538,0.0477928631008,0.0107304761186,-0.998761773109
1576079640429852637,,70047,,1576079640,429769259,"""world""",,,-0.20464849472,0.0195312593132,2.5931429863,,-0.00900003220886,0.0478815436363,0.0106747997925,-0.998755514622
1576079640449866255,,70048,,1576079640,449772106,"""world""",,,-0.204639554024,0.0195076800883,2.59308648109,,-0.00863804388791,0.0477910451591,0.0105116181076,-0.998764693737
1576079640469779373,,70049,,1576079640,469692227,"""world""",,,-0.204641819,0.0195016935468,2.59311389923,,-0.00881000980735,0.0480476729572,0.0106586208567,-0.998749375343
1576079640490218559,,70050,,1576079640,490133504,"""world""",,,-0.204627662897,0.0195046663284,2.59310030937,,-0.00868724752218,0.047798037529,0.010695646517,-0.998762011528
1576079640509890796,,70051,,1576079640,509800536,"""world""",,,-0.204644843936,0.0195145886391,2.59309434891,,-0.00875919871032,0.0476798936725,0.0107544939965,-0.998766362667
1576079640529884449,,70052,,1576079640,529778692,"""world""",,,-0.204651385546,0.0195138957351,2.59308981895,,-0.00889687333256,0.047799192369,0.0105864899233,-0.998761296272
1576079640550000249,,70053,,1576079640,549911835,"""world""",,,-0.204640597105,0.0195153597742,2.59312939644,,-0.00876370538026,0.0480282232165,0.0105450693518,-0.998751938343
1576079640569883714,,70054,,1576079640,569777405,"""world""",,,-0.204640045762,0.0195248275995,2.59313225746,,-0.00870365463197,0.0480110347271,0.0103919114918,-0.998754799366
1576079640589783273,,70055,,1576079640,589707277,"""world""",,,-0.20464541018,0.0195264983922,2.5931456089,,-0.00881543755531,0.0480206757784,0.0105024473742,-0.998752295971
1576079640610203359,,70056,,1576079640,610129303,"""world""",,,-0.204722672701,0.0194992795587,2.59308767319,,-0.00923709012568,0.0485719367862,0.0103576714173,-0.998723328114
1576079640629946267,,70057,,1576079640,629849765,"""world""",,,-0.204651966691,0.0195162538439,2.5931224823,,-0.00890959892422,0.047983404249,0.0105137797073,-0.998753070831
1576079640649954051,,70058,,1576079640,649866615,"""world""",,,-0.204637676477,0.0195048134774,2.59311366081,,-0.00863255187869,0.0479668341577,0.0104889879003,-0.998756527901
1576079640670290657,,70059,,1576079640,670205438,"""world""",,,-0.204646468163,0.019508594647,2.59312105179,,-0.00874552875757,0.0480046235025,0.010486388579,-0.998753786087
1576079640689896392,,70060,,1576079640,689811742,"""world""",,,-0.204646408558,0.0195309091359,2.59314322472,,-0.00895301997662,0.0479871369898,0.0105120576918,-0.998752593994
1576079640712090126,,70061,,1576079640,711982497,"""world""",,,-0.204649373889,0.0195338577032,2.59313511848,,-0.00871951784939,0.0479819141328,0.0103885158896,-0.998756170273
1576079640730033155,,70062,,1576079640,729945436,"""world""",,,-0.204641446471,0.0195147600025,2.59315490723,,-0.0090129012242,0.047965940088,0.0105564687401,-0.998752593994
1576079640749840843,,70063,,1576079640,749759487,"""world""",,,-0.204643473029,0.0195028018206,2.59312677383,,-0.00884872023016,0.0479738339782,0.0105335554108,-0.998753845692
1576079640769855026,,70064,,1576079640,769777717,"""world""",,,-0.204642131925,0.0195277649909,2.59315609932,,-0.00894496310502,0.0479073263705,0.0105887176469,-0.998755693436
1576079640790058203,,70065,,1576079640,789980017,"""world""",,,-0.204645186663,0.0195351503789,2.59314227104,,-0.0088358130306,0.0479086823761,0.01055468712,-0.998756945133
1576079640810511798,,70066,,1576079640,810427608,"""world""",,,-0.204646468163,0.019517948851,2.59311747551,,-0.00889801140875,0.0476869046688,0.0107299843803,-0.99876511097
1576079640829747714,,70067,,1576079640,829668434,"""world""",,,-0.204644963145,0.0195085089654,2.59312486649,,-0.00874521955848,0.0479610823095,0.0105679519475,-0.998755097389
1576079640850062237,,70068,,1576079640,849934346,"""world""",,,-0.204645559192,0.0194963309914,2.59310007095,,-0.0085665686056,0.0477674975991,0.0105664245784,-0.998765826225
1576079640869834895,,70069,,1576079640,869737572,"""world""",,,-0.204636231065,0.0195142365992,2.59313154221,,-0.00880893692374,0.0480039194226,0.0103959077969,-0.998754262924
1576079640889864398,,70070,,1576079640,889758357,"""world""",,,-0.204649999738,0.0195137467235,2.59314393997,,-0.00900489650667,0.0479237213731,0.0106677608564,-0.998753488064
1576079640910029850,,70071,,1576079640,909934882,"""world""",,,-0.204639881849,0.0195139534771,2.59312367439,,-0.00884735118598,0.0479634143412,0.0105293514207,-0.998754441738
1576079640930160878,,70072,,1576079640,930074876,"""world""",,,-0.204634130001,0.0194988660514,2.59309530258,,-0.00870925933123,0.0478126965463,0.0106117175892,-0.998761951923
1576079640950218829,,70073,,1576079640,950072996,"""world""",,,-0.204653725028,0.0194963812828,2.59310913086,,-0.00869625434279,0.0477342382073,0.0105850696564,-0.998766124249
1576079640969945703,,70074,,1576079640,969816356,"""world""",,,-0.204642951488,0.0195007808506,2.59311461449,,-0.0088985003531,0.0477179065347,0.0107721630484,-0.998763203621
1576079640989779981,,70075,,1576079640,989680460,"""world""",,,-0.204642131925,0.0195165071636,2.59315133095,,-0.00888033490628,0.0479041934013,0.0105933584273,-0.998756349087
1576079641009810863,,70076,,1576079641,9728726,"""world""",,,-0.204640343785,0.0195026658475,2.59312987328,,-0.00888211000711,0.0479682870209,0.0105403587222,-0.998753786087
1576079641030013212,,70077,,1576079641,29878485,"""world""",,,-0.204638004303,0.0195076819509,2.59313488007,,-0.00871580000967,0.0480936355889,0.0103689515963,-0.998750984669
1576079641049866534,,70078,,1576079641,49787548,"""world""",,,-0.204657047987,0.0195344947278,2.59315562248,,-0.00894341059029,0.0479150600731,0.0105384541675,-0.998755812645
1576079641069861185,,70079,,1576079641,69761610,"""world""",,,-0.204646706581,0.0195107124746,2.59309482574,,-0.0087122656405,0.0478648841381,0.0105592738837,-0.998760104179
1576079641090179607,,70080,,1576079641,90054121,"""world""",,,-0.204656779766,0.0194999072701,2.59308862686,,-0.00867001991719,0.0478082448244,0.010613151826,-0.99876254797
1576079641110284236,,70081,,1576079641,110180850,"""world""",,,-0.204648077488,0.0194996874779,2.59309625626,,-0.00877752900124,0.0477588884532,0.0105174062774,-0.99876499176
1576079641130627360,,70082,,1576079641,130549995,"""world""",,,-0.20464463532,0.0194967836142,2.59312129021,,-0.00887276884168,0.0480298288167,0.0103787221014,-0.998752593994
1576079641149876038,,70083,,1576079641,149769342,"""world""",,,-0.204650148749,0.0195000078529,2.59309959412,,-0.00873212981969,0.0478010028601,0.0107341241091,-0.998761057854
1576079641169784167,,70084,,1576079641,169703800,"""world""",,,-0.204644948244,0.0195007566363,2.59309649467,,-0.00869994610548,0.0477536208928,0.0105535145849,-0.998765528202
1576079641189935360,,70085,,1576079641,189823876,"""world""",,,-0.204635962844,0.0194963254035,2.59310030937,,-0.00879522971809,0.0477981939912,0.0106110116467,-0.998762011528
1576079641210176072,,70086,,1576079641,210075405,"""world""",,,-0.204631701112,0.0194942615926,2.59312915802,,-0.00874885730445,0.0479869358242,0.0105132358149,-0.998754382133
1576079641232812015,,70087,,1576079641,230510726,"""world""",,,-0.204660385847,0.0195180084556,2.59313154221,,-0.00884855166078,0.047712162137,0.0108056431636,-0.998763501644
1576079641249967369,,70088,,1576079641,249846715,"""world""",,,-0.204663440585,0.0195349771529,2.59315061569,,-0.0089002000168,0.0479699186981,0.010527567938,-0.998753726482
1576079641269880621,,70089,,1576079641,269791335,"""world""",,,-0.204649731517,0.0195117071271,2.59312558174,,-0.00884667318314,0.0479985326529,0.0105389188975,-0.998752653599
1576079641289795766,,70090,,1576079641,289725419,"""world""",,,-0.204656809568,0.0195020958781,2.5930929184,,-0.00866357516497,0.04781486094,0.010718270205,-0.998761117458
1576079641310266191,,70091,,1576079641,310189477,"""world""",,,-0.204664215446,0.019530588761,2.59314775467,,-0.00898163672537,0.047792326659,0.0105553325266,-0.998761117458
1576079641332228528,,70092,,1576079641,332143674,"""world""",,,-0.204641088843,0.0195075049996,2.5931224823,,-0.00869591441005,0.0479767024517,0.0104855308309,-0.998755633831
1576079641349987339,,70093,,1576079641,349896661,"""world""",,,-0.204649865627,0.0195107068866,2.59312772751,,-0.00874602608383,0.0476874150336,0.0106899244711,-0.998766899109
1576079641369803403,,70094,,1576079641,369719901,"""world""",,,-0.204639136791,0.0194928329438,2.59310150146,,-0.00872100144625,0.0477988570929,0.0105841234326,-0.998762845993
1576079641389919361,,70095,,1576079641,389845139,"""world""",,,-0.204657927155,0.0195057094097,2.59312200546,,-0.00887268129736,0.0477910004556,0.0106222042814,-0.998761475086
1576079641410657242,,70096,,1576079641,410568376,"""world""",,,-0.204642117023,0.0195418484509,2.59313869476,,-0.00887660589069,0.0478835627437,0.0105052608997,-0.99875831604
1576079641429808112,,70097,,1576079641,429732910,"""world""",,,-0.204711839557,0.0194995515049,2.59308600426,,-0.00926217623055,0.0486022979021,0.0103042572737,-0.998722136021
1576079641450187104,,70098,,1576079641,450113894,"""world""",,,-0.204663813114,0.0194950290024,2.59311509132,,-0.00888974405825,0.047672457993,0.010822228156,-0.998764872551
1576079641469784899,,70099,,1576079641,469712492,"""world""",,,-0.204647615552,0.019522625953,2.59312558174,,-0.0088258665055,0.0476749762893,0.0105698602274,-0.998768031597
1576079641489785948,,70100,,1576079641,489705125,"""world""",,,-0.204630702734,0.019509634003,2.59312963486,,-0.00866526179016,0.0480547212064,0.0105107920244,-0.998751819134
1576079641509848312,,70101,,1576079641,509739053,"""world""",,,-0.204645469785,0.0195328574628,2.59315419197,,-0.00889322441071,0.0479219555855,0.0105808665976,-0.998755514622
1576079641530034851,,70102,,1576079641,529941881,"""world""",,,-0.204630866647,0.0195078514516,2.59311747551,,-0.00870148651302,0.0477481372654,0.0107334861532,-0.998763799667
1576079641549835726,,70103,,1576079641,549764481,"""world""",,,-0.204628139734,0.0195193998516,2.59312987328,,-0.00865295529366,0.0480083525181,0.0105000035837,-0.998754322529
1576079641570134190,,70104,,1576079641,570056273,"""world""",,,-0.204627409577,0.019497089088,2.59310007095,,-0.00873331166804,0.0478659905493,0.0106083760038,-0.998759269714
1576079641589815786,,70105,,1576079641,589724460,"""world""",,,-0.204640284181,0.0194949768484,2.59310889244,,-0.00876737572253,0.047780085355,0.0105698546395,-0.998763561249
1576079641609751526,,70106,,1576079641,609669717,"""world""",,,-0.20462270081,0.0195172205567,2.59312176704,,-0.00874106958508,0.0479388572276,0.0104053560644,-0.998757898808
1576079641630020053,,70107,,1576079641,629935050,"""world""",,,-0.204634532332,0.019511135295,2.59309530258,,-0.00855843350291,0.0477947294712,0.0104727046564,-0.998765587807
1576079641649975929,,70108,,1576079641,649882149,"""world""",,,-0.204645782709,0.0195135418326,2.59309339523,,-0.00869602710009,0.0477406457067,0.0106081077829,-0.998765587807
1576079641670960533,,70109,,1576079641,670853649,"""world""",,,-0.204650133848,0.0195212904364,2.59309339523,,-0.00874789431691,0.0477726794779,0.0106067322195,-0.998763620853
1576079641689923307,,70110,,1576079641,689824167,"""world""",,,-0.204627007246,0.0195103809237,2.59312915802,,-0.00861702486873,0.0479719862342,0.0103630907834,-0.998757779598
1576079641709845551,,70111,,1576079641,709774645,"""world""",,,-0.204649373889,0.019508715719,2.59310007095,,-0.00874642189592,0.0477811098099,0.0106517225504,-0.998762786388
1576079641729823110,,70112,,1576079641,729747816,"""world""",,,-0.204626366496,0.0195228662342,2.59312677383,,-0.00865745730698,0.0480328388512,0.0103151891381,-0.99875497818
1576079641749915198,,70113,,1576079641,749708556,"""world""",,,-0.204645633698,0.0195110663772,2.59313011169,,-0.00883124116808,0.0480094067752,0.010439125821,-0.99875330925
1576079641769898723,,70114,,1576079641,769810163,"""world""",,,-0.204634681344,0.0195035133511,2.59311962128,,-0.00893046986312,0.0480085611343,0.0106345843524,-0.998750388622
1576079641789725825,,70115,,1576079641,789654047,"""world""",,,-0.204631283879,0.0195058844984,2.59312200546,,-0.00867500901222,0.0480415448546,0.0104324296117,-0.998753249645
1576079641810148826,,70116,,1576079641,810040352,"""world""",,,-0.204643219709,0.0195048097521,2.59310269356,,-0.00866941083223,0.0478906780481,0.0105412080884,-0.998759388924
1576079641829934869,,70117,,1576079641,829847430,"""world""",,,-0.204639732838,0.0194982420653,2.59309887886,,-0.00867106020451,0.0478135943413,0.0105876522139,-0.998762488365
1576079641849853991,,70118,,1576079641,849767245,"""world""",,,-0.204644575715,0.0194891989231,2.59309148788,,-0.00864647794515,0.0477969907224,0.0106052272022,-0.998763382435
1576079641871113789,,70119,,1576079641,871033012,"""world""",,,-0.204638674855,0.0194986294955,2.59312057495,,-0.00881681405008,0.0480329692364,0.0104722436517,-0.998751938343
1576079641889979662,,70120,,1576079641,889902436,"""world""",,,-0.204648599029,0.0194965936244,2.59309339523,,-0.00867875572294,0.0478038676083,0.0107185412198,-0.998761534691
1576079641909972684,,70121,,1576079641,909898220,"""world""",,,-0.204660475254,0.0195185225457,2.59311747551,,-0.00882017146796,0.047699984163,0.0106309298426,-0.998766183853
1576079641930037088,,70122,,1576079641,929947996,"""world""",,,-0.204665616155,0.019491404295,2.59310555458,,-0.00876680482179,0.0478140600026,0.0106562618166,-0.998760998249
1576079641951078345,,70123,,1576079641,950987664,"""world""",,,-0.204646766186,0.0194914080203,2.59310126305,,-0.00871220044792,0.0478055626154,0.0106223747134,-0.998762249947
1576079641969831821,,70124,,1576079641,969758294,"""world""",,,-0.204638719559,0.0195005610585,2.59309434891,,-0.00854967162013,0.0477803982794,0.0105984425172,-0.99876511097
1576079641989841836,,70125,,1576079641,989767834,"""world""",,,-0.204647108912,0.019507009536,2.59310317039,,-0.00870419666171,0.0477643981576,0.0106550194323,-0.998763918877
1576079642009842792,,70126,,1576079642,9767256,"""world""",,,-0.204656392336,0.0195115376264,2.59310531616,,-0.00877237319946,0.0478059612215,0.0106329107657,-0.998761534691
1576079642030506202,,70127,,1576079642,30431663,"""world""",,,-0.204666033387,0.0195111650974,2.5931251049,,-0.00880535691977,0.0477615632117,0.0107581270859,-0.998762071133
1576079642049854617,,70128,,1576079642,49749545,"""world""",,,-0.204660952091,0.0195400826633,2.59314751625,,-0.00893908273429,0.0479500629008,0.0104380846024,-0.998755276203
1576079642070161163,,70129,,1576079642,70072152,"""world""",,,-0.204662322998,0.0194885656238,2.59310388565,,-0.00882529374212,0.047851126641,0.0107505824417,-0.998757719994
1576079642096068300,,70130,,1576079642,95968480,"""world""",,,-0.204632744193,0.0195087529719,2.5931289196,,-0.00878009479493,0.0480192638934,0.0105975950137,-0.99875164032
1576079642110216993,,70131,,1576079642,110135241,"""world""",,,-0.204639777541,0.0194994043559,2.5931019783,,-0.00867584627122,0.0478024631739,0.0104772085324,-0.998764157295
1576079642129831482,,70132,,1576079642,129755359,"""world""",,,-0.204631447792,0.0195181109011,2.59314131737,,-0.00883458461612,0.0479818582535,0.0105952946469,-0.998753011227
1576079642151394697,,70133,,1576079642,151318940,"""world""",,,-0.204642817378,0.0195027440786,2.59310698509,,-0.00866672676057,0.0477738045156,0.0106176752597,-0.998764157295
1576079642169825600,,70134,,1576079642,169734532,"""world""",,,-0.204642653465,0.0195109117776,2.59310531616,,-0.00876047927886,0.0477190762758,0.0105264578015,-0.998766899109
1576079642189814519,,70135,,1576079642,189739492,"""world""",,,-0.204648464918,0.0195095259696,2.59309744835,,-0.00873741041869,0.0478231608868,0.0105799492449,-0.998761534691
1576079642209812444,,70136,,1576079642,209717161,"""world""",,,-0.204645112157,0.0195183977485,2.59311461449,,-0.00881433580071,0.0479901209474,0.0105540761724,-0.998753190041
1576079642229955381,,70137,,1576079642,229845070,"""world""",,,-0.204633906484,0.0195096675307,2.59311938286,,-0.00871777907014,0.0480314642191,0.0104801338166,-0.998752892017
1576079642249873525,,70138,,1576079642,249730593,"""world""",,,-0.204656347632,0.019523544237,2.59314703941,,-0.00884700659662,0.0479229092598,0.0105816982687,-0.99875587225
1576079642269828908,,70139,,1576079642,269696713,"""world""",,,-0.204644471407,0.0194908753037,2.59310317039,,-0.00862911716104,0.0476628057659,0.0106632243842,-0.998769283295
1576079642289792337,,70140,,1576079642,289702520,"""world""",,,-0.204650729895,0.0195270106196,2.59314656258,,-0.00897892564535,0.0479444973171,0.0105212302878,-0.998754262924
1576079642309946430,,70141,,1576079642,309871763,"""world""",,,-0.204654201865,0.0194988306612,2.59309506416,,-0.00869238097221,0.0478106178343,0.010728915222,-0.998760998249
1576079642329975049,,70142,,1576079642,329869346,"""world""",,,-0.204639136791,0.019517948851,2.5931417942,,-0.00876171048731,0.0480058193207,0.010499403812,-0.998753488064
1576079642351243140,,70143,,1576079642,351152741,"""world""",,,-0.204647302628,0.0195371713489,2.59312868118,,-0.0089994110167,0.0478632003069,0.0105030993,-0.998758196831
1576079642369778783,,70144,,1576079642,369686710,"""world""",,,-0.204650014639,0.0194968320429,2.59309959412,,-0.00876591168344,0.0478028096259,0.0105824843049,-0.998762249947
1576079642390009324,,70145,,1576079642,389927307,"""world""",,,-0.204640328884,0.0195052158087,2.59310674667,,-0.00861725676805,0.0477633066475,0.010534228757,-0.998765945435
1576079642411014659,,70146,,1576079642,410930214,"""world""",,,-0.204639643431,0.0195150189102,2.59315705299,,-0.00891626253724,0.0479223504663,0.0105807324871,-0.998755216599
1576079642429850455,,70147,,1576079642,429767907,"""world""",,,-0.204636961222,0.0195019561797,2.59314441681,,-0.0088327890262,0.0480275601149,0.0104500893503,-0.998752355576
1576079642450114395,,70148,,1576079642,450016035,"""world""",,,-0.204636201262,0.0194977205247,2.59310460091,,-0.00864826329052,0.047779109329,0.0105774048716,-0.998764455318
1576079642469839348,,70149,,1576079642,469747391,"""world""",,,-0.20464335382,0.0194911770523,2.59311008453,,-0.0086545040831,0.0478076338768,0.0107465106994,-0.998761296272
1576079642489812489,,70150,,1576079642,489732579,"""world""",,,-0.204644307494,0.0194875597954,2.59310388565,,-0.0085880542174,0.0478117577732,0.010667941533,-0.998762488365
1576079642509800144,,70151,,1576079642,509714290,"""world""",,,-0.204644933343,0.0195277873427,2.59315490723,,-0.00881884247065,0.047978490591,0.010550364852,-0.998753726482
1576079642529811832,,70152,,1576079642,529711079,"""world""",,,-0.204634740949,0.0194949135184,2.59309768677,,-0.00874140299857,0.0478215254843,0.0105332219973,-0.998762190342
1576079642549783371,,70153,,1576079642,549688335,"""world""",,,-0.204632818699,0.0195165481418,2.59310722351,,-0.00856356974691,0.0477770864964,0.0103533240035,-0.998767673969
1576079642573711249,,70154,,1576079642,573634186,"""world""",,,-0.204633414745,0.0195144489408,2.59310889244,,-0.00878572557122,0.0477407686412,0.0104414541274,-0.998766601086
1576079642589827654,,70155,,1576079642,589755208,"""world""",,,-0.204649060965,0.0195301547647,2.59312772751,,-0.00880628172308,0.0480366535485,0.0104545205832,-0.998752057552
1576079642609776994,,70156,,1576079642,609691672,"""world""",,,-0.204656168818,0.0195348765701,2.59311318398,,-0.00890892278403,0.0477020926774,0.0107209673151,-0.998764395714
1576079642629832091,,70157,,1576079642,629752231,"""world""",,,-0.204647645354,0.0195167865604,2.59309434891,,-0.00867000967264,0.047773398459,0.0106317102909,-0.998764038086
1576079642649884234,,70158,,1576079642,649801903,"""world""",,,-0.204662516713,0.0195214785635,2.59310030937,,-0.00887517910451,0.0476884171367,0.0106584923342,-0.998765945435
1576079642669767433,,70159,,1576079642,669675092,"""world""",,,-0.204641908407,0.0195241291076,2.59312582016,,-0.00874223466963,0.048087593168,0.0104931630194,-0.99874985218
1576079642689860545,,70160,,1576079642,689768814,"""world""",,,-0.204651087523,0.0195144135505,2.59311532974,,-0.00888397730887,0.0480215586722,0.0106801735237,-0.998749732971
1576079642710584931,,70161,,1576079642,710490148,"""world""",,,-0.204634711146,0.0195013172925,2.59309339523,,-0.00874022953212,0.0478141866624,0.0106236021966,-0.998761594296
1576079642730489900,,70162,,1576079642,730384118,"""world""",,,-0.204620927572,0.0195251777768,2.59313035011,,-0.00877393502742,0.0480536073446,0.0105651142076,-0.998750329018
1576079642749856132,,70163,,1576079642,749768107,"""world""",,,-0.204634547234,0.0194997489452,2.59309482574,,-0.0086268633604,0.0477727912366,0.0105779040605,-0.998765051365
1576079642769796679,,70164,,1576079642,769715969,"""world""",,,-0.204658716917,0.0195205006748,2.5930993557,,-0.00875931512564,0.0477331504226,0.0105795124546,-0.998765707016
1576079642790143683,,70165,,1576079642,790061065,"""world""",,,-0.204655006528,0.0195294264704,2.5931096077,,-0.00877537671477,0.0477183498442,0.0105860996991,-0.998766243458
1576079642810175738,,70166,,1576079642,810099837,"""world""",,,-0.204646617174,0.0195060893893,2.593105793,,-0.00862566381693,0.0478152669966,0.0106416689232,-0.998762309551
1576079642829865550,,70167,,1576079642,829792903,"""world""",,,-0.20464374125,0.0195158366114,2.59312295914,,-0.00871092360467,0.0480096377432,0.0105186104774,-0.998753488064
1576079642849765383,,70168,,1576079642,849684417,"""world""",,,-0.204659029841,0.0195128507912,2.59310030937,,-0.00877941027284,0.0477744787931,0.0104481363669,-0.99876499176
1576079642874281728,,70169,,1576079642,874205413,"""world""",,,-0.204653680325,0.0195117797703,2.5931019783,,-0.00875981152058,0.0477281324565,0.0105789359659,-0.998766005039
1576079642889852995,,70170,,1576079642,889774047,"""world""",,,-0.204656988382,0.0195091292262,2.59310555458,,-0.00872383546084,0.0477259382606,0.0106797423214,-0.998765289783
1576079642909907454,,70171,,1576079642,909787590,"""world""",,,-0.204636007547,0.019503319636,2.593095541,,-0.00860968511552,0.0477325581014,0.0106309996918,-0.998766541481
1576079642929957955,,70172,,1576079642,929855588,"""world""",,,-0.204646319151,0.0194955803454,2.59310412407,,-0.00854321476072,0.0477530546486,0.0105178495869,-0.998767316341
1576079642949866006,,70173,,1576079642,949778696,"""world""",,,-0.204637542367,0.0195140093565,2.59310078621,,-0.00868829153478,0.0477754510939,0.0106117241085,-0.998763918877
1576079642970876559,,70174,,1576079642,970786027,"""world""",,,-0.204635620117,0.0195104312152,2.59309411049,,-0.00869383849204,0.0477966479957,0.010544680059,-0.998763561249
1576079642989857974,,70175,,1576079642,989750098,"""world""",,,-0.204628750682,0.0195062290877,2.59310030937,,-0.00867454241961,0.0478086993098,0.0104833766818,-0.998763859272
1576079643010024500,,70176,,1576079643,9948988,"""world""",,,-0.204643845558,0.0195038300008,2.59310293198,,-0.00870105065405,0.0477619729936,0.0106856059283,-0.998763740063
1576079643029794481,,70177,,1576079643,29721038,"""world""",,,-0.204642504454,0.0194962136447,2.5930891037,,-0.00858894176781,0.047850959003,0.0106232920662,-0.998761117458
1576079643049680794,,70178,,1576079643,49609409,"""world""",,,-0.204646006227,0.0195157695562,2.59312081337,,-0.00884949974716,0.0479593463242,0.0104598747566,-0.998755395412
1576079643069795719,,70179,,1576079643,69717976,"""world""",,,-0.204641520977,0.0195123050362,2.593095541,,-0.00858891103417,0.0477367639542,0.0107556870207,-0.99876511097
1576079643089864187,,70180,,1576079643,89777919,"""world""",,,-0.204642355442,0.0195001140237,2.59309434891,,-0.00865468196571,0.0478067956865,0.0105561725795,-0.99876332283
1576079643109826789,,70181,,1576079643,109722500,"""world""",,,-0.204654559493,0.019491257146,2.59308791161,,-0.00877061858773,0.0477792471647,0.0107509428635,-0.998761594296
1576079643129749524,,70182,,1576079643,129665776,"""world""",,,-0.204652190208,0.0195024926215,2.5930891037,,-0.00870901905,0.0478249154985,0.0106727806851,-0.998760819435
1576079643150573922,,70183,,1576079643,150501342,"""world""",,,-0.204648852348,0.0195167027414,2.59309649467,,-0.00868275202811,0.0477434135973,0.0105079207569,-0.998766601086
1576079643176297986,,70184,,1576079643,176223274,"""world""",,,-0.204647094011,0.0195134077221,2.59309792519,,-0.00878939218819,0.0477526262403,0.0106188692153,-0.998764157295
1576079643189888333,,70185,,1576079643,189817134,"""world""",,,-0.204659044743,0.0195289608091,2.59311294556,,-0.00882797501981,0.0476922094822,0.0107816988602,-0.998764872551
1576079643209767037,,70186,,1576079643,209689409,"""world""",,,-0.204669222236,0.0195375848562,2.59312701225,,-0.00883620046079,0.0476664602757,0.0106286397204,-0.998767733574
1576079643229763719,,70187,,1576079643,229681829,"""world""",,,-0.204635873437,0.0195239242166,2.593126297,,-0.008664784953,0.0480175241828,0.010522082448,-0.998753488064
1576079643251556354,,70188,,1576079643,249772301,"""world""",,,-0.204658016562,0.0195373222232,2.59311461449,,-0.00874675810337,0.0476411022246,0.0107834469527,-0.998768031597
1576079643269878703,,70189,,1576079643,269686926,"""world""",,,-0.204664856195,0.0195156112313,2.59310388565,,-0.00874597392976,0.047737300396,0.0106968758628,-0.998764395714
1576079643289747740,,70190,,1576079643,289652305,"""world""",,,-0.204632669687,0.0195195768028,2.59312772751,,-0.0087578073144,0.0480539761484,0.0104445805773,-0.998751759529
1576079643309739146,,70191,,1576079643,309627761,"""world""",,,-0.204663261771,0.0195315480232,2.59311127663,,-0.00887670181692,0.0477104224265,0.0107359942049,-0.998764038086
1576079643329729318,,70192,,1576079643,329642832,"""world""",,,-0.204654544592,0.019515382126,2.59310245514,,-0.0087203187868,0.0477811619639,0.0107107646763,-0.998762369156
1576079643350918433,,70193,,1576079643,350835350,"""world""",,,-0.204656898975,0.0195575747639,2.59314155579,,-0.00886985193938,0.0478965230286,0.0104995714501,-0.998757719994
1576079643369766638,,70194,,1576079643,369679325,"""world""",,,-0.20463296771,0.0195174831897,2.59312200546,,-0.00876577477902,0.0479694753885,0.0105032343417,-0.998755097389
1576079643390780371,,70195,,1576079643,390687596,"""world""",,,-0.204644396901,0.0195489116013,2.59315633774,,-0.00879658386111,0.0478626787663,0.0105512244627,-0.998759448528
1576079643409674259,,70196,,1576079643,409580936,"""world""",,,-0.204641550779,0.0195120889693,2.59310412407,,-0.0087575847283,0.0477136261761,0.0106724491343,-0.998765647411
1576079643430724119,,70197,,1576079643,430641737,"""world""",,,-0.204641103745,0.0195096861571,2.59309458733,,-0.0087333181873,0.0477063171566,0.0106214256957,-0.9987667799
1576079643449840231,,70198,,1576079643,449755087,"""world""",,,-0.204656228423,0.0195300243795,2.59315490723,,-0.00888943392783,0.0478699728847,0.0107008079067,-0.998756766319
1576079643469697638,,70199,,1576079643,469623111,"""world""",,,-0.204633146524,0.0195227637887,2.59313011169,,-0.00874224957079,0.0479922443628,0.0104266051203,-0.998755037785
1576079643490582445,,70200,,1576079643,490509992,"""world""",,,-0.204646587372,0.019508915022,2.59309196472,,-0.00873389095068,0.0477409288287,0.0105773583055,-0.998765587807
1576079643510094359,,70201,,1576079643,510014033,"""world""",,,-0.204644709826,0.0195191707462,2.59312391281,,-0.00886733736843,0.0479571446776,0.0106801558286,-0.998752951622
1576079643529793683,,70202,,1576079643,529725547,"""world""",,,-0.204639032483,0.0195084754378,2.59310865402,,-0.00871516577899,0.047715742141,0.0105789154768,-0.998766958714
1576079643549858591,,70203,,1576079643,549748735,"""world""",,,-0.204647034407,0.0195172969252,2.59310030937,,-0.00864870753139,0.04781139642,0.0104914540425,-0.998763918877
1576079643569771997,,70204,,1576079643,569700330,"""world""",,,-0.20463514328,0.0195125974715,2.59312701225,,-0.00891053024679,0.0480582378805,0.0105855213478,-0.998748779297
1576079643589913016,,70205,,1576079643,589840190,"""world""",,,-0.204648792744,0.0195213314146,2.59310531616,,-0.00870646350086,0.0477286167443,0.0105828102678,-0.998766362667
1576079643609766202,,70206,,1576079643,609656459,"""world""",,,-0.204658180475,0.0195265226066,2.59312582016,,-0.008718627505,0.0477415844798,0.0107406117022,-0.998763918877
1576079643629869306,,70207,,1576079643,629760615,"""world""",,,-0.204629033804,0.0195262450725,2.59312200546,,-0.00878944434226,0.0479926541448,0.0104718301445,-0.998754143715
1576079643649825910,,70208,,1576079643,649722126,"""world""",,,-0.204649940133,0.0195274949074,2.59311270714,,-0.00871259067208,0.0477138347924,0.0106188142672,-0.998766601086
1576079643669786919,,70209,,1576079643,669703575,"""world""",,,-0.204653978348,0.0195212028921,2.59312534332,,-0.00891157798469,0.0476149953902,0.0107326591387,-0.998768389225
1576079643689712758,,70210,,1576079643,689615833,"""world""",,,-0.204667940736,0.0195354241878,2.59312176704,,-0.00885398685932,0.0477104485035,0.0106874778867,-0.998764812946
1576079643709811865,,70211,,1576079643,709716277,"""world""",,,-0.204650193453,0.0195072926581,2.59310221672,,-0.0087600024417,0.0478151850402,0.0107640521601,-0.998759806156
1576079643730046415,,70212,,1576079643,729968443,"""world""",,,-0.204649403691,0.0195406656712,2.59314799309,,-0.00886742584407,0.0478879958391,0.0106510203332,-0.998756587505
1576079643750042872,,70213,,1576079643,749959681,"""world""",,,-0.204655095935,0.0195250082761,2.59312558174,,-0.00886837299913,0.0479116551578,0.0105947209522,-0.998756051064
1576079643769733810,,70214,,1576079643,769638067,"""world""",,,-0.204640865326,0.0195135455579,2.59310555458,,-0.00867457594723,0.047716461122,0.0106243379414,-0.9987667799
1576079643790111652,,70215,,1576079643,790031686,"""world""",,,-0.204664483666,0.0195183884352,2.59310126305,,-0.0088215759024,0.0477222576737,0.0107037266716,-0.998764336109
1576079643809748010,,70216,,1576079643,809662299,"""world""",,,-0.204644814134,0.0195250343531,2.59311342239,,-0.00874040834606,0.0477372035384,0.0106030423194,-0.998765408993
1576079643836465119,,70217,,1576079643,836383443,"""world""",,,-0.20463038981,0.0195143297315,2.59311366081,,-0.00854462012649,0.0477488078177,0.0105882668868,-0.998766720295
1576079643851053389,,70218,,1576079643,850949571,"""world""",,,-0.204651221633,0.019533643499,2.59314370155,,-0.00885484274477,0.0479709021747,0.0105451587588,-0.998753845692
1576079643869894521,,70219,,1576079643,869812866,"""world""",,,-0.204640135169,0.0195125583559,2.59310817719,,-0.00863985810429,0.047731988132,0.0105940131471,-0.998766601086
1576079643892221684,,70220,,1576079643,892148521,"""world""",,,-0.204643934965,0.0195176154375,2.59310913086,,-0.0085759004578,0.0477140061557,0.0106144212186,-0.998767912388
1576079643909841642,,70221,,1576079643,909749743,"""world""",,,-0.204661741853,0.0195251125842,2.59310078621,,-0.00877259112895,0.0476476028562,0.0107896905392,-0.998767495155
1576079643930089975,,70222,,1576079643,929971757,"""world""",,,-0.204655468464,0.0195256676525,2.59310746193,,-0.00877628941089,0.0477791242301,0.0106944879517,-0.998762130737
1576079643949780248,,70223,,1576079643,949697469,"""world""",,,-0.204649239779,0.0195182804018,2.59309506416,,-0.00880990084261,0.0476566292346,0.0107518155128,-0.998767077923
1576079643969920477,,70224,,1576079643,969830205,"""world""",,,-0.204644948244,0.0195046123117,2.59309148788,,-0.00861689541489,0.047817222774,0.0105875190347,-0.998762845993
1576079643990524563,,70225,,1576079643,990444202,"""world""",,,-0.204648047686,0.0195035915822,2.59309697151,,-0.00886757671833,0.0477586463094,0.0106185702607,-0.998763144016
1576079644009791612,,70226,,1576079644,9704774,"""world""",,,-0.204644098878,0.0194946341217,2.59308624268,,-0.0087382029742,0.0477582104504,0.0106021603569,-0.998764455318
1576079644030033441,,70227,,1576079644,29935463,"""world""",,,-0.204655960202,0.0195125602186,2.59308791161,,-0.00859390944242,0.0478587523103,0.0107806734741,-0.998758971691
1576079644049862020,,70228,,1576079644,49787306,"""world""",,,-0.204648479819,0.0195035412908,2.59309744835,,-0.00874319672585,0.047762285918,0.0107167484239,-0.998763024807
1576079644070045499,,70229,,1576079644,69956225,"""world""",,,-0.204651579261,0.0195183828473,2.59309744835,,-0.00874332897365,0.0477018617094,0.0105978129432,-0.998767137527
1576079644089782638,,70230,,1576079644,89708744,"""world""",,,-0.204663082957,0.0195146556944,2.59309577942,,-0.00875569321215,0.0477400608361,0.010612828657,-0.998765051365
1576079644109797205,,70231,,1576079644,109727888,"""world""",,,-0.204642608762,0.0195118729025,2.59308695793,,-0.00859452411532,0.0477729775012,0.0105786006898,-0.998765289783
1576079644129964151,,70232,,1576079644,129893674,"""world""",,,-0.204650983214,0.0195098742843,2.59309315681,,-0.00875906925648,0.0477813333273,0.0105967111886,-0.998763203621
1576079644149844109,,70233,,1576079644,149744249,"""world""",,,-0.204664334655,0.0195172056556,2.59309363365,,-0.00866226106882,0.0478469841182,0.010629311204,-0.998760581017
1576079644173387410,,70234,,1576079644,173322463,"""world""",,,-0.204659804702,0.019520541653,2.59309697151,,-0.00865857303143,0.0477378591895,0.0106052290648,-0.998766124249
1576079644189829766,,70235,,1576079644,189711312,"""world""",,,-0.204653516412,0.0195013936609,2.59310388565,,-0.0087238708511,0.0478114485741,0.010724849999,-0.998760700226
1576079644209792491,,70236,,1576079644,209702052,"""world""",,,-0.204648762941,0.0194904524833,2.59310007095,,-0.00868932437152,0.0478060692549,0.0106950150803,-0.9987616539
1576079644232588004,,70237,,1576079644,232461786,"""world""",,,-0.204639852047,0.0195044055581,2.59311056137,,-0.0085394596681,0.0477988496423,0.0106029063463,-0.9987642169
1576079644249835337,,70238,,1576079644,249714649,"""world""",,,-0.204647898674,0.0195119082928,2.5931019783,,-0.00871645007282,0.0476711392403,0.0106301251799,-0.998768568039
1576079644269788803,,70239,,1576079644,269667516,"""world""",,,-0.204654440284,0.0195069387555,2.593105793,,-0.00878798216581,0.0478047914803,0.0108053702861,-0.998759627342
1576079644289855220,,70240,,1576079644,289707963,"""world""",,,-0.204640865326,0.0195163972676,2.5931084156,,-0.00866489298642,0.0477041490376,0.0106208473444,-0.998767495155
1576079644309800559,,70241,,1576079644,309712391,"""world""",,,-0.204631537199,0.0195034183562,2.59310293198,,-0.00853114202619,0.0477873645723,0.0106229782104,-0.998764634132
1576079644330037486,,70242,,1576079644,329947055,"""world""",,,-0.204645559192,0.0195000004023,2.59309077263,,-0.00875856447965,0.0478009879589,0.0107546364889,-0.998760581017
1576079644349754103,,70243,,1576079644,349663985,"""world""",,,-0.204634964466,0.0195043385029,2.59309577942,,-0.00856313761324,0.04773683846,0.0105452127755,-0.998767673969
1576079644369914305,,70244,,1576079644,369841298,"""world""",,,-0.204634934664,0.0195058789104,2.59309148788,,-0.00855811033398,0.0477520190179,0.010582161136,-0.998766481876
1576079644389832807,,70245,,1576079644,389760103,"""world""",,,-0.204649314284,0.0195041112602,2.59309673309,,-0.00873985700309,0.0477294102311,0.0105969104916,-0.998765826225
1576079644409798168,,70246,,1576079644,409726975,"""world""",,,-0.204634934664,0.0194970853627,2.59309101105,,-0.00859223119915,0.0477901399136,0.0106035731733,-0.998764157295
1576079644429942062,,70247,,1576079644,429861067,"""world""",,,-0.204652830958,0.019493540749,2.59310722351,,-0.00867855083197,0.0478214733303,0.0106275118887,-0.998761713505
1576079644449841490,,70248,,1576079644,449754819,"""world""",,,-0.20464220643,0.0194900017232,2.59309720993,,-0.00866414420307,0.0478646382689,0.0105831893161,-0.998760163784
1576079644469819288,,70249,,1576079644,469733693,"""world""",,,-0.20464348793,0.0194981582463,2.59309506416,,-0.00880720186979,0.0478028208017,0.0106648653746,-0.998761057854
1576079644489836521,,70250,,1576079644,489740522,"""world""",,,-0.204640492797,0.0194987617433,2.59309101105,,-0.00877008214593,0.0477832295001,0.0106199868023,-0.998762786388
1576079644513990650,,70251,,1576079644,513879108,"""world""",,,-0.204652279615,0.01950372383,2.59309744835,,-0.00867159012705,0.0478362292051,0.0107067395002,-0.998760223389
1576079644531979870,,70252,,1576079644,531871227,"""world""",,,-0.204645901918,0.0194936264306,2.59309315681,,-0.00868419837207,0.047725237906,0.0107014840469,-0.998765408993
1576079644549861279,,70253,,1576079644,549743917,"""world""",,,-0.20464527607,0.0195024609566,2.5930891037,,-0.00872765667737,0.0477715209126,0.010588504374,-0.998764038086
1576079644569746264,,70254,,1576079644,569670620,"""world""",,,-0.204653933644,0.0194939598441,2.59309649467,,-0.00864595267922,0.0477400869131,0.0106130205095,-0.998766005039
1576079644589809887,,70255,,1576079644,589720341,"""world""",,,-0.204644903541,0.0194965768605,2.59309077263,,-0.0087333638221,0.0478069931269,0.0105770006776,-0.998762488365
1576079644610061676,,70256,,1576079644,609987319,"""world""",,,-0.204633489251,0.0195001885295,2.5930993557,,-0.00857538823038,0.0477484501898,0.0105771021917,-0.99876666069
1576079644629810205,,70257,,1576079644,629731319,"""world""",,,-0.204634487629,0.0195161253214,2.59310865402,,-0.0087494365871,0.0477897413075,0.0105172963813,-0.998763799667
1576079644649942503,,70258,,1576079644,649867387,"""world""",,,-0.20464001596,0.0194958467036,2.59309339523,,-0.00873660482466,0.0478535145521,0.0106739457697,-0.9987590909
1576079644669958223,,70259,,1576079644,669861259,"""world""",,,-0.204648852348,0.0195089764893,2.59311103821,,-0.00889695156366,0.047703858465,0.0108792968094,-0.998762726784
1576079644689943750,,70260,,1576079644,689867050,"""world""",,,-0.204637423158,0.019504038617,2.59309744835,,-0.00870329607278,0.0477550849319,0.0105281909928,-0.998765707016
1576079644711348580,,70261,,1576079644,711276125,"""world""",,,-0.204644024372,0.0194919686764,2.59308934212,,-0.00869375746697,0.0477414540946,0.0105816302821,-0.998765826225
1576079644730085092,,70262,,1576079644,729997095,"""world""",,,-0.204628184438,0.0194977708161,2.59309387207,,-0.00867357850075,0.0477127432823,0.0105533841997,-0.998767733574
1576079644750073412,,70263,,1576079644,749997780,"""world""",,,-0.20464900136,0.0195080917329,2.593085289,,-0.00867206137627,0.0477420724928,0.0105759110302,-0.998766064644
1576079644770090360,,70264,,1576079644,769998373,"""world""",,,-0.204641744494,0.0194897688925,2.59309506416,,-0.00866318307817,0.0478054694831,0.010610954836,-0.998762786388
1576079644789795645,,70265,,1576079644,789716570,"""world""",,,-0.204633668065,0.0195030141622,2.59309911728,,-0.00864027719945,0.0477779395878,0.0105491066352,-0.998764872551
1576079644809733753,,70266,,1576079644,809662506,"""world""",,,-0.204644605517,0.019506579265,2.59309458733,,-0.00866761431098,0.0478650294244,0.0105649009347,-0.998760402203
1576079644829839616,,70267,,1576079644,829768217,"""world""",,,-0.204639330506,0.0195007715374,2.59309005737,,-0.00860395282507,0.0477634705603,0.0105422344059,-0.998766005039
1576079644850104104,,70268,,1576079644,850023188,"""world""",,,-0.204638272524,0.019502023235,2.59310483932,,-0.00861076358706,0.0477997362614,0.0107192629948,-0.998762309551
1576079644870074369,,70269,,1576079644,869978534,"""world""",,,-0.204650402069,0.0194918755442,2.59309720993,,-0.00868184305727,0.0478284470737,0.0107209915295,-0.998760282993
1576079644890085323,,70270,,1576079644,890008521,"""world""",,,-0.204653918743,0.0194991864264,2.59310126305,,-0.00864968635142,0.0477289408445,0.0105457464233,-0.998767316341
1576079644910218006,,70271,,1576079644,910128124,"""world""",,,-0.204635575414,0.0194938033819,2.59310102463,,-0.00852401461452,0.0477047413588,0.0105897951871,-0.998769044876
1576079644929910268,,70272,,1576079644,929802025,"""world""",,,-0.204628169537,0.019499566406,2.59310555458,,-0.00860268063843,0.0478205494583,0.0105964019895,-0.998762726784
1576079644949768997,,70273,,1576079644,949680479,"""world""",,,-0.204650372267,0.0194926448166,2.59311342239,,-0.00862016621977,0.0477219559252,0.0107209831476,-0.998765945435
1576079644969906262,,70274,,1576079644,969825366,"""world""",,,-0.204644694924,0.0195093154907,2.59312438965,,-0.00878377072513,0.0479879043996,0.0105736451223,-0.998753368855
1576079644989876315,,70275,,1576079644,989799874,"""world""",,,-0.204647958279,0.0194984879345,2.59310603142,,-0.00864684954286,0.0477632805705,0.0107335429639,-0.998763620853
1576079645009821651,,70276,,1576079645,9742754,"""world""",,,-0.204644158483,0.0195069108158,2.59310626984,,-0.00879134424031,0.0477887280285,0.010651727207,-0.998762011528
1576079645029776745,,70277,,1576079645,29691879,"""world""",,,-0.20463898778,0.0194931458682,2.59310412407,,-0.0087155206129,0.0477442964911,0.0107330577448,-0.998763918877
1576079645049867377,,70278,,1576079645,49782830,"""world""",,,-0.204645976424,0.0194985195994,2.59309887886,,-0.00867736618966,0.0478313863277,0.0106207020581,-0.998761236668
1576079645069697003,,70279,,1576079645,69595855,"""world""",,,-0.204646646976,0.0195323526859,2.59313225746,,-0.00883738044649,0.0480418987572,0.0103942835703,-0.998752176762
1576079645089738303,,70280,,1576079645,89665659,"""world""",,,-0.204657316208,0.0195296164602,2.59309148788,,-0.00875605549663,0.0477277897298,0.0105438251048,-0.998766362667
1576079645110366724,,70281,,1576079645,110268090,"""world""",,,-0.204659730196,0.0195269491524,2.59311032295,,-0.00888209976256,0.047679875046,0.0106623414904,-0.998766243458
1576079645130340833,,70282,,1576079645,130244422,"""world""",,,-0.204652711749,0.0194999314845,2.59310555458,,-0.00862052384764,0.0478132851422,0.010614301078,-0.998762667179
1576079645150270846,,70283,,1576079645,150166630,"""world""",,,-0.204646587372,0.0195136982948,2.59310793877,,-0.00870369561017,0.0477489978075,0.0105779031292,-0.998765468597
1576079645169849627,,70284,,1576079645,169772259,"""world""",,,-0.204642355442,0.0194949693978,2.59309697151,,-0.00867429655045,0.0477738082409,0.0107806613669,-0.998762309551
1576079645190132020,,70285,,1576079645,190055674,"""world""",,,-0.2046200037,0.0195211693645,2.59313201904,,-0.00868056714535,0.0479605570436,0.010587349534,-0.998755455017
1576079645210577145,,70286,,1576079645,210471617,"""world""",,,-0.204632431269,0.01950689964,2.59312725067,,-0.00876384507865,0.0480703413486,0.0105608524755,-0.998749732971
1576079645229841646,,70287,,1576079645,229751143,"""world""",,,-0.20465195179,0.0195061136037,2.59308552742,,-0.00868861842901,0.0477682314813,0.0106640122831,-0.998763799667
1576079645249788066,,70288,,1576079645,249677543,"""world""",,,-0.20464284718,0.019489267841,2.59310221672,,-0.00869788508862,0.0476770177484,0.0106015373021,-0.998768746853
1576079645269775502,,70289,,1576079645,269661844,"""world""",,,-0.204624637961,0.0195166952908,2.59312963486,,-0.0085727237165,0.0480239503086,0.0103953527287,-0.998755276203
1576079645291458620,,70290,,1576079645,291350775,"""world""",,,-0.204635694623,0.0195027086884,2.59309005737,,-0.00871051475406,0.0477472655475,0.0105373365805,-0.998765945435
1576079645309781465,,70291,,1576079645,309699983,"""world""",,,-0.204654321074,0.0195187143981,2.59311842918,,-0.00874513201416,0.0476920194924,0.0107537899166,-0.998765945435
1576079645329841005,,70292,,1576079645,329745506,"""world""",,,-0.204642906785,0.0195167530328,2.59312224388,,-0.00874909665436,0.0479898527265,0.0105712022632,-0.998753607273
1576079645349980992,,70293,,1576079645,349881371,"""world""",,,-0.204647928476,0.0195260792971,2.59311175346,,-0.00885148812085,0.047762259841,0.0106973983347,-0.998762309551
1576079645369662280,,70294,,1576079645,369572918,"""world""",,,-0.204659178853,0.0195357576013,2.59314370155,,-0.00892895366997,0.0478931888938,0.0105107650161,-0.998757302761
1576079645389871031,,70295,,1576079645,389786565,"""world""",,,-0.204645603895,0.0195113755763,2.5931429863,,-0.00903129670769,0.0479442067444,0.010601288639,-0.998753011227
1576079645410053435,,70296,,1576079645,409966973,"""world""",,,-0.204647302628,0.0195292979479,2.59315752983,,-0.0088362339884,0.0479584261775,0.0105551071465,-0.998754560947
1576079645429755064,,70297,,1576079645,429682604,"""world""",,,-0.204636633396,0.0195017140359,2.59312033653,,-0.00878172554076,0.0480363033712,0.0106445625424,-0.998750269413
1576079645449772685,,70298,,1576079645,449687508,"""world""",,,-0.204661041498,0.0195189360529,2.59312987328,,-0.0088040297851,0.0476757027209,0.0106852101162,-0.998766958714
1576079645469709945,,70299,,1576079645,469629336,"""world""",,,-0.204635590315,0.0194855071604,2.59310650826,,-0.00860566832125,0.0478525459766,0.0105734318495,-0.998761355877
1576079645490041033,,70300,,1576079645,489936319,"""world""",,,-0.204647898674,0.0195057429373,2.59312391281,,-0.0087968679145,0.0480304807425,0.0105584794655,-0.998751342297
1576079645510316186,,70301,,1576079645,510218800,"""world""",,,-0.204662203789,0.0194963775575,2.59308934212,,-0.00869696773589,0.0477590560913,0.0107591468841,-0.998763084412
1576079645530560668,,70302,,1576079645,530463327,"""world""",,,-0.204632207751,0.0194935426116,2.59310412407,,-0.00880400650203,0.0477599985898,0.0107133938,-0.998762667179
1576079645550012497,,70303,,1576079645,549729341,"""world""",,,-0.204637616873,0.0194923523813,2.59310150146,,-0.00871713832021,0.0477718822658,0.0106194149703,-0.998763740063
1576079645569742860,,70304,,1576079645,569635551,"""world""",,,-0.204648062587,0.0194997321814,2.59308815002,,-0.00867484137416,0.0478438436985,0.0106488838792,-0.998760461807
1576079645589636667,,70305,,1576079645,589531632,"""world""",,,-0.204628154635,0.0195079445839,2.5931289196,,-0.00882366485894,0.0480406098068,0.010529964231,-0.998750925064
1576079645609889754,,70306,,1576079645,609805992,"""world""",,,-0.204655125737,0.0195289757103,2.59311914444,,-0.00894742645323,0.0477217212319,0.0106334304437,-0.998764038086
1576079645630118664,,70307,,1576079645,629952977,"""world""",,,-0.204635247588,0.0195201151073,2.59310245514,,-0.00871825218201,0.0477745346725,0.0105429384857,-0.998764455318
1576079645649773446,,70308,,1576079645,649690676,"""world""",,,-0.204635113478,0.0195328872651,2.59311914444,,-0.00883773714304,0.0480669178069,0.0104940598831,-0.99874997139
1576079645669771003,,70309,,1576079645,669690044,"""world""",,,-0.204619780183,0.0195271652192,2.59313154221,,-0.00865170359612,0.0479767508805,0.0104182539508,-0.998756706715
1576079645689916460,,70310,,1576079645,689807020,"""world""",,,-0.204642891884,0.0195154994726,2.59313440323,,-0.00891701225191,0.0479726828635,0.0106080472469,-0.998752534389
1576079645709945639,,70311,,1576079645,709811228,"""world""",,,-0.204639360309,0.0194989647716,2.59310030937,,-0.00865272898227,0.0477458946407,0.0107670081779,-0.998763978481
1576079645729881729,,70312,,1576079645,729751022,"""world""",,,-0.204645708203,0.0195052120835,2.59310889244,,-0.00857718195766,0.0477550551295,0.0106088127941,-0.998765945435
1576079645749674276,,70313,,1576079645,749568629,"""world""",,,-0.204633116722,0.0195077508688,2.59313726425,,-0.00870367418975,0.048070140183,0.0105771208182,-0.998750030994
1576079645770322216,,70314,,1576079645,770146492,"""world""",,,-0.204647436738,0.019487451762,2.59310793877,,-0.00873925164342,0.047829490155,0.0106400633231,-0.998760640621
1576079645789845163,,70315,,1576079645,789738362,"""world""",,,-0.204642772675,0.019502941519,2.59313225746,,-0.00872379541397,0.0479993410408,0.0107206767425,-0.998751759529
1576079645810303199,,70316,,1576079645,810017922,"""world""",,,-0.204649910331,0.0195345394313,2.59315538406,,-0.00893352273852,0.0479189939797,0.0105642657727,-0.998755455017
1576079645831571880,,70317,,1576079645,831451273,"""world""",,,-0.204625502229,0.0195094142109,2.59313750267,,-0.00885234680027,0.0480725616217,0.0105634313077,-0.998748779297
1576079645850188973,,70318,,1576079645,849864992,"""world""",,,-0.204637229443,0.0195139423013,2.59313440323,,-0.00867054238915,0.0478066280484,0.0107248956338,-0.998761415482
1576079645869745222,,70319,,1576079645,869614307,"""world""",,,-0.20464296639,0.0195073727518,2.59310173988,,-0.00873154215515,0.0478662513196,0.0105473203585,-0.998759865761
1576079645890350818,,70320,,1576079645,890241528,"""world""",,,-0.204638004303,0.0195174105465,2.59312987328,,-0.00877821072936,0.0480120480061,0.0104853454977,-0.998753190041
1576079645912832904,,70321,,1576079645,910876295,"""world""",,,-0.204649373889,0.0195421036333,2.59314918518,,-0.00891223549843,0.0479619279504,0.0105109577999,-0.998754143715
1576079645929851573,,70322,,1576079645,929728093,"""world""",,,-0.20463706553,0.0195144116879,2.59311056137,,-0.00852480623871,0.0477659665048,0.0105245131999,-0.998766720295
1576079645949773192,,70323,,1576079645,949653384,"""world""",,,-0.204644396901,0.0195232015103,2.59313201904,,-0.00885862577707,0.0479699112475,0.0105859264731,-0.998753428459
1576079645969938455,,70324,,1576079645,969825278,"""world""",,,-0.204653322697,0.0194962471724,2.59309315681,,-0.0086844265461,0.0478417128325,0.0106145264581,-0.99876075983
1576079645990684390,,70325,,1576079645,990569370,"""world""",,,-0.20464245975,0.0195046868175,2.59309959412,,-0.00877877697349,0.0477797240019,0.0107015464455,-0.998762011528
1576079646010389808,,70326,,1576079646,10061977,"""world""",,,-0.20463591814,0.0195181723684,2.59312200546,,-0.00876510329545,0.048033028841,0.0105385147035,-0.998751699924
1576079646029685902,,70327,,1576079646,29574682,"""world""",,,-0.20465990901,0.0195543915033,2.5931391716,,-0.00892222952098,0.0478859730065,0.0105431452394,-0.998757302761
1576079646049811309,,70328,,1576079646,49629806,"""world""",,,-0.204634681344,0.0195316579193,2.59312081337,,-0.00870714243501,0.0479484573007,0.0104097444564,-0.998757660389
1576079646069813590,,70329,,1576079646,69681230,"""world""",,,-0.204652816057,0.019513996318,2.59308743477,,-0.00862072408199,0.0478307306767,0.0106909349561,-0.998761117458
1576079646089905080,,70330,,1576079646,89783950,"""world""",,,-0.204643189907,0.0194894373417,2.59309005737,,-0.00865646917373,0.0477850027382,0.0107231447473,-0.99876254797
1576079646110191795,,70331,,1576079646,109952372,"""world""",,,-0.204639807343,0.0194997377694,2.59309458733,,-0.00866159517318,0.0477607958019,0.0106650115922,-0.998764276505
1576079646129870942,,70332,,1576079646,129752755,"""world""",,,-0.20463116467,0.0195075813681,2.59311199188,,-0.00877445843071,0.048013355583,0.0105494735762,-0.998752474785
1576079646150301488,,70333,,1576079646,150138041,"""world""",,,-0.204668074846,0.019518410787,2.593116045,,-0.00894087925553,0.0476898215711,0.0107704363763,-0.998764157295
1576079646170342475,,70334,,1576079646,170002191,"""world""",,,-0.204652801156,0.0195078793913,2.59308600426,,-0.00880403071642,0.0476697534323,0.0107891736552,-0.998766064644
1576079646189868538,,70335,,1576079646,189745018,"""world""",,,-0.204658761621,0.0195034816861,2.59307360649,,-0.00868154875934,0.0477351173759,0.0106272082776,-0.998765826225
1576079646210503562,,70336,,1576079646,210356242,"""world""",,,-0.204661414027,0.0195076726377,2.59308981895,,-0.00873893406242,0.0477404594421,0.0107981199399,-0.998763263226
1576079646229811300,,70337,,1576079646,229707881,"""world""",,,-0.204658225179,0.0194911882281,2.59308385849,,-0.0087610874325,0.0477729178965,0.0107380459085,-0.998762071133
1576079646250757872,,70338,,1576079646,250397170,"""world""",,,-0.204651713371,0.019484847784,2.59307742119,,-0.0088067939505,0.0477311015129,0.0108413267881,-0.998762607574
1576079646269945224,,70339,,1576079646,269828387,"""world""",,,-0.204630255699,0.0194968897849,2.593116045,,-0.0086580934003,0.0480519421399,0.010667398572,-0.998750329018
1576079646290125261,,70340,,1576079646,289984593,"""world""",,,-0.204666823149,0.019503839314,2.59310150146,,-0.00870674848557,0.0477374568582,0.0107264770195,-0.998764395714
1576079646310046188,,70341,,1576079646,309798664,"""world""",,,-0.20464797318,0.0195090062916,2.593126297,,-0.0088307922706,0.0476371943951,0.0107156774029,-0.998768270016
1576079646330182633,,70342,,1576079646,330071890,"""world""",,,-0.204646721482,0.019487798214,2.59310555458,,-0.00878614466637,0.0478308461607,0.0106035843492,-0.998760521412
1576079646349877071,,70343,,1576079646,349680538,"""world""",,,-0.204643860459,0.0195072889328,2.59309434891,,-0.00863524526358,0.0477677024901,0.0106015037745,-0.998764872551
1576079646369964000,,70344,,1576079646,369793398,"""world""",,,-0.204657718539,0.0194995645434,2.59309887886,,-0.00857812166214,0.0477429442108,0.0106167299673,-0.998766362667
1576079646389830240,,70345,,1576079646,389694167,"""world""",,,-0.204644665122,0.0194977708161,2.5930929184,,-0.00881019420922,0.0478080585599,0.010676715523,-0.998760700226
1576079646409896369,,70346,,1576079646,409776665,"""world""",,,-0.204641535878,0.0194969605654,2.59309267998,,-0.00863761175424,0.0477750748396,0.0106006441638,-0.998764514923
1576079646429745441,,70347,,1576079646,429636632,"""world""",,,-0.204627797008,0.0195005293936,2.5931289196,,-0.00866732094437,0.0480067133904,0.010469308123,-0.998754560947
1576079646452384369,,70348,,1576079646,452223685,"""world""",,,-0.204638183117,0.0194858536124,2.59309244156,,-0.00860967300832,0.0477697402239,0.0106231467798,-0.998764753342
1576079646469869892,,70349,,1576079646,469631501,"""world""",,,-0.204660281539,0.0195142067969,2.59312009811,,-0.00886601395905,0.0475956462324,0.0107502602041,-0.998769581318
1576079646489739870,,70350,,1576079646,489590306,"""world""",,,-0.20466171205,0.0195197053254,2.59312295914,,-0.00884624198079,0.0477005057037,0.0107501093298,-0.998764693737
1576079646510519976,,70351,,1576079646,509748919,"""world""",,,-0.204645931721,0.0194900911301,2.5931019783,,-0.00865957792848,0.0478313229978,0.0106754517183,-0.99876087904
1576079646532004314,,70352,,1576079646,531698335,"""world""",,,-0.204650178552,0.0194994937629,2.59309673309,,-0.00868353992701,0.0477060340345,0.0105816833675,-0.998767673969
1576079646556442590,,70353,,1576079646,556236089,"""world""",,,-0.204650998116,0.0195052959025,2.59312033653,,-0.00878350716084,0.048044513911,0.0105793224648,-0.998750627041
1576079646570908222,,70354,,1576079646,570623045,"""world""",,,-0.204655140638,0.0195016413927,2.59308767319,,-0.00861592870206,0.0477528981864,0.0107405027375,-0.998764276505
1576079646590816666,,70355,,1576079646,590536957,"""world""",,,-0.204649835825,0.0195058584213,2.59311914444,,-0.00877175107598,0.0480261817575,0.0106887705624,-0.998750388622
1576079646609914763,,70356,,1576079646,609792842,"""world""",,,-0.204644009471,0.0194923728704,2.59308171272,,-0.00863494817168,0.0478198193014,0.0106632867828,-0.998761773109
1576079646629720829,,70357,,1576079646,629596180,"""world""",,,-0.204654172063,0.0194967500865,2.59309625626,,-0.00864762905985,0.0478184744716,0.0106589850038,-0.998761773109
1576079646650162031,,70358,,1576079646,649868200,"""world""",,,-0.204634875059,0.0195152498782,2.59312367439,,-0.00865321420133,0.0480022951961,0.0105089331046,-0.998754441738
1576079646670335797,,70359,,1576079646,670013445,"""world""",,,-0.204650640488,0.0195046439767,2.59311962128,,-0.00892657134682,0.0476832985878,0.0105917677283,-0.998766481876
1576079646689865936,,70360,,1576079646,689745245,"""world""",,,-0.204648330808,0.0195060819387,2.59311747551,,-0.00895028747618,0.047970701009,0.0106649193913,-0.998751759529
1576079646709852011,,70361,,1576079646,709750193,"""world""",,,-0.204642593861,0.0194926410913,2.59310388565,,-0.00862093828619,0.0478605255485,0.0105432989076,-0.998761177063
1576079646730515501,,70362,,1576079646,730281983,"""world""",,,-0.204637929797,0.0195050723851,2.5930993557,,-0.00867298431695,0.0478469505906,0.0106515372172,-0.998760223389
1576079646749713534,,70363,,1576079646,749608746,"""world""",,,-0.204645246267,0.0194932669401,2.59309768677,,-0.00871619489044,0.0478074289858,0.0106608020142,-0.998761713505
1576079646770071367,,70364,,1576079646,769797118,"""world""",,,-0.204655528069,0.0195179320872,2.59311437607,,-0.00891633797437,0.0476761125028,0.0106632681563,-0.998766183853
1576079646790871258,,70365,,1576079646,790625820,"""world""",,,-0.204646021128,0.0195009242743,2.59309792519,,-0.008743731305,0.0477718450129,0.0105985496193,-0.998763740063
1576079646809671715,,70366,,1576079646,809568938,"""world""",,,-0.20463962853,0.0195089075714,2.59311842918,,-0.00874741468579,0.048038624227,0.0105507904664,-0.998751461506
1576079646830268071,,70367,,1576079646,830053312,"""world""",,,-0.204644173384,0.0195016916841,2.59309720993,,-0.00873805489391,0.0477579534054,0.0106493402272,-0.998763918877
1576079646851743297,,70368,,1576079646,851070765,"""world""",,,-0.204640462995,0.0194971933961,2.59311771393,,-0.00881355814636,0.0480361431837,0.0105997202918,-0.998750507832
