rosbagTimestamp,transforms,-,header,seq,stamp,secs,nsecs,frame_id,child_frame_id,transform,translation,x,y,z,rotation,x,y,z,w
1576080620661566325,,,0,,1576080620,661456220,"""world""","""hoverOpti/base_link""",,,1.30102586746,0.0221438147128,0.567321002483,,0.00341244790422,0.0102975229841,-0.00736937213676,0.999914000589
1576080620681600175,,,0,,1576080620,681445548,"""world""","""hoverOpti/base_link""",,,1.30103230476,0.0221424736083,0.567321062088,,0.00339923309286,0.0103297868873,-0.00739786674925,0.999913502401
1576080620701434639,,,0,,1576080620,701337489,"""world""","""hoverOpti/base_link""",,,1.30101573467,0.0221708267927,0.567308604717,,0.00313986169268,0.0102093903515,-0.00765659107222,0.999913639386
1576080620721456074,,,0,,1576080620,721383973,"""world""","""hoverOpti/base_link""",,,1.30101335049,0.0221011843532,0.567317247391,,0.00377978160668,0.0103349641565,-0.0078405627986,0.999908709504
1576080620741453453,,,0,,1576080620,741375218,"""world""","""hoverOpti/base_link""",,,1.30103290081,0.0221479330212,0.56731647253,,0.00336335121594,0.0103444276361,-0.00740522957625,0.999913417882
1576080620765407625,,,0,,1576080620,765335403,"""world""","""hoverOpti/base_link""",,,1.30100476742,0.02210348472,0.567304730415,,0.00386035341756,0.0103744396796,-0.00799637272393,0.999906759001
1576080620781464860,,,0,,1576080620,781388765,"""world""","""hoverOpti/base_link""",,,1.30100440979,0.0221184585243,0.567324519157,,0.00376043216561,0.0102313239458,-0.00733282425947,0.999913700701
1576080620801432710,,,0,,1576080620,801354825,"""world""","""hoverOpti/base_link""",,,1.30101084709,0.0221105199307,0.567310094833,,0.00386194326386,0.0103590581674,-0.00784004480464,0.999908150285
1576080620821532363,,,0,,1576080620,821418891,"""world""","""hoverOpti/base_link""",,,1.30099868774,0.0221132505685,0.567328035831,,0.00380217793181,0.0102060811987,-0.00728371083659,0.999914159769
1576080620841499767,,,0,,1576080620,841290650,"""world""","""hoverOpti/base_link""",,,1.30103063583,0.0221439432353,0.567325651646,,0.00342605482654,0.0103261599506,-0.00741146006922,0.99991334766
1576080620864131751,,,0,,1576080620,863940673,"""world""","""hoverOpti/base_link""",,,1.3010185957,0.0221104696393,0.567310392857,,0.00387465564506,0.0103944135051,-0.00780777459655,0.9999079867
1576080620881554138,,,0,,1576080620,881432164,"""world""","""hoverOpti/base_link""",,,1.30099058151,0.0220882892609,0.567317008972,,0.00406497116537,0.0101755411683,-0.00767816053821,0.999910486105
1576080620901479078,,,0,,1576080620,901382938,"""world""","""hoverOpti/base_link""",,,1.30103266239,0.0221406109631,0.567326784134,,0.00335424283517,0.0103728728772,-0.00741167376024,0.999913106052
1576080620921622102,,,0,,1576080620,921515385,"""world""","""hoverOpti/base_link""",,,1.30099356174,0.0220856182277,0.567323625088,,0.00415769481096,0.0102001321816,-0.00775785478334,0.999909239164
1576080620941641894,,,0,,1576080620,941549372,"""world""","""hoverOpti/base_link""",,,1.30099654198,0.0220850482583,0.567321419716,,0.00419125171278,0.0102238044254,-0.00785540747286,0.99990809568
1576080620961761120,,,0,,1576080620,961675827,"""world""","""hoverOpti/base_link""",,,1.30100631714,0.0221266783774,0.567326188087,,0.0037707071727,0.0102421169298,-0.00728128991293,0.999913928109
1576080620981496603,,,0,,1576080620,981398742,"""world""","""hoverOpti/base_link""",,,1.30098676682,0.0220797732472,0.56732070446,,0.00408386129503,0.010265005925,-0.00780757458914,0.999908492568
1576080621001621557,,,0,,1576080621,1526190,"""world""","""hoverOpti/base_link""",,,1.30098724365,0.0220785625279,0.567326366901,,0.00420251825008,0.0102278646583,-0.007771936507,0.999908659142
1576080621021559648,,,0,,1576080621,21423398,"""world""","""hoverOpti/base_link""",,,1.30099987984,0.0221104510128,0.567330420017,,0.00372549960323,0.0102277341956,-0.00726745322262,0.999914345446
1576080621041700039,,,0,,1576080621,41582276,"""world""","""hoverOpti/base_link""",,,1.30102241039,0.0221204534173,0.567322611809,,0.00354464933702,0.010401739724,-0.00706700374295,0.999914644722
1576080621061437621,,,0,,1576080621,61327605,"""world""","""hoverOpti/base_link""",,,1.30101084709,0.0221086349338,0.567318081856,,0.00374510246368,0.0103414959507,-0.00783958452897,0.999908780131
1576080621081481433,,,0,,1576080621,81372119,"""world""","""hoverOpti/base_link""",,,1.30100810528,0.0221689138561,0.567311406136,,0.00319109698488,0.0102287468963,-0.00764929038812,0.999913335241
1576080621105560877,,,0,,1576080621,105146159,"""world""","""hoverOpti/base_link""",,,1.30100417137,0.02210919559,0.56733494997,,0.00373471471293,0.0102160023616,-0.00731571837408,0.999914079042
1576080621121446395,,,0,,1576080621,121371435,"""world""","""hoverOpti/base_link""",,,1.3010058403,0.0221171528101,0.567327260971,,0.00378507791918,0.0102674804978,-0.00718105395022,0.999914338578
1576080621141454235,,,0,,1576080621,141363440,"""world""","""hoverOpti/base_link""",,,1.30100488663,0.0221045594662,0.567334294319,,0.00372122391232,0.0102473814069,-0.00731521053447,0.999913811967
1576080621161522882,,,0,,1576080621,161432659,"""world""","""hoverOpti/base_link""",,,1.30100560188,0.0221191160381,0.567322432995,,0.00377739576669,0.0101913947996,-0.00724848422765,0.999914659473
1576080621181551610,,,0,,1576080621,181461586,"""world""","""hoverOpti/base_link""",,,1.30102336407,0.0221082661301,0.567321121693,,0.00374401543892,0.0103405778365,-0.00788470444212,0.999908438925
1576080621201464985,,,0,,1576080621,201371474,"""world""","""hoverOpti/base_link""",,,1.30101585388,0.0221107881516,0.567314982414,,0.00373248183254,0.0103650026878,-0.0078847894044,0.999908228486
1576080621221405092,,,0,,1576080621,221301254,"""world""","""hoverOpti/base_link""",,,1.30100905895,0.0221313908696,0.567326009274,,0.00374338932751,0.0102558385771,-0.00723686569678,0.999914212613
1576080621241379760,,,0,,1576080621,241302678,"""world""","""hoverOpti/base_link""",,,1.30103421211,0.0221419855952,0.567315220833,,0.00343084588966,0.0103470572884,-0.00734339366484,0.999913617405
1576080621261401324,,,0,,1576080621,261308305,"""world""","""hoverOpti/base_link""",,,1.3010519743,0.0221499092877,0.567304909229,,0.00332091749737,0.0105264867049,-0.00719163569041,0.999913218715
1576080621281640139,,,0,,1576080621,281563673,"""world""","""hoverOpti/base_link""",,,1.30100905895,0.0221196860075,0.567329227924,,0.00375453967076,0.0101943503947,-0.0073310696142,0.999914113347
1576080621301429855,,,0,,1576080621,301351480,"""world""","""hoverOpti/base_link""",,,1.30101847649,0.0221056938171,0.56729722023,,0.00380402267154,0.0103736696559,-0.00789484845768,0.999907789627
1576080621321525432,,,0,,1576080621,321444785,"""world""","""hoverOpti/base_link""",,,1.30102109909,0.02203983441,0.56733751297,,0.0037905188017,0.00998220176563,-0.00809178465988,0.999910251291
1576080621341391385,,,0,,1576080621,341304604,"""world""","""hoverOpti/base_link""",,,1.30104410648,0.0221398342401,0.567317128181,,0.00353570454182,0.0103854120483,-0.00738810905825,0.999912525101
1576080621361802746,,,0,,1576080621,361715846,"""world""","""hoverOpti/base_link""",,,1.30100035667,0.0220845937729,0.567326366901,,0.00417930336631,0.0102193379392,-0.00772057349488,0.999909241532
1576080621381439004,,,0,,1576080621,381344936,"""world""","""hoverOpti/base_link""",,,1.30103564262,0.022134527564,0.567326366901,,0.00337873853287,0.0104139983794,-0.00742118500701,0.999912525562
1576080621401688678,,,0,,1576080621,401599664,"""world""","""hoverOpti/base_link""",,,1.30102086067,0.0221021641046,0.567317068577,,0.00377508204637,0.0103558869578,-0.00792478394013,0.999907846834
1576080621425416755,,,0,,1576080621,425335117,"""world""","""hoverOpti/base_link""",,,1.30103456974,0.0221366304904,0.567325055599,,0.003339147926,0.0103722506493,-0.00733183513134,0.999913751631
1576080621441364502,,,0,,1576080621,441289640,"""world""","""hoverOpti/base_link""",,,1.30101752281,0.0221053529531,0.567314147949,,0.0038142573695,0.0103511305244,-0.00789166970589,0.999908009312
1576080621461459396,,,0,,1576080621,461363054,"""world""","""hoverOpti/base_link""",,,1.30102241039,0.022108219564,0.567320823669,,0.00373503266775,0.0103746414324,-0.00786491255879,0.999908275542
1576080621481607777,,,0,,1576080621,481511379,"""world""","""hoverOpti/base_link""",,,1.3010160923,0.0221053399146,0.567313313484,,0.00371740792569,0.0103670913989,-0.0078504632399,0.999908533077
1576080621501478310,,,0,,1576080621,501394756,"""world""","""hoverOpti/base_link""",,,1.30102813244,0.0221387911588,0.56732660532,,0.00344778012132,0.0103720500119,-0.00746072495999,0.999912431653
1576080621527238667,,,0,,1576080621,527111125,"""world""","""hoverOpti/base_link""",,,1.30101966858,0.022103978321,0.567315280437,,0.00383835182156,0.0103878360381,-0.00787050021226,0.999907703313
1576080621558587982,,,0,,1576080621,557704270,"""world""","""hoverOpti/base_link""",,,1.3010083437,0.0221164915711,0.567327022552,,0.00371165008087,0.0101947493869,-0.00719967704277,0.999915224101
1576080621561991512,,,0,,1576080621,561468682,"""world""","""hoverOpti/base_link""",,,1.30103051662,0.0221370756626,0.567321002483,,0.0033724719355,0.0103541591637,-0.00740177167462,0.999913312041
1576080621581851420,,,0,,1576080621,581743819,"""world""","""hoverOpti/base_link""",,,1.30103230476,0.0221260953695,0.567323803902,,0.00340603334807,0.0103929900698,-0.00743616639296,0.999912540237
1576080621601491861,,,0,,1576080621,601377445,"""world""","""hoverOpti/base_link""",,,1.30101382732,0.0221135132015,0.567323625088,,0.00376835699857,0.0103257848387,-0.00781500435948,0.999909047544
1576080621621489377,,,0,,1576080621,621376714,"""world""","""hoverOpti/base_link""",,,1.30104959011,0.0221086647362,0.567349135876,,0.00312444621592,0.0101121090782,-0.00773681427934,0.999914058702
1576080621641693366,,,0,,1576080621,641597134,"""world""","""hoverOpti/base_link""",,,1.30101907253,0.0221082381904,0.567322790623,,0.00376373893734,0.0103754494966,-0.00786170577001,0.999908184735
1576080621668934316,,,0,,1576080621,668839544,"""world""","""hoverOpti/base_link""",,,1.30102932453,0.022141084075,0.567330181599,,0.00336642656101,0.0103447262379,-0.00748007505721,0.999912847346
1576080621682991871,,,0,,1576080621,682887154,"""world""","""hoverOpti/base_link""",,,1.30103290081,0.0221468955278,0.567328751087,,0.00343449530212,0.0103302116028,-0.00745286555771,0.999912969095
1576080621701740753,,,0,,1576080621,701638155,"""world""","""hoverOpti/base_link""",,,1.30102956295,0.0221377070993,0.567331671715,,0.00342085521589,0.0103551281703,-0.0075087017862,0.999912340392
1576080621721616697,,,0,,1576080621,721521975,"""world""","""hoverOpti/base_link""",,,1.3010314703,0.0221467707306,0.567334651947,,0.00335371228232,0.01033822137,-0.00748934527997,0.999912887956
1576080621741573075,,,0,,1576080621,741463339,"""world""","""hoverOpti/base_link""",,,1.30098617077,0.0220873914659,0.567333996296,,0.00410170974418,0.0101749631664,-0.00766682683521,0.999910428923
1576080621761530850,,,0,,1576080621,761438431,"""world""","""hoverOpti/base_link""",,,1.30103051662,0.0221294444054,0.567327141762,,0.00362334068371,0.0103553112721,-0.00709738756725,0.999914629366
1576080621781628576,,,0,,1576080621,781548779,"""world""","""hoverOpti/base_link""",,,1.30099284649,0.0220742709935,0.567323327065,,0.00408980978989,0.0102005634085,-0.00771612643004,0.999909837613
1576080621801444010,,,0,,1576080621,801353944,"""world""","""hoverOpti/base_link""",,,1.30102837086,0.0221465397626,0.567321538925,,0.00340995211399,0.0103760732858,-0.00748098771654,0.999912368237
1576080621821377389,,,0,,1576080621,821285456,"""world""","""hoverOpti/base_link""",,,1.3010263443,0.0221496913582,0.567317962646,,0.00332336727391,0.0103977313502,-0.00729842234025,0.999913784005
1576080621841432128,,,0,,1576080621,841313979,"""world""","""hoverOpti/base_link""",,,1.30100977421,0.0221140049398,0.567318677902,,0.00375686681126,0.0103052808545,-0.00779401841254,0.999909466109
1576080621861476343,,,0,,1576080621,861398133,"""world""","""hoverOpti/base_link""",,,1.30101132393,0.0221261214465,0.567321956158,,0.00377506182717,0.0102471747061,-0.00726257967051,0.999913995929
1576080621882188030,,,0,,1576080621,882114450,"""world""","""hoverOpti/base_link""",,,1.30099713802,0.0220838468522,0.567324101925,,0.0041142440087,0.0102225892877,-0.00774987111624,0.999909251463
1576080621901419636,,,0,,1576080621,901315751,"""world""","""hoverOpti/base_link""",,,1.30098748207,0.0220808424056,0.567317247391,,0.00408067325441,0.0102701213683,-0.00781402655461,0.999908402656
1576080621921470212,,,0,,1576080621,921340206,"""world""","""hoverOpti/base_link""",,,1.30102527142,0.0221397131681,0.56732326746,,0.00340157396957,0.0103779844615,-0.00754430701455,0.999911901202
1576080621941660605,,,0,,1576080621,941574558,"""world""","""hoverOpti/base_link""",,,1.30100345612,0.0221213605255,0.567319750786,,0.0037745250203,0.0102077312762,-0.00734763432275,0.99991378001
1576080621961463642,,,0,,1576080621,961370324,"""world""","""hoverOpti/base_link""",,,1.301004529,0.0221150331199,0.567322611809,,0.00373930022705,0.010211444873,-0.00737923392836,0.999913641738
1576080621982508407,,,0,,1576080621,982415038,"""world""","""hoverOpti/base_link""",,,1.30100917816,0.0221058968455,0.567310869694,,0.0037198283631,0.0103563471844,-0.00781990037054,0.999908874902
1576080622001445387,,,0,,1576080622,1341138,"""world""","""hoverOpti/base_link""",,,1.30100393295,0.0221088919789,0.567308306694,,0.00376938721586,0.0103558666894,-0.00799602304884,0.999907301384
1576080622022853809,,,0,,1576080622,21464191,"""world""","""hoverOpti/base_link""",,,1.30102527142,0.0221424084157,0.567322611809,,0.0033917889159,0.0103140117935,-0.00757877961231,0.999912335672
1576080622045287780,,,0,,1576080622,45180850,"""world""","""hoverOpti/base_link""",,,1.30099833012,0.0221212171018,0.567307889462,,0.0037733396675,0.0104088323503,-0.00787471581507,0.999907699224
1576080622061499306,,,0,,1576080622,61383723,"""world""","""hoverOpti/base_link""",,,1.301009655,0.0221717171371,0.567306637764,,0.00311924862823,0.0102252623756,-0.0075520625403,0.999914336655
1576080622081550930,,,0,,1576080622,81447562,"""world""","""hoverOpti/base_link""",,,1.30101263523,0.0221400242299,0.567323863506,,0.00349860340218,0.0103152069664,-0.00743298381852,0.999913049735
1576080622101454217,,,0,,1576080622,101377172,"""world""","""hoverOpti/base_link""",,,1.30102515221,0.0221502147615,0.567320823669,,0.003393333591,0.0103750332082,-0.00755468693642,0.999911881457
1576080622121533460,,,0,,1576080622,121421540,"""world""","""hoverOpti/base_link""",,,1.30104470253,0.0221599210054,0.567311525345,,0.00330601097599,0.0105341060283,-0.00720562363709,0.999913087168
1576080622141483956,,,0,,1576080622,141403422,"""world""","""hoverOpti/base_link""",,,1.30101203918,0.0221054442227,0.567310452461,,0.00372252605096,0.010362112018,-0.00796655963763,0.999907647416
1576080622161708930,,,0,,1576080622,161301380,"""world""","""hoverOpti/base_link""",,,1.30100572109,0.0221189893782,0.567301332951,,0.00378788037976,0.0103606950092,-0.007848812886,0.999908347849
1576080622181417865,,,0,,1576080622,181328544,"""world""","""hoverOpti/base_link""",,,1.30100703239,0.0221113972366,0.567313611507,,0.00387319427324,0.01031998901,-0.00784257507478,0.999908490918
1576080622201540209,,,0,,1576080622,201463912,"""world""","""hoverOpti/base_link""",,,1.3010289669,0.0221504773945,0.567313313484,,0.00349043369374,0.0103696751716,-0.00738351628213,0.999912881404
1576080622222001226,,,0,,1576080622,221919321,"""world""","""hoverOpti/base_link""",,,1.30100893974,0.0221185106784,0.567326307297,,0.00370514354556,0.0101485993326,-0.00724635756083,0.999915380492
1576080622241398524,,,0,,1576080622,241295035,"""world""","""hoverOpti/base_link""",,,1.30102443695,0.0221449919045,0.567317962646,,0.00344052756948,0.0103551964671,-0.00741173110203,0.999912995674
1576080622261427453,,,0,,1576080622,261319476,"""world""","""hoverOpti/base_link""",,,1.30099284649,0.0220732036978,0.567321181297,,0.00408865558998,0.0101798977955,-0.00779219672154,0.999909463025
1576080622281560444,,,0,,1576080622,281479147,"""world""","""hoverOpti/base_link""",,,1.30103445053,0.0221449136734,0.567319214344,,0.00346809904442,0.0103394239968,-0.0074556511702,0.999912737126
1576080622301453814,,,0,,1576080622,301356934,"""world""","""hoverOpti/base_link""",,,1.30102849007,0.0221393611282,0.567318737507,,0.00341172734205,0.0103826965306,-0.00746714523822,0.999912396898
1576080622321470835,,,0,,1576080622,321298687,"""world""","""hoverOpti/base_link""",,,1.30103027821,0.0221347771585,0.567315101624,,0.00340995194802,0.0103265345785,-0.00744324974092,0.999913162702
1576080622341320567,,,0,,1576080622,341236303,"""world""","""hoverOpti/base_link""",,,1.30104708672,0.0221093650907,0.567344486713,,0.00313822129082,0.010097619005,-0.00774537295459,0.999914095738
1576080622361740082,,,0,,1576080622,361624578,"""world""","""hoverOpti/base_link""",,,1.30103027821,0.0221415385604,0.567314565182,,0.00354651300561,0.0103381786635,-0.00744256390902,0.999912572453
1576080622381647797,,,0,,1576080622,381543524,"""world""","""hoverOpti/base_link""",,,1.30102157593,0.0221128128469,0.567307770252,,0.00378506230489,0.0103659976154,-0.00781696325826,0.99990855306
1576080622401732574,,,0,,1576080622,401633111,"""world""","""hoverOpti/base_link""",,,1.30103397369,0.0221446156502,0.567318737507,,0.00338952856739,0.0103416761977,-0.00740514201006,0.999913358597
1576080622421433874,,,0,,1576080622,421339250,"""world""","""hoverOpti/base_link""",,,1.30104196072,0.0221393108368,0.567317962646,,0.00341228552731,0.0103829391719,-0.00736772624985,0.999913129973
1576080622441506061,,,0,,1576080622,441427272,"""world""","""hoverOpti/base_link""",,,1.30103194714,0.022138107568,0.567315757275,,0.00336193664167,0.0103219039218,-0.00741699147956,0.999913568224
1576080622461578731,,,0,,1576080622,461482888,"""world""","""hoverOpti/base_link""",,,1.3010212183,0.0221067387611,0.567325174809,,0.00371875821,0.0102212344547,-0.00726419496171,0.999914460679
1576080622481431476,,,0,,1576080622,481321853,"""world""","""hoverOpti/base_link""",,,1.30101454258,0.0221074707806,0.56733071804,,0.00372018713994,0.0102607592755,-0.00731286085977,0.999913695822
1576080622502250261,,,0,,1576080622,502153031,"""world""","""hoverOpti/base_link""",,,1.30099654198,0.0220828782767,0.567315399647,,0.00405005746273,0.0101862859164,-0.00783223860794,0.999909242208
1576080622521563306,,,0,,1576080622,521484284,"""world""","""hoverOpti/base_link""",,,1.30101835728,0.0221091751009,0.567337632179,,0.0035755891763,0.0102602007761,-0.00728399938358,0.999914439737
1576080622541507007,,,0,,1576080622,541415708,"""world""","""hoverOpti/base_link""",,,1.30102193356,0.022105563432,0.567319095135,,0.00379273543915,0.010387861893,-0.00802624395796,0.999906639087
1576080622561376431,,,0,,1576080622,561277852,"""world""","""hoverOpti/base_link""",,,1.30100417137,0.0220798086375,0.567322909832,,0.00410182653348,0.010173091912,-0.00771862915028,0.999910048946
1576080622581458307,,,0,,1576080622,581373524,"""world""","""hoverOpti/base_link""",,,1.30103361607,0.0221488531679,0.567321538925,,0.00337302792417,0.0103719706741,-0.00732020316213,0.999913726045
1576080622601451752,,,0,,1576080622,601373729,"""world""","""hoverOpti/base_link""",,,1.30103468895,0.0221334118396,0.567318558693,,0.00340235945407,0.0104223980399,-0.00740580938186,0.999912471948
1576080622621464346,,,0,,1576080622,621327500,"""world""","""hoverOpti/base_link""",,,1.30101799965,0.0221040137112,0.567333996296,,0.00376519809017,0.0102091001064,-0.00730840473913,0.999914088699
1576080622641460842,,,0,,1576080622,641340102,"""world""","""hoverOpti/base_link""",,,1.30101144314,0.0221078749746,0.567322909832,,0.00377042329019,0.0102047660726,-0.00724601315957,0.999914567326
1576080622661405869,,,0,,1576080622,661286759,"""world""","""hoverOpti/base_link""",,,1.300999403,0.0220810566097,0.56732583046,,0.0041138318313,0.0101636149841,-0.00776821850922,0.999909711974
1576080622681404254,,,0,,1576080622,681305979,"""world""","""hoverOpti/base_link""",,,1.30100619793,0.0221073105931,0.567326366901,,0.00371023421272,0.0102765020294,-0.00728373771061,0.9999137837
1576080622701426382,,,0,,1576080622,701334470,"""world""","""hoverOpti/base_link""",,,1.30101406574,0.0221070051193,0.567333221436,,0.00361723013966,0.0101988251387,-0.00724621822694,0.99991519237
1576080622721374766,,,0,,1576080622,721273035,"""world""","""hoverOpti/base_link""",,,1.30103349686,0.0221329908818,0.567317903042,,0.00341838339455,0.0103491276092,-0.00737878717314,0.999913378105
1576080622741375616,,,0,,1576080622,741286448,"""world""","""hoverOpti/base_link""",,,1.30103075504,0.0221361946315,0.567329347134,,0.00334388343559,0.0103504892664,-0.00741011457946,0.999913384258
1576080622761586420,,,0,,1576080622,761506152,"""world""","""hoverOpti/base_link""",,,1.30103194714,0.0221406947821,0.567324340343,,0.00339021753158,0.0103530292964,-0.00738944130614,0.99991335493
1576080622781478503,,,0,,1576080622,781377959,"""world""","""hoverOpti/base_link""",,,1.30101430416,0.0221624877304,0.567311882973,,0.00316989386771,0.0102264504801,-0.0075643287952,0.999914072515
1576080622801495889,,,0,,1576080622,801416855,"""world""","""hoverOpti/base_link""",,,1.30103802681,0.0221434924752,0.56732493639,,0.00333182591768,0.0103088594033,-0.00736557239862,0.999914183666
1576080622821461466,,,0,,1576080622,821371413,"""world""","""hoverOpti/base_link""",,,1.301040411,0.0221500005573,0.567321419716,,0.0034413373198,0.010361220858,-0.00735474110567,0.999913351288
1576080622841387842,,,0,,1576080622,841298515,"""world""","""hoverOpti/base_link""",,,1.30100810528,0.0220785494894,0.567313313484,,0.00411334540045,0.0102522792133,-0.00774587782738,0.999908982126
1576080622861585928,,,0,,1576080622,861505018,"""world""","""hoverOpti/base_link""",,,1.30100154877,0.0220773257315,0.567319095135,,0.00419173388907,0.0102381910942,-0.00778398056023,0.999908505043
1576080622881510756,,,0,,1576080622,881425218,"""world""","""hoverOpti/base_link""",,,1.30100631714,0.0220816899091,0.567321300507,,0.00411657458143,0.010218174665,-0.00764806301133,0.999910070883
1576080622901446189,,,0,,1576080622,901345802,"""world""","""hoverOpti/base_link""",,,1.30104029179,0.0221329256892,0.567321062088,,0.00336828409632,0.0103986833775,-0.00746765636506,0.999912374238
1576080622922018309,,,0,,1576080622,921944527,"""world""","""hoverOpti/base_link""",,,1.30103230476,0.0221419949085,0.567314326763,,0.0034376669518,0.0103472211396,-0.00744149840597,0.999912866985
1576080622941438206,,,0,,1576080622,941359467,"""world""","""hoverOpti/base_link""",,,1.30099594593,0.0220753420144,0.567316710949,,0.00413029627472,0.0102677639958,-0.0076893598133,0.999909189587
1576080622961445628,,,0,,1576080622,961343983,"""world""","""hoverOpti/base_link""",,,1.30100774765,0.0221188794822,0.567317426205,,0.00376682689908,0.0102416468339,-0.00725638464349,0.999914128597
1576080622981485594,,,0,,1576080622,981381239,"""world""","""hoverOpti/base_link""",,,1.30102050304,0.0221089534461,0.567307412624,,0.00373917588344,0.0104106714919,-0.00787613218989,0.999907797262
1576080623001529343,,,0,,1576080623,1441005,"""world""","""hoverOpti/base_link""",,,1.30101191998,0.0221061334014,0.567317783833,,0.0037898616893,0.0102417686325,-0.00734499191983,0.999913393358
1576080623021551691,,,0,,1576080623,21374637,"""world""","""hoverOpti/base_link""",,,1.30103135109,0.0221483949572,0.567317128181,,0.00344148786517,0.01041479792,-0.00739721196848,0.999912480871
1576080623041458926,,,0,,1576080623,41342222,"""world""","""hoverOpti/base_link""",,,1.30103588104,0.022135514766,0.567320287228,,0.00344004523374,0.0103748355348,-0.00738899351987,0.999912962038
1576080623061375828,,,0,,1576080623,61275982,"""world""","""hoverOpti/base_link""",,,1.30102086067,0.0221049878746,0.567325592041,,0.00368145118336,0.0102043418289,-0.00722882312008,0.999915027611
1576080623081605428,,,0,,1576080623,81515113,"""world""","""hoverOpti/base_link""",,,1.30103611946,0.0221307333559,0.56732404232,,0.00340179445037,0.0103013729057,-0.00736301248187,0.999914044085
1576080623101789231,,,0,,1576080623,101685388,"""world""","""hoverOpti/base_link""",,,1.30100953579,0.0221179910004,0.567327857018,,0.00376311346172,0.01021091842,-0.00726922985199,0.999914363543
1576080623121450035,,,0,,1576080623,121371567,"""world""","""hoverOpti/base_link""",,,1.30102241039,0.0221085865051,0.567318499088,,0.00379159273505,0.0103676209017,-0.00795539223483,0.999907419712
1576080623141470601,,,0,,1576080623,141384800,"""world""","""hoverOpti/base_link""",,,1.30102050304,0.0221039038152,0.567309260368,,0.00390100651122,0.0103931227623,-0.00788670656296,0.999907278205
1576080623161446312,,,0,,1576080623,161372171,"""world""","""hoverOpti/base_link""",,,1.30103421211,0.0221389811486,0.567321419716,,0.00341042640385,0.010339884221,-0.00739557006151,0.999913376913
1576080623181411276,,,0,,1576080623,181321610,"""world""","""hoverOpti/base_link""",,,1.30101561546,0.0221010707319,0.567312777042,,0.00373970117593,0.010340869586,-0.00788335793689,0.99990846267
1576080623201408341,,,0,,1576080623,201315964,"""world""","""hoverOpti/base_link""",,,1.30101704597,0.0220995303243,0.567306816578,,0.00375759106715,0.0103696732076,-0.00795405718045,0.999907537406
1576080623221339057,,,0,,1576080623,221257864,"""world""","""hoverOpti/base_link""",,,1.30101752281,0.0221136361361,0.567310333252,,0.00384164242215,0.0104284677905,-0.00797333405908,0.999906453018
1576080623241288198,,,0,,1576080623,241212877,"""world""","""hoverOpti/base_link""",,,1.30103850365,0.022144569084,0.567325055599,,0.00348649348002,0.0103457298765,-0.00729004591938,0.999913829021
1576080623267033966,,,0,,1576080623,266951404,"""world""","""hoverOpti/base_link""",,,1.30100679398,0.0221142005175,0.567330896854,,0.00367114381113,0.0101808356445,-0.00722500431816,0.999915332716
1576080623281348729,,,0,,1576080623,281251934,"""world""","""hoverOpti/base_link""",,,1.3010340929,0.0221464000642,0.567321240902,,0.00344288904583,0.0103777906775,-0.00745508440009,0.999912431012
1576080623301405638,,,0,,1576080623,301316755,"""world""","""hoverOpti/base_link""",,,1.30102968216,0.0221391711384,0.567322075367,,0.00336562066011,0.0103890427781,-0.00744450028545,0.999912656087
1576080623321486083,,,0,,1576080623,321365596,"""world""","""hoverOpti/base_link""",,,1.30100500584,0.022114675492,0.567326903343,,0.00372430168442,0.0102031699108,-0.00736000293292,0.999913923924
1576080623341337314,,,0,,1576080623,341235451,"""world""","""hoverOpti/base_link""",,,1.30102920532,0.0221429951489,0.567321717739,,0.00344306253627,0.0104062978531,-0.00736661810474,0.999912789809
1576080623361634999,,,0,,1576080623,361547115,"""world""","""hoverOpti/base_link""",,,1.300999403,0.0220737121999,0.567317962646,,0.00408121169119,0.010233284171,-0.0077431946091,0.999909329161
1576080623381815558,,,0,,1576080623,381714857,"""world""","""hoverOpti/base_link""",,,1.30103433132,0.0221270080656,0.567320823669,,0.00341292853982,0.01038222815,-0.00747426339007,0.99991234448
1576080623402164501,,,0,,1576080623,402074327,"""world""","""hoverOpti/base_link""",,,1.30103480816,0.0221349094063,0.567320346832,,0.00344932331539,0.0103617411801,-0.00729708458449,0.999913740802
1576080623423712298,,,0,,1576080623,423631279,"""world""","""hoverOpti/base_link""",,,1.30102145672,0.022095259279,0.567308545113,,0.00381161350944,0.0103831417576,-0.00790601193188,0.999907574201
1576080623441452783,,,0,,1576080623,441373874,"""world""","""hoverOpti/base_link""",,,1.30103671551,0.0221365671605,0.567320585251,,0.00335421456118,0.010399050898,-0.00748196562103,0.999912310743
1576080623461398717,,,0,,1576080623,461322269,"""world""","""hoverOpti/base_link""",,,1.30100512505,0.0221026353538,0.567324340343,,0.00375941716531,0.0102897483512,-0.00730362339506,0.999913318717
1576080623481710248,,,0,,1576080623,481569338,"""world""","""hoverOpti/base_link""",,,1.30100238323,0.0220797043294,0.567325294018,,0.00411313685385,0.0102374040748,-0.00770875223912,0.999909422299
1576080623501368258,,,0,,1576080623,501294232,"""world""","""hoverOpti/base_link""",,,1.30103135109,0.0221465807408,0.567322909832,,0.00335930764761,0.0103315895741,-0.00745824739187,0.999913170158
1576080623521367295,,,0,,1576080623,521292474,"""world""","""hoverOpti/base_link""",,,1.30103158951,0.022152453661,0.567322790623,,0.00345436133257,0.0103408007097,-0.00750120443388,0.999912429746
1576080623541431227,,,0,,1576080623,541314166,"""world""","""hoverOpti/base_link""",,,1.30101323128,0.0221165399998,0.567331910133,,0.00365768422435,0.0102625098881,-0.00726783560676,0.999914236724
1576080623561341507,,,0,,1576080623,561241524,"""world""","""hoverOpti/base_link""",,,1.30102944374,0.0221389774233,0.567320883274,,0.00346509236719,0.010389640738,-0.00753693294439,0.999911617665
1576080623581499513,,,0,,1576080623,581386083,"""world""","""hoverOpti/base_link""",,,1.30103635788,0.0221215318888,0.567317724228,,0.00371491329664,0.0103801986043,-0.00704412030169,0.99991441197
1576080623601329053,,,0,,1576080623,601242361,"""world""","""hoverOpti/base_link""",,,1.30103754997,0.0221316386014,0.567311763763,,0.00351625070852,0.0103741652455,-0.00741918186263,0.999912480379
1576080623621428210,,,0,,1576080623,621306872,"""world""","""hoverOpti/base_link""",,,1.30103123188,0.0221400279552,0.567324995995,,0.00341214791672,0.0104083111671,-0.00745314061301,0.999912233649
1576080623641337452,,,0,,1576080623,641257923,"""world""","""hoverOpti/base_link""",,,1.301019907,0.022106256336,0.567305743694,,0.00388982355046,0.0104071944556,-0.00788463276606,0.999907191765
1576080623661605207,,,0,,1576080623,661510244,"""world""","""hoverOpti/base_link""",,,1.30103397369,0.0221365857869,0.567317724228,,0.00338214578789,0.0104239293208,-0.00737420349311,0.99991275815
1576080623681599009,,,0,,1576080623,681458178,"""world""","""hoverOpti/base_link""",,,1.30103588104,0.0221434570849,0.567321121693,,0.00340419422763,0.0103127948469,-0.00734741696528,0.999914032899
1576080623701378243,,,0,,1576080623,701295251,"""world""","""hoverOpti/base_link""",,,1.3010365963,0.0221416801214,0.567327320576,,0.00339370688572,0.010346911199,-0.0074316831304,0.999913093358
1576080623721462310,,,0,,1576080623,721382176,"""world""","""hoverOpti/base_link""",,,1.30105602741,0.0221573021263,0.567309081554,,0.00333988059622,0.0105495193579,-0.00726720822952,0.999912366422
1576080623741775914,,,0,,1576080623,741659054,"""world""","""hoverOpti/base_link""",,,1.30101299286,0.0221118628979,0.567317485809,,0.0038114413666,0.0103957634547,-0.00786173158362,0.999907792846
1576080623761392296,,,0,,1576080623,761299325,"""world""","""hoverOpti/base_link""",,,1.30102729797,0.022134128958,0.567320525646,,0.0034170232836,0.0103846417666,-0.00739764295218,0.999912875228
1576080623781349769,,,0,,1576080623,781254481,"""world""","""hoverOpti/base_link""",,,1.30101823807,0.0221003536135,0.567311525345,,0.00375846421714,0.0104057369082,-0.00785985770219,0.999907904371
1576080623801387052,,,0,,1576080623,801293563,"""world""","""hoverOpti/base_link""",,,1.30102801323,0.0221364013851,0.567321956158,,0.0035094350271,0.0103531859403,-0.00739571016797,0.999912895645
1576080623821346615,,,0,,1576080623,821245123,"""world""","""hoverOpti/base_link""",,,1.30100893974,0.0221198853105,0.567325532436,,0.0037146824971,0.0102298783152,-0.00730411608687,0.999914096616
1576080623841516655,,,0,,1576080623,841417245,"""world""","""hoverOpti/base_link""",,,1.30103254318,0.0221498887986,0.567321002483,,0.00341030178995,0.0103585477736,-0.00743583381931,0.999912885558
1576080623861525920,,,0,,1576080623,861429145,"""world""","""hoverOpti/base_link""",,,1.30103158951,0.0221409667283,0.567327678204,,0.00336273420648,0.0103537967153,-0.00746494223392,0.99991287898
1576080623881548912,,,0,,1576080623,881441670,"""world""","""hoverOpti/base_link""",,,1.30103206635,0.022142123431,0.567319512367,,0.00343023917674,0.0103831580484,-0.00739518789944,0.999912863546
1576080623901594725,,,0,,1576080623,901506722,"""world""","""hoverOpti/base_link""",,,1.30102038383,0.0221083275974,0.567312836647,,0.00385492605262,0.0103448696599,-0.00800261662193,0.999907036351
1576080623921673466,,,0,,1576080623,921545409,"""world""","""hoverOpti/base_link""",,,1.30104458332,0.0221537053585,0.567312538624,,0.00327414183437,0.0105594482974,-0.0073383268866,0.999911959627
1576080623941351131,,,0,,1576080623,941249857,"""world""","""hoverOpti/base_link""",,,1.30101716518,0.0221163630486,0.567329645157,,0.00377357644225,0.0103339279024,-0.00789045793075,0.999908351165
1576080623961511502,,,0,,1576080623,961416228,"""world""","""hoverOpti/base_link""",,,1.30104613304,0.0221052020788,0.567348837852,,0.00303930981201,0.0100945552843,-0.00772299399193,0.999914605311
1576080623981552321,,,0,,1576080623,981455483,"""world""","""hoverOpti/base_link""",,,1.3010314703,0.0221392177045,0.567327558994,,0.00346923088652,0.0103309304908,-0.0074007218765,0.999913229049
1576080624001414797,,,0,,1576080624,1320821,"""world""","""hoverOpti/base_link""",,,1.30100142956,0.0221157297492,0.567334353924,,0.00379246394912,0.0101967731054,-0.00733613858222,0.999913908347
1576080624021336476,,,0,,1576080624,21210967,"""world""","""hoverOpti/base_link""",,,1.30100345612,0.0220520887524,0.567352771759,,0.00368357853084,0.00996896581855,-0.00809845573032,0.999910729008
1576080624041579053,,,0,,1576080624,41457639,"""world""","""hoverOpti/base_link""",,,1.30103683472,0.0221395585686,0.567319989204,,0.00342916528944,0.0103444092228,-0.00746859691586,0.999912723233
1576080624065731926,,,0,,1576080624,65621722,"""world""","""hoverOpti/base_link""",,,1.30101728439,0.0221106056124,0.5673173666,,0.00386747141028,0.0103612366607,-0.00786321714012,0.999907924389
1576080624081383304,,,0,,1576080624,81285584,"""world""","""hoverOpti/base_link""",,,1.30099928379,0.0220788884908,0.567320108414,,0.00419716670756,0.0101957980963,-0.00781524729097,0.999908671531
1576080624101460087,,,0,,1576080624,101347533,"""world""","""hoverOpti/base_link""",,,1.30099380016,0.022072924301,0.567326188087,,0.00406271823735,0.0102123031172,-0.0077869002539,0.99990927957
1576080624121379549,,,0,,1576080624,121270593,"""world""","""hoverOpti/base_link""",,,1.30100357533,0.0220871847123,0.567331194878,,0.00397982774495,0.0101871853744,-0.00767781213298,0.999910712727
1576080624141459781,,,0,,1576080624,141374934,"""world""","""hoverOpti/base_link""",,,1.300999403,0.0221038162708,0.56733506918,,0.00373769613051,0.0102057103753,-0.00727060934534,0.999914502017
1576080624161600588,,,0,,1576080624,161507854,"""world""","""hoverOpti/base_link""",,,1.30102920532,0.0221420899034,0.567330181599,,0.0034355037202,0.0103277862937,-0.00746154092911,0.999912925985
1576080624181744512,,,0,,1576080624,181637993,"""world""","""hoverOpti/base_link""",,,1.30101728439,0.0221149530262,0.567323982716,,0.00380743533495,0.0103775788897,-0.00783302412537,0.999908222301
1576080624201465776,,,0,,1576080624,201355640,"""world""","""hoverOpti/base_link""",,,1.30103123188,0.0221540220082,0.56733083725,,0.00340089228717,0.0103452646677,-0.00741402109812,0.999913217095
1576080624221335364,,,0,,1576080624,221237501,"""world""","""hoverOpti/base_link""",,,1.30102598667,0.0221390258521,0.567326784134,,0.00333376338273,0.0103679634541,-0.00736072779,0.999913601789
1576080624243154125,,,0,,1576080624,243049087,"""world""","""hoverOpti/base_link""",,,1.30102026463,0.0221100412309,0.567321062088,,0.0037637635128,0.0103988909501,-0.007886710673,0.999907744217
1576080624261351670,,,0,,1576080624,261259013,"""world""","""hoverOpti/base_link""",,,1.30103516579,0.022132832557,0.567322969437,,0.00344611208463,0.0103723982122,-0.00733359050132,0.999913374307
1576080624281405554,,,0,,1576080624,281314157,"""world""","""hoverOpti/base_link""",,,1.30103707314,0.0221450235695,0.567330300808,,0.00336923943955,0.0103560445437,-0.00733085313034,0.999913825867
1576080624301364201,,,0,,1576080624,301268303,"""world""","""hoverOpti/base_link""",,,1.30101680756,0.0221050493419,0.567317605019,,0.00378757351953,0.0103558158392,-0.00787777238223,0.999908171818
1576080624322076370,,,0,,1576080624,321999437,"""world""","""hoverOpti/base_link""",,,1.30101788044,0.0221152752638,0.56731814146,,0.00379974334193,0.0104138819313,-0.00781790417114,0.999907992461
1576080624341976915,,,0,,1576080624,341890437,"""world""","""hoverOpti/base_link""",,,1.30105316639,0.022152395919,0.567316830158,,0.00319023033916,0.010536126003,-0.00731280298129,0.999912663882
1576080624361640062,,,0,,1576080624,361550434,"""world""","""hoverOpti/base_link""",,,1.30101966858,0.0221121739596,0.567317545414,,0.00381618654151,0.0103371372332,-0.0078658039554,0.999908350521
1576080624382699440,,,0,,1576080624,382591987,"""world""","""hoverOpti/base_link""",,,1.30103480816,0.0221350044012,0.567330241203,,0.00337594404748,0.0103806903998,-0.00750287584805,0.999912271713
1576080624418060145,,,0,,1576080624,417970425,"""world""","""hoverOpti/base_link""",,,1.30103731155,0.0221492499113,0.56732749939,,0.00338922342616,0.0103747032836,-0.00738044118235,0.999913200125
1576080624421381424,,,0,,1576080624,421307382,"""world""","""hoverOpti/base_link""",,,1.30102324486,0.0221123415977,0.567318916321,,0.00375351431365,0.0104014930818,-0.00793316878137,0.999907388164
1576080624441988323,,,0,,1576080624,441908528,"""world""","""hoverOpti/base_link""",,,1.30101788044,0.0221092514694,0.567322790623,,0.00382911446838,0.0103802006721,-0.00792363444066,0.999907398379
1576080624461335400,,,0,,1576080624,461256065,"""world""","""hoverOpti/base_link""",,,1.30103719234,0.0221479609609,0.567335426807,,0.00343963777201,0.010366715309,-0.00736860731731,0.999913198099
1576080624483398139,,,0,,1576080624,483302922,"""world""","""hoverOpti/base_link""",,,1.30104541779,0.0221532024443,0.56730812788,,0.00342441005939,0.010547194997,-0.00722001733749,0.999912446889
1576080624501760322,,,0,,1576080624,501675829,"""world""","""hoverOpti/base_link""",,,1.30102980137,0.0221401527524,0.567322731018,,0.00357489566844,0.010352874163,-0.00737807386649,0.99991279727
1576080624521895600,,,0,,1576080624,521768142,"""world""","""hoverOpti/base_link""",,,1.30103218555,0.0221439003944,0.567318618298,,0.00344866803466,0.0104052727718,-0.00747395277743,0.999911984635
1576080624543033590,,,0,,1576080624,542946518,"""world""","""hoverOpti/base_link""",,,1.30102860928,0.0221394114196,0.567320823669,,0.00341217972799,0.0103526667298,-0.00737133313299,0.999913417636
1576080624561835602,,,0,,1576080624,561750929,"""world""","""hoverOpti/base_link""",,,1.3010468483,0.0221579931676,0.56730979681,,0.00330241158409,0.0105700211611,-0.00732033593799,0.999911886824
1576080624581775179,,,0,,1576080624,581674984,"""world""","""hoverOpti/base_link""",,,1.30101370811,0.0220967382193,0.567326366901,,0.00326515943331,0.00993914830082,-0.00837963665561,0.999910162842
1576080624601660466,,,0,,1576080624,601563007,"""world""","""hoverOpti/base_link""",,,1.30103611946,0.0221424549818,0.567305743694,,0.00341779749391,0.0103534568023,-0.00746410359215,0.999912702065
1576080624622026196,,,0,,1576080624,621902098,"""world""","""hoverOpti/base_link""",,,1.30101919174,0.022112108767,0.567315220833,,0.0037388387489,0.0103613604838,-0.00791049290463,0.99990803947
1576080624642071263,,,0,,1576080624,641960173,"""world""","""hoverOpti/base_link""",,,1.30101895332,0.0221080556512,0.567310750484,,0.0037745050761,0.0103419021744,-0.00794383131579,0.999907842611
1576080624661917367,,,0,,1576080624,661840850,"""world""","""hoverOpti/base_link""",,,1.30102884769,0.0221363250166,0.567314982414,,0.00341274796266,0.010342240481,-0.00743924444039,0.999913020645
1576080624681435159,,,0,,1576080624,681333975,"""world""","""hoverOpti/base_link""",,,1.30102038383,0.0221697129309,0.567307472229,,0.00322220453486,0.0101964232304,-0.00750576942899,0.999914653246
1576080624701649098,,,0,,1576080624,701549820,"""world""","""hoverOpti/base_link""",,,1.30101144314,0.0221212524921,0.567323803902,,0.00376270623398,0.0102296594057,-0.00729250079609,0.999914004074
1576080624721917674,,,0,,1576080624,721820927,"""world""","""hoverOpti/base_link""",,,1.30104672909,0.0221484471112,0.567315220833,,0.00347607301069,0.0103625244694,-0.00742848957541,0.99991267246
1576080624743239369,,,0,,1576080624,743161378,"""world""","""hoverOpti/base_link""",,,1.30101120472,0.0221192166209,0.567326426506,,0.00373688894194,0.0102583059786,-0.00729404055673,0.99991379618
1576080624761495503,,,0,,1576080624,761412466,"""world""","""hoverOpti/base_link""",,,1.30103027821,0.0221153888851,0.567317128181,,0.00380502614161,0.010383275531,-0.00793567429713,0.999907362929
1576080624781964221,,,0,,1576080624,781847753,"""world""","""hoverOpti/base_link""",,,1.30098879337,0.0220797583461,0.56732660532,,0.00403321555968,0.010108414411,-0.00772325041341,0.999910948302
1576080624801284929,,,0,,1576080624,801189752,"""world""","""hoverOpti/base_link""",,,1.30101788044,0.0221383832395,0.567321956158,,0.00346953307096,0.0103411276905,-0.00743674068043,0.999912855356
1576080624821862701,,,0,,1576080624,821753625,"""world""","""hoverOpti/base_link""",,,1.3010456562,0.0221582446247,0.56731069088,,0.00331668982246,0.010593339294,-0.0072760410851,0.999911916099
1576080624844711677,,,0,,1576080624,844623900,"""world""","""hoverOpti/base_link""",,,1.30101501942,0.0221125092357,0.567318916321,,0.00384845940147,0.0103603671381,-0.00795628095263,0.999907270574
1576080624861631417,,,0,,1576080624,861557975,"""world""","""hoverOpti/base_link""",,,1.30102002621,0.0221170037985,0.567316830158,,0.00384650486407,0.010333102249,-0.00787000198046,0.999908243024
1576080624882627351,,,0,,1576080624,882535389,"""world""","""hoverOpti/base_link""",,,1.3010314703,0.0221451614052,0.567325234413,,0.00334664651639,0.0103143821385,-0.00731870405255,0.999914421363
1576080624901998867,,,0,,1576080624,901922159,"""world""","""hoverOpti/base_link""",,,1.30102860928,0.0221379008144,0.567326128483,,0.0033549121401,0.0103706204707,-0.00732761431278,0.999913746712
1576080624922787004,,,0,,1576080624,922713163,"""world""","""hoverOpti/base_link""",,,1.30101716518,0.0221060812473,0.567312180996,,0.00394780793904,0.0103321894937,-0.00791619996961,0.999907492947
1576080624941398843,,,0,,1576080624,941322623,"""world""","""hoverOpti/base_link""",,,1.30099439621,0.0220724735409,0.567328810692,,0.00416765463956,0.0102127112742,-0.00771225492921,0.999909422051
1576080624961497496,,,0,,1576080624,961386111,"""world""","""hoverOpti/base_link""",,,1.30101931095,0.0221041422337,0.567327260971,,0.00383501499058,0.0103917969165,-0.00786352528413,0.999907729837
1576080624981310575,,,0,,1576080624,981210912,"""world""","""hoverOpti/base_link""",,,1.30105066299,0.0221370365471,0.567310988903,,0.00333544057519,0.0105591140292,-0.00727747479192,0.9999122053
1576080625007476337,,,0,,1576080625,7382782,"""world""","""hoverOpti/base_link""",,,1.30102646351,0.0221436601132,0.567323386669,,0.00344080735261,0.0103766927856,-0.00730233874844,0.999913576736
1576080625021900313,,,0,,1576080625,21777289,"""world""","""hoverOpti/base_link""",,,1.30103099346,0.0221354365349,0.567321717739,,0.00345671356309,0.010358264464,-0.00739702614234,0.999913016963
1576080625041482775,,,0,,1576080625,41365894,"""world""","""hoverOpti/base_link""",,,1.30101692677,0.0221012346447,0.567320764065,,0.00388318765273,0.0103269591759,-0.00786459910328,0.999908207211
1576080625063024386,,,0,,1576080625,62919848,"""world""","""hoverOpti/base_link""",,,1.30103385448,0.0221437066793,0.567322194576,,0.00337879654985,0.0103556222803,-0.00737251092328,0.99991349171
1576080625081928986,,,0,,1576080625,81822690,"""world""","""hoverOpti/base_link""",,,1.30099248886,0.0220794565976,0.567325353622,,0.00409625107287,0.010186141585,-0.00770046579209,0.999910078994
1576080625101515653,,,0,,1576080625,101418965,"""world""","""hoverOpti/base_link""",,,1.30101287365,0.0221218727529,0.567335665226,,0.00366439644051,0.0102117079408,-0.00727260293093,0.999914697595
1576080625121492673,,,0,,1576080625,121357030,"""world""","""hoverOpti/base_link""",,,1.30102109909,0.0221143215895,0.567320227623,,0.00382987940936,0.0103616797105,-0.00781586198462,0.999908435767
1576080625141859461,,,0,,1576080625,141768985,"""world""","""hoverOpti/base_link""",,,1.30103087425,0.0221458952874,0.567314505577,,0.0034383935464,0.0103245322813,-0.00734775920986,0.999913792243
1576080625161394351,,,0,,1576080625,161280660,"""world""","""hoverOpti/base_link""",,,1.30103099346,0.0221469160169,0.567314088345,,0.00343197307942,0.010362072241,-0.00740038560209,0.999913037875
1576080625183325677,,,0,,1576080625,183238121,"""world""","""hoverOpti/base_link""",,,1.30102789402,0.0221372637898,0.567323386669,,0.00344699394652,0.0103886362196,-0.00735369431218,0.999913055045
1576080625201867362,,,0,,1576080625,201774566,"""world""","""hoverOpti/base_link""",,,1.301019907,0.0221168510616,0.567312240601,,0.00394735106769,0.0103311788579,-0.00797956704106,0.999907001512
1576080625221726590,,,0,,1576080625,221636340,"""world""","""hoverOpti/base_link""",,,1.30103325844,0.0221503637731,0.567331910133,,0.00333482723236,0.0103740542408,-0.00739687582942,0.999913268316
1576080625241545958,,,0,,1576080625,241456608,"""world""","""hoverOpti/base_link""",,,1.30101513863,0.0221217218786,0.567328393459,,0.00375829222491,0.0102264873055,-0.00715927974579,0.999915015844
1576080625261375355,,,0,,1576080625,261299119,"""world""","""hoverOpti/base_link""",,,1.30103886127,0.0221412461251,0.567318379879,,0.00349440746876,0.0103761713087,-0.00746678082037,0.999912181829
1576080625281270633,,,0,,1576080625,281184392,"""world""","""hoverOpti/base_link""",,,1.30104255676,0.0221411958337,0.567319393158,,0.00347128702905,0.0103707373616,-0.00728726164824,0.999913643167
1576080625301551167,,,0,,1576080625,301458995,"""world""","""hoverOpti/base_link""",,,1.30103313923,0.0221501998603,0.567319512367,,0.00355881003036,0.0102987278048,-0.00735915949693,0.999913553188
1576080625321480974,,,0,,1576080625,321392131,"""world""","""hoverOpti/base_link""",,,1.30102038383,0.0221142247319,0.567324757576,,0.00380225338476,0.0103648372709,-0.00779384836192,0.999908680303
1576080625341286552,,,0,,1576080625,341193236,"""world""","""hoverOpti/base_link""",,,1.30103909969,0.0221392028034,0.567331075668,,0.00339424234955,0.0103802849988,-0.00738660934747,0.999913079625
1576080625361274230,,,0,,1576080625,361182869,"""world""","""hoverOpti/base_link""",,,1.30103182793,0.0221423935145,0.567319631577,,0.00350054063414,0.0103441715814,-0.00742972666114,0.999912767941
1576080625381331474,,,0,,1576080625,381247462,"""world""","""hoverOpti/base_link""",,,1.30103671551,0.0221464317292,0.567323923111,,0.00342192898991,0.010336773541,-0.00742348847419,0.999913162896
1576080625401416730,,,0,,1576080625,401332606,"""world""","""hoverOpti/base_link""",,,1.30103623867,0.0221299547702,0.567318916321,,0.00367857381283,0.0104171954554,-0.00710893806456,0.999913702843
1576080625421346909,,,0,,1576080625,421232011,"""world""","""hoverOpti/base_link""",,,1.30102396011,0.0221050158143,0.567314088345,,0.00377701543237,0.0103894995025,-0.00780534265434,0.999908430348
1576080625441339206,,,0,,1576080625,441257819,"""world""","""hoverOpti/base_link""",,,1.30104136467,0.0220862030983,0.567348778248,,0.00334746415573,0.00998906819964,-0.00755650128897,0.999915952612
1576080625461310958,,,0,,1576080625,461215334,"""world""","""hoverOpti/base_link""",,,1.30100607872,0.0221222303808,0.567331731319,,0.00369404632489,0.0102402345349,-0.00718996960258,0.999914894356
1576080625481343314,,,0,,1576080625,481245519,"""world""","""hoverOpti/base_link""",,,1.30102062225,0.0221200399101,0.567320227623,,0.00372113634318,0.0103836434252,-0.00788441897949,0.999908080291
1576080625501381587,,,0,,1576080625,501299475,"""world""","""hoverOpti/base_link""",,,1.30103981495,0.022144632414,0.567322850227,,0.00340352223299,0.0103561617409,-0.00741799527946,0.999913065869
1576080625521253697,,,0,,1576080625,521175240,"""world""","""hoverOpti/base_link""",,,1.30101525784,0.0221135877073,0.567318677902,,0.0037682875418,0.0104183990787,-0.00793017155542,0.999907180367
1576080625541325904,,,0,,1576080625,541245300,"""world""","""hoverOpti/base_link""",,,1.30103874207,0.0221428610384,0.56733071804,,0.00338305315905,0.0103415173986,-0.007414511241,0.999913312739
1576080625561438083,,,0,,1576080625,561343655,"""world""","""hoverOpti/base_link""",,,1.3010392189,0.0221387147903,0.567325413227,,0.00338853921474,0.0103246551777,-0.00748742796475,0.999912925069
1576080625581347051,,,0,,1576080625,581259897,"""world""","""hoverOpti/base_link""",,,1.30102193356,0.0221103988588,0.567317843437,,0.00389652614445,0.0103591229521,-0.007971208237,0.999906978421
1576080625601309660,,,0,,1576080625,601234101,"""world""","""hoverOpti/base_link""",,,1.30100131035,0.0220775976777,0.567321121693,,0.00408484223185,0.0101949515493,-0.00776097262528,0.999909568076
1576080625621741471,,,0,,1576080625,621631164,"""world""","""hoverOpti/base_link""",,,1.30103719234,0.0221375543624,0.567317903042,,0.00335915061919,0.0103204308745,-0.00740436648714,0.99991368636
1576080625641311290,,,0,,1576080625,641227620,"""world""","""hoverOpti/base_link""",,,1.30102753639,0.0221054945141,0.567322611809,,0.00372579540745,0.0103302771249,-0.00785736432083,0.999908828668
1576080625671006456,,,0,,1576080625,670910403,"""world""","""hoverOpti/base_link""",,,1.30102264881,0.0220988634974,0.567320525646,,0.00381011548641,0.0104192718041,-0.00794942506558,0.999906859881
1576080625681423110,,,0,,1576080625,681330877,"""world""","""hoverOpti/base_link""",,,1.3010571003,0.022150920704,0.56731069088,,0.0033393538321,0.0105801146504,-0.0072338764821,0.999912286614
1576080625711355306,,,0,,1576080625,711258252,"""world""","""hoverOpti/base_link""",,,1.30103945732,0.0221362002194,0.567327678204,,0.0033175768004,0.0103797846383,-0.00742914799735,0.999913026975
1576080625721350689,,,0,,1576080625,721238278,"""world""","""hoverOpti/base_link""",,,1.30103433132,0.0221228692681,0.567307949066,,0.00360651407575,0.0104523266491,-0.00709636510535,0.999913688038
1576080625741565575,,,0,,1576080625,741435791,"""world""","""hoverOpti/base_link""",,,1.30100154877,0.0220846645534,0.567320108414,,0.00407383876192,0.0102217403779,-0.00772809294922,0.999909594134
1576080625761260008,,,0,,1576080625,761181107,"""world""","""hoverOpti/base_link""",,,1.30101799965,0.0221009366214,0.567320406437,,0.0037515694556,0.0102267529821,-0.00731978199536,0.999913876312
1576080625784084496,,,0,,1576080625,783983295,"""world""","""hoverOpti/base_link""",,,1.30101764202,0.0221049580723,0.567327022552,,0.00381251668062,0.010239462961,-0.00720148789175,0.999914374678
1576080625801376149,,,0,,1576080625,801280353,"""world""","""hoverOpti/base_link""",,,1.30103027821,0.0221436712891,0.567317962646,,0.00333039294411,0.0103657234712,-0.0073308477902,0.999913855755
1576080625821340692,,,0,,1576080625,821254811,"""world""","""hoverOpti/base_link""",,,1.3010327816,0.0221287813038,0.567314326763,,0.00341448750914,0.0103274727084,-0.00743221310541,0.99991321963
1576080625841396594,,,0,,1576080625,841288586,"""world""","""hoverOpti/base_link""",,,1.30102205276,0.0221137087792,0.567317485809,,0.00380586070839,0.010405848273,-0.00786446558853,0.999907687703
1576080625861284463,,,0,,1576080625,861185279,"""world""","""hoverOpti/base_link""",,,1.30102407932,0.0220922473818,0.567317664623,,0.0037952945304,0.0103493881624,-0.00789379974931,0.99990808269
1576080625881455666,,,0,,1576080625,881369730,"""world""","""hoverOpti/base_link""",,,1.30103552341,0.0221284385771,0.567318201065,,0.00341887336095,0.0103872299273,-0.00740906004672,0.999912757489
1576080625901733729,,,0,,1576080625,901653645,"""world""","""hoverOpti/base_link""",,,1.30102729797,0.0221382007003,0.567312777042,,0.00348633810671,0.0103366394639,-0.00740126620997,0.99991310652
1576080625921228463,,,0,,1576080625,921141915,"""world""","""hoverOpti/base_link""",,,1.30101776123,0.0221034362912,0.56730902195,,0.00379270391635,0.0103738210262,-0.00797296466657,0.999907211229
1576080625941434263,,,0,,1576080625,941356941,"""world""","""hoverOpti/base_link""",,,1.30105304718,0.0221572034061,0.567303836346,,0.00334574425402,0.0105411495264,-0.00724031923536,0.999912630153
1576080625961368971,,,0,,1576080625,961279082,"""world""","""hoverOpti/base_link""",,,1.30104982853,0.022104807198,0.567341864109,,0.00304925173914,0.010084145315,-0.00774005910449,0.99991454813
1576080625983629550,,,0,,1576080625,983553837,"""world""","""hoverOpti/base_link""",,,1.3010276556,0.0221409965307,0.567325115204,,0.00339438266642,0.0103327919643,-0.00738370577554,0.9999135925
1576080626001484977,,,0,,1576080626,1376801,"""world""","""hoverOpti/base_link""",,,1.30102455616,0.0221411921084,0.567311942577,,0.00358340686733,0.0103478361826,-0.00749909005647,0.999911918686
1576080626021309232,,,0,,1576080626,21230630,"""world""","""hoverOpti/base_link""",,,1.30102705956,0.0221267286688,0.56732326746,,0.00345368316708,0.0103517902921,-0.00745066035226,0.999912696274
1576080626041584556,,,0,,1576080626,41456357,"""world""","""hoverOpti/base_link""",,,1.30102515221,0.0221425313503,0.567323863506,,0.00346522902336,0.0104157472918,-0.00757151062896,0.999911084358
1576080626061339604,,,0,,1576080626,61249463,"""world""","""hoverOpti/base_link""",,,1.30102336407,0.0221008379012,0.567317426205,,0.00380939371629,0.0103210626294,-0.00787476050196,0.999908471978
1576080626081395078,,,0,,1576080626,81282286,"""world""","""hoverOpti/base_link""",,,1.30101597309,0.0221056956798,0.567327320576,,0.00370355735135,0.0103666885685,-0.0078863662756,0.999908306125
1576080626101333169,,,0,,1576080626,101228546,"""world""","""hoverOpti/base_link""",,,1.30101847649,0.0221102051437,0.567320227623,,0.00374961216837,0.0103619869318,-0.00792368110979,0.999907888214
1576080626121322631,,,0,,1576080626,121218687,"""world""","""hoverOpti/base_link""",,,1.30101597309,0.0221091639251,0.567320644855,,0.00388092140288,0.0103449197513,-0.00787604343226,0.999907940275
1576080626141303979,,,0,,1576080626,141214097,"""world""","""hoverOpti/base_link""",,,1.30104136467,0.0221445783973,0.567330181599,,0.0034152220816,0.0103522512251,-0.00738035429318,0.999913345007
1576080626161445730,,,0,,1576080626,161369391,"""world""","""hoverOpti/base_link""",,,1.30104899406,0.0221061334014,0.56734418869,,0.00320979616295,0.0100980900633,-0.00779466072545,0.999913480782
1576080626181595828,,,0,,1576080626,181514666,"""world""","""hoverOpti/base_link""",,,1.30103266239,0.0221391823143,0.567325532436,,0.00338810340874,0.0103410943349,-0.00736758917479,0.999913646848
1576080626201403317,,,0,,1576080626,201329522,"""world""","""hoverOpti/base_link""",,,1.30102610588,0.0221388395876,0.56732404232,,0.00341712731448,0.0103082210261,-0.0074895504247,0.999912981441
1576080626221264651,,,0,,1576080626,221180868,"""world""","""hoverOpti/base_link""",,,1.30102002621,0.0221113506705,0.567321956158,,0.00376187909472,0.0103887764563,-0.00796503837441,0.999907235574
1576080626241305796,,,0,,1576080626,241232067,"""world""","""hoverOpti/base_link""",,,1.30101954937,0.0221007838845,0.567314863205,,0.00379541383697,0.0103233408622,-0.00794751021308,0.999907926036
1576080626261436285,,,0,,1576080626,261362686,"""world""","""hoverOpti/base_link""",,,1.30100274086,0.0221393946558,0.56730401516,,0.00353505501617,0.0102180333544,-0.00802039338347,0.999909380129
1576080626281403371,,,0,,1576080626,281270799,"""world""","""hoverOpti/base_link""",,,1.30102586746,0.0221526082605,0.567324221134,,0.0034657356438,0.0103861505024,-0.00739712094109,0.999912695767
1576080626301422018,,,0,,1576080626,301324887,"""world""","""hoverOpti/base_link""",,,1.30101954937,0.0221129953861,0.567312836647,,0.00381793982598,0.0103437740267,-0.00789174702033,0.999908070776
1576080626321490468,,,0,,1576080626,321372833,"""world""","""hoverOpti/base_link""",,,1.30102181435,0.0221335124224,0.567331314087,,0.00341454981547,0.010331669673,-0.00743685093202,0.999913141578
1576080626341294287,,,0,,1576080626,341192606,"""world""","""hoverOpti/base_link""",,,1.30101418495,0.0221093446016,0.567321121693,,0.00382060302808,0.0103864160914,-0.00782395016124,0.99990815136
1576080626361393411,,,0,,1576080626,361307931,"""world""","""hoverOpti/base_link""",,,1.30101048946,0.0221641305834,0.567312717438,,0.00312738511794,0.0102175241548,-0.00764775673724,0.999913663013
1576080626381260016,,,0,,1576080626,381150858,"""world""","""hoverOpti/base_link""",,,1.30101394653,0.0221123546362,0.567317903042,,0.00373339651249,0.0103247481841,-0.00794006694078,0.999908204118
1576080626401355266,,,0,,1576080626,401276576,"""world""","""hoverOpti/base_link""",,,1.30101442337,0.0221088081598,0.567323744297,,0.00374581717573,0.0103652081384,-0.00787890573435,0.999908222868
1576080626421323361,,,0,,1576080626,421238611,"""world""","""hoverOpti/base_link""",,,1.3010187149,0.0220999903977,0.567312777042,,0.00370862735853,0.0103398888855,-0.00783132958696,0.999908997388
1576080626441228390,,,0,,1576080626,441144506,"""world""","""hoverOpti/base_link""",,,1.30099511147,0.0220828726888,0.567324697971,,0.0041448593602,0.0102410778669,-0.00770949592846,0.999909247951
1576080626461318380,,,0,,1576080626,461231511,"""world""","""hoverOpti/base_link""",,,1.30100953579,0.0221074093133,0.56732738018,,0.00370058947481,0.0102212365259,-0.00718430979469,0.999915105224
1576080626481447996,,,0,,1576080626,481308876,"""world""","""hoverOpti/base_link""",,,1.30104124546,0.0221426803619,0.567311584949,,0.00346698829667,0.0104219107995,-0.00732990229162,0.999912814349
1576080626501622455,,,0,,1576080626,501528669,"""world""","""hoverOpti/base_link""",,,1.30103838444,0.0220650471747,0.567341804504,,0.00341635139644,0.0101315108149,-0.00810934893913,0.999909955692
1576080626521426001,,,0,,1576080626,521347288,"""world""","""hoverOpti/base_link""",,,1.30102300644,0.022113263607,0.567310214043,,0.00379695229795,0.0103883364031,-0.0078642074515,0.99990790569
1576080626541224683,,,0,,1576080626,541145564,"""world""","""hoverOpti/base_link""",,,1.30103552341,0.0221434663981,0.567315578461,,0.0034404842502,0.0103118601285,-0.00735181164538,0.999913886029
1576080626561200454,,,0,,1576080626,561122872,"""world""","""hoverOpti/base_link""",,,1.30104207993,0.0220742933452,0.567333817482,,0.00352489628721,0.0100807763607,-0.0082136589665,0.999909240312
1576080626581355040,,,0,,1576080626,581243350,"""world""","""hoverOpti/base_link""",,,1.30103516579,0.0221315175295,0.567317247391,,0.00340961006013,0.0103592544537,-0.00747358690558,0.999912599133
1576080626601375671,,,0,,1576080626,601262927,"""world""","""hoverOpti/base_link""",,,1.30103230476,0.0221449937671,0.567320585251,,0.00356597084107,0.0103630815654,-0.00732608984443,0.999913105625
1576080626621412306,,,0,,1576080626,621275239,"""world""","""hoverOpti/base_link""",,,1.30102872849,0.0221395455301,0.567321836948,,0.00347847671789,0.0103727374813,-0.00744757086718,0.999912416267
1576080626641408291,,,0,,1576080626,641328299,"""world""","""hoverOpti/base_link""",,,1.30102992058,0.022138286382,0.567310214043,,0.00354426347272,0.0103410722538,-0.00740376426399,0.999912838549
1576080626661445177,,,0,,1576080626,661351122,"""world""","""hoverOpti/base_link""",,,1.30101954937,0.0221617911011,0.567309916019,,0.00319628556877,0.0101267658075,-0.00750900524864,0.99991542003
1576080626681277471,,,0,,1576080626,681184550,"""world""","""hoverOpti/base_link""",,,1.30101466179,0.022108649835,0.567317247391,,0.00382535691528,0.0103325510595,-0.00789425652936,0.999908138654
1576080626701511913,,,0,,1576080626,701419877,"""world""","""hoverOpti/base_link""",,,1.30101597309,0.0221094228327,0.567310988903,,0.00380232470517,0.0103754163659,-0.00776954798092,0.999908759431
