rosbagTimestamp,header,seq,stamp,secs,nsecs,frame_id,pose,position,x,y,z,orientation,x,y,z,w
1576080620661558275,,118194,,1576080620,661456220,"""world""",,,1.30102586746,0.0221438147128,0.567321002483,,-0.00341244786978,-0.0102975228801,0.00736937206239,-0.999913990498
1576080620681522753,,118195,,1576080620,681445548,"""world""",,,1.30103230476,0.0221424736083,0.567321062088,,-0.00339923333377,-0.0103297876194,0.00739786727354,-0.999913573265
1576080620701424744,,118196,,1576080620,701337489,"""world""",,,1.30101573467,0.0221708267927,0.567308604717,,-0.00313986185938,-0.0102093908936,0.00765659147874,-0.999913692474
1576080620721449284,,118197,,1576080620,721383973,"""world""",,,1.30101335049,0.0221011843532,0.567317247391,,-0.00377978151664,-0.0103349639103,0.00784056261182,-0.999908685684
1576080620741447691,,118198,,1576080620,741375218,"""world""",,,1.30103290081,0.0221479330212,0.56731647253,,-0.00336335133761,-0.0103444280103,0.00740522984415,-0.999913454056
1576080620765401002,,118199,,1576080620,765335403,"""world""",,,1.30100476742,0.02210348472,0.567304730415,,-0.0038603534922,-0.0103744398803,0.00799637287855,-0.999906778336
1576080620781457691,,118200,,1576080620,781388765,"""world""",,,1.30100440979,0.0221184585243,0.567324519157,,-0.00376043235883,-0.0102313244715,0.00733282463625,-0.999913752079
1576080620801425348,,118201,,1576080620,801354825,"""world""",,,1.30101084709,0.0221105199307,0.567310094833,,-0.00386194325984,-0.0103590581566,0.00784004479647,-0.999908149242
1576080620821523941,,118202,,1576080620,821418891,"""world""",,,1.30099868774,0.0221132505685,0.567328035831,,-0.00380217819475,-0.0102060819045,0.00728371134028,-0.999914228916
1576080620841412958,,118203,,1576080620,841290650,"""world""",,,1.30103063583,0.0221439432353,0.567325651646,,-0.00342605519108,-0.0103261610493,0.00741146085784,-0.999913454056
1576080620864049946,,118204,,1576080620,863940673,"""world""",,,1.3010185957,0.0221104696393,0.567310392857,,-0.00387465581298,-0.0103944139555,0.00780777493492,-0.999908030033
1576080620881546671,,118205,,1576080620,881432164,"""world""",,,1.30099058151,0.0220882892609,0.567317008972,,-0.00406497111544,-0.0101755410433,0.0076781604439,-0.999910473824
1576080620901451949,,118206,,1576080620,901382938,"""world""",,,1.30103266239,0.0221406109631,0.567326784134,,-0.00335424300283,-0.0103728733957,0.00741167413071,-0.999913156033
1576080620921613551,,118207,,1576080620,921515385,"""world""",,,1.30099356174,0.0220856182277,0.567323625088,,-0.00415769498795,-0.0102001326159,0.0077578551136,-0.999909281731
1576080620941634389,,118208,,1576080620,941549372,"""world""",,,1.30099654198,0.0220850482583,0.567321419716,,-0.0041912519373,-0.0102238049731,0.00785540789366,-0.999908149242
1576080620961761122,,118209,,1576080620,961675827,"""world""",,,1.30100631714,0.0221266783774,0.567326188087,,-0.00377070740797,-0.0102421175689,0.00728129036725,-0.999913990498
1576080620981487376,,118210,,1576080620,981398742,"""world""",,,1.30098676682,0.0220797732472,0.56732070446,,-0.00408386159688,-0.0102650066838,0.00780757516623,-0.999908566475
1576080621001610570,,118211,,1576080621,1526190,"""world""",,,1.30098724365,0.0220785625279,0.567326366901,,-0.00420251861215,-0.0102278655395,0.00777193717659,-0.999908745289
1576080621021568074,,118212,,1576080621,21423398,"""world""",,,1.30099987984,0.0221104510128,0.567330420017,,-0.00372549961321,-0.010227734223,0.00726745324209,-0.999914348125
1576080621041670136,,118213,,1576080621,41582276,"""world""",,,1.30102241039,0.0221204534173,0.567322611809,,-0.00354464934207,-0.0104017397389,0.00706700375304,-0.999914646149
1576080621061403972,,118214,,1576080621,61327605,"""world""",,,1.30101084709,0.0221086349338,0.567318081856,,-0.00374510255642,-0.0103414962068,0.00783958472311,-0.999908804893
1576080621081490469,,118215,,1576080621,81372119,"""world""",,,1.30100810528,0.0221689138561,0.567311406136,,-0.00319109717384,-0.010228747502,0.00764929084107,-0.999913394451
1576080621105215895,,118216,,1576080621,105146159,"""world""",,,1.30100417137,0.02210919559,0.56733494997,,-0.00373471505009,-0.0102160032839,0.00731571903452,-0.999914169312
1576080621121439274,,118217,,1576080621,121371435,"""world""",,,1.3010058403,0.0221171528101,0.567327260971,,-0.00378507818095,-0.0102674812078,0.00718105444685,-0.99991440773
1576080621141432440,,118218,,1576080621,141363440,"""world""",,,1.30100488663,0.0221045594662,0.567334294319,,-0.00372122391127,-0.010247381404,0.0073152105324,-0.999913811684
1576080621161499421,,118219,,1576080621,161432659,"""world""",,,1.30100560188,0.0221191160381,0.567322432995,,-0.0037773961667,-0.0101913958788,0.00724848499522,-0.999914765358
1576080621181529730,,118220,,1576080621,181461586,"""world""",,,1.30102336407,0.0221082661301,0.567321121693,,-0.00374401547015,-0.0103405779228,0.00788470450789,-0.999908447266
1576080621201439286,,118221,,1576080621,201371474,"""world""",,,1.30101585388,0.0221107881516,0.567314982414,,-0.00373248220421,-0.0103650037199,0.00788479018956,-0.999908328056
1576080621221389183,,118222,,1576080621,221301254,"""world""",,,1.30100905895,0.0221313908696,0.567326009274,,-0.00374338938855,-0.0102558387443,0.00723686581478,-0.999914228916
1576080621241372490,,118223,,1576080621,241302678,"""world""",,,1.30103421211,0.0221419855952,0.567315220833,,-0.00343084614724,-0.0103470580652,0.00734339421615,-0.999913692474
1576080621261393055,,118224,,1576080621,261308305,"""world""",,,1.3010519743,0.0221499092877,0.567304909229,,-0.00332091748714,-0.0105264866725,0.00719163566828,-0.999913215637
1576080621281633733,,118225,,1576080621,281563673,"""world""",,,1.30100905895,0.0221196860075,0.567329227924,,-0.0037545398809,-0.0101943509653,0.00733107002452,-0.999914169312
1576080621301422997,,118226,,1576080621,301351480,"""world""",,,1.30101847649,0.0221056938171,0.56729722023,,-0.00380402267911,-0.0103736696765,0.00789484847337,-0.999907791615
1576080621321535222,,118227,,1576080621,321444785,"""world""",,,1.30102109909,0.02203983441,0.56733751297,,-0.00379051896743,-0.00998220220208,0.00809178501368,-0.99991029501
1576080621341380288,,118228,,1576080621,341304604,"""world""",,,1.30104410648,0.0221398342401,0.567317128181,,-0.00353570445441,-0.0103854117915,0.0073881088756,-0.999912500381
1576080621361797662,,118229,,1576080621,361715846,"""world""",,,1.30100035667,0.0220845937729,0.567326366901,,-0.00417930353433,-0.01021933835,0.00772057380527,-0.999909281731
1576080621381439002,,118230,,1576080621,381344936,"""world""",,,1.30103564262,0.022134527564,0.567326366901,,-0.00337873864919,-0.0104139987379,0.0074211852625,-0.999912559986
1576080621401682287,,118231,,1576080621,401599664,"""world""",,,1.30102086067,0.0221021641046,0.567317068577,,-0.00377508206293,-0.0103558870032,0.00792478397489,-0.999907851219
1576080621425410098,,118232,,1576080621,425335117,"""world""",,,1.30103456974,0.0221366304904,0.567325055599,,-0.00333914812654,-0.0103722512722,0.00733183557168,-0.999913811684
1576080621441357442,,118233,,1576080621,441289640,"""world""",,,1.30101752281,0.0221053529531,0.567314147949,,-0.00381425744854,-0.0103511307389,0.00789166986942,-0.999908030033
1576080621461442789,,118234,,1576080621,461363054,"""world""",,,1.30102241039,0.022108219564,0.567320823669,,-0.00373503286391,-0.0103746419773,0.00786491297185,-0.999908328056
1576080621481593434,,118235,,1576080621,481511379,"""world""",,,1.3010160923,0.0221053399146,0.567313313484,,-0.00371740804985,-0.0103670917451,0.00785046350211,-0.999908566475
1576080621501478335,,118236,,1576080621,501394756,"""world""",,,1.30102813244,0.0221387911588,0.56732660532,,-0.00344778015278,-0.0103720501065,0.00746072502807,-0.999912440777
1576080621527204255,,118237,,1576080621,527111125,"""world""",,,1.30101966858,0.022103978321,0.567315280437,,-0.00383835216053,-0.0103878369555,0.0078705009073,-0.999907791615
1576080621558595579,,118238,,1576080621,557704270,"""world""",,,1.3010083437,0.0221164915711,0.567327022552,,-0.00371165014803,-0.0101947495714,0.00719967717305,-0.999915242195
1576080621562117466,,118239,,1576080621,561468682,"""world""",,,1.30103051662,0.0221370756626,0.567321002483,,-0.00337247201242,-0.0103541593999,0.00740177184343,-0.999913334846
1576080621581843351,,118240,,1576080621,581743819,"""world""",,,1.30103230476,0.0221260953695,0.567323803902,,-0.00340603361838,-0.0103929908946,0.0074361669831,-0.999912619591
1576080621601473774,,118241,,1576080621,601377445,"""world""",,,1.30101382732,0.0221135132015,0.567323625088,,-0.00376835698262,-0.010325784795,0.0078150043264,-0.999909043312
1576080621621480240,,118242,,1576080621,621376714,"""world""",,,1.30104959011,0.0221086647362,0.567349135876,,-0.0031244463753,-0.010112109594,0.00773681467399,-0.999914109707
1576080621641676722,,118243,,1576080621,641597134,"""world""",,,1.30101907253,0.0221082381904,0.567322790623,,-0.00376373925246,-0.0103754503652,0.00786170642823,-0.999908268452
1576080621668916725,,118244,,1576080621,668839544,"""world""",,,1.30102932453,0.022141084075,0.567330181599,,-0.00336642679758,-0.0103447269648,0.00748007558286,-0.999912917614
1576080621682963474,,118245,,1576080621,682887154,"""world""",,,1.30103290081,0.0221468955278,0.567328751087,,-0.00343449553475,-0.0103302123025,0.00745286606252,-0.999913036823
1576080621701722325,,118246,,1576080621,701638155,"""world""",,,1.30102956295,0.0221377070993,0.567331671715,,-0.00342085515149,-0.0103551279753,0.00750870164484,-0.999912321568
1576080621721610107,,118247,,1576080621,721521975,"""world""",,,1.3010314703,0.0221467707306,0.567334651947,,-0.0033537123818,-0.0103382216766,0.00748934550211,-0.999912917614
1576080621741555763,,118248,,1576080621,741463339,"""world""",,,1.30098617077,0.0220873914659,0.567333996296,,-0.00410170992836,-0.0101749636233,0.00766682717949,-0.999910473824
1576080621761513955,,118249,,1576080621,761438431,"""world""",,,1.30103051662,0.0221294444054,0.567327141762,,-0.00362334074453,-0.0103553114459,0.00709738768637,-0.999914646149
1576080621781621442,,118250,,1576080621,781548779,"""world""",,,1.30099284649,0.0220742709935,0.567323327065,,-0.00408980995417,-0.0102005638182,0.00771612673998,-0.999909877777
1576080621801426931,,118251,,1576080621,801353944,"""world""",,,1.30102837086,0.0221465397626,0.567321538925,,-0.00340995215811,-0.01037607342,0.00748098781332,-0.999912381172
1576080621821353595,,118252,,1576080621,821285456,"""world""",,,1.3010263443,0.0221496913582,0.567317962646,,-0.00332336756401,-0.0103977322578,0.00729842297733,-0.999913871288
1576080621841414002,,118253,,1576080621,841313979,"""world""",,,1.30100977421,0.0221140049398,0.567318677902,,-0.00375686679035,-0.0103052807972,0.00779401836917,-0.999909460545
1576080621861469690,,118254,,1576080621,861398133,"""world""",,,1.30101132393,0.0221261214465,0.567321956158,,-0.00377506180666,-0.0102471746504,0.00726257963106,-0.999913990498
1576080621882181513,,118255,,1576080621,882114450,"""world""",,,1.30099713802,0.0220838468522,0.567324101925,,-0.00411424413323,-0.0102225895971,0.00774987135082,-0.999909281731
1576080621901426931,,118256,,1576080621,901315751,"""world""",,,1.30098748207,0.0220808424056,0.567317247391,,-0.00408067367971,-0.0102701224387,0.00781402736902,-0.99990850687
1576080621921445423,,118257,,1576080621,921340206,"""world""",,,1.30102527142,0.0221397131681,0.56732326746,,-0.00340157398023,-0.010377984494,0.00754430703819,-0.999911904335
1576080621941646987,,118258,,1576080621,941574558,"""world""",,,1.30100345612,0.0221213605255,0.567319750786,,-0.00377452536486,-0.0102077322081,0.00734763499349,-0.999913871288
1576080621961436721,,118259,,1576080621,961370324,"""world""",,,1.301004529,0.0221150331199,0.567322611809,,-0.00373930041678,-0.0102114453912,0.00737923430279,-0.999913692474
1576080621982486295,,118260,,1576080621,982415038,"""world""",,,1.30100917816,0.0221058968455,0.567310869694,,-0.00371982832439,-0.0103563470766,0.00781990028918,-0.999908864498
1576080622001424789,,118261,,1576080622,1341138,"""world""",,,1.30100393295,0.0221088919789,0.567308306694,,-0.00376938749105,-0.0103558674455,0.00799602363259,-0.999907374382
1576080622022865581,,118262,,1576080622,21464191,"""world""",,,1.30102527142,0.0221424084157,0.567322611809,,-0.00339178927243,-0.0103140128776,0.00757878040895,-0.999912440777
1576080622045280114,,118263,,1576080622,45180850,"""world""",,,1.30099833012,0.0221212171018,0.567307889462,,-0.00377333979122,-0.0104088326916,0.00787471607327,-0.99990773201
1576080622061495513,,118264,,1576080622,61383723,"""world""",,,1.301009655,0.0221717171371,0.567306637764,,-0.00311924866401,-0.0102252624929,0.00755206262693,-0.999914348125
1576080622081531246,,118265,,1576080622,81447562,"""world""",,,1.30101263523,0.0221400242299,0.567323863506,,-0.003498603357,-0.0103152068332,0.00743298372254,-0.999913036823
1576080622101447398,,118266,,1576080622,101377172,"""world""",,,1.30102515221,0.0221502147615,0.567320823669,,-0.00339333387092,-0.0103750340641,0.0075546875596,-0.99991196394
1576080622121522691,,118267,,1576080622,121421540,"""world""",,,1.30104470253,0.0221599210054,0.567311525345,,-0.00330601120368,-0.0105341067538,0.00720562413335,-0.999913156033
1576080622141473564,,118268,,1576080622,141403422,"""world""",,,1.30101203918,0.0221054442227,0.567310452461,,-0.00372252636589,-0.0103621128947,0.00796656031162,-0.99990773201
1576080622161374732,,118269,,1576080622,161301380,"""world""",,,1.30100572109,0.0221189893782,0.567301332951,,-0.00378788053058,-0.0103606954217,0.00784881319851,-0.999908387661
1576080622181403623,,118270,,1576080622,181328544,"""world""",,,1.30100703239,0.0221113972366,0.567313611507,,-0.00387319433503,-0.0103199891746,0.0078425751999,-0.99990850687
1576080622201534462,,118271,,1576080622,201463912,"""world""",,,1.3010289669,0.0221504773945,0.567313313484,,-0.00349043402821,-0.0103696761653,0.00738351698965,-0.999912977219
1576080622221993857,,118272,,1576080622,221919321,"""world""",,,1.30100893974,0.0221185106784,0.567326307297,,-0.0037051436957,-0.0101485997438,0.00724635785446,-0.999915421009
1576080622241366843,,118273,,1576080622,241295035,"""world""",,,1.30102443695,0.0221449919045,0.567317962646,,-0.00344052771106,-0.0103551968932,0.00741173140705,-0.999913036823
1576080622261409128,,118274,,1576080622,261319476,"""world""",,,1.30099284649,0.0220732036978,0.567321181297,,-0.00408865557984,-0.0101798977703,0.00779219670221,-0.999909460545
1576080622281553818,,118275,,1576080622,281479147,"""world""",,,1.30103445053,0.0221449136734,0.567319214344,,-0.00346809905022,-0.0103394240141,0.00745565118268,-0.9999127388
1576080622301446986,,118276,,1576080622,301356934,"""world""",,,1.30102849007,0.0221393611282,0.567318737507,,-0.00341172749177,-0.0103826969862,0.0074671455659,-0.999912440777
1576080622321398342,,118277,,1576080622,321298687,"""world""",,,1.30103027821,0.0221347771585,0.567315101624,,-0.00340995192528,-0.0103265345097,0.00744324969128,-0.999913156033
1576080622341307462,,118278,,1576080622,341236303,"""world""",,,1.30104708672,0.0221093650907,0.567344486713,,-0.00313822133467,-0.0100976191461,0.00774537306279,-0.999914109707
1576080622361709181,,118279,,1576080622,361624578,"""world""",,,1.30103027821,0.0221415385604,0.567314565182,,-0.00354651338421,-0.0103381797671,0.00744256470352,-0.999912679195
1576080622381615161,,118280,,1576080622,381543524,"""world""",,,1.30102157593,0.0221128128469,0.567307770252,,-0.0037850625813,-0.0103659983724,0.0078169638291,-0.99990862608
1576080622401704115,,118281,,1576080622,401633111,"""world""",,,1.30103397369,0.0221446156502,0.567318737507,,-0.00338952848688,-0.0103416759521,0.00740514183417,-0.999913334846
1576080622421406841,,118282,,1576080622,421339250,"""world""",,,1.30104196072,0.0221393108368,0.567317962646,,-0.00341228581965,-0.0103829400614,0.00736772688106,-0.999913215637
1576080622441499183,,118283,,1576080622,441427272,"""world""",,,1.30103194714,0.022138107568,0.567315757275,,-0.00336193665862,-0.0103219039738,0.00741699151695,-0.999913573265
1576080622461552749,,118284,,1576080622,461482888,"""world""",,,1.3010212183,0.0221067387611,0.567325174809,,-0.00371875823475,-0.0102212345228,0.00726419501007,-0.999914467335
1576080622481403955,,118285,,1576080622,481321853,"""world""",,,1.30101454258,0.0221074707806,0.56733071804,,-0.00372018734924,-0.0102607598528,0.0073128612712,-0.999913752079
1576080622502224299,,118286,,1576080622,502153031,"""world""",,,1.30099654198,0.0220828782767,0.567315399647,,-0.00405005738139,-0.0101862857118,0.00783223845065,-0.999909222126
1576080622521556602,,118287,,1576080622,521484284,"""world""",,,1.30101835728,0.0221091751009,0.567337632179,,-0.00357558927499,-0.0102602010593,0.00728399958462,-0.999914467335
1576080622541489161,,118288,,1576080622,541415708,"""world""",,,1.30102193356,0.022105563432,0.567319095135,,-0.00379273551516,-0.0103878621012,0.00802624411881,-0.999906659126
1576080622561382972,,118289,,1576080622,561277852,"""world""",,,1.30100417137,0.0220798086375,0.567322909832,,-0.00410182680935,-0.0101730925962,0.0077186296694,-0.999910116196
1576080622581443463,,118290,,1576080622,581373524,"""world""",,,1.30103361607,0.0221488531679,0.567321538925,,-0.00337302801199,-0.0103719709441,0.00732020335272,-0.999913752079
1576080622601445512,,118291,,1576080622,601373729,"""world""",,,1.30103468895,0.0221334118396,0.567318558693,,-0.00340235955082,-0.0104223983362,0.00740580959246,-0.999912500381
1576080622621429159,,118292,,1576080622,621327500,"""world""",,,1.30101799965,0.0221040137112,0.567333996296,,-0.00376519816928,-0.0102091003209,0.00730840489268,-0.999914109707
1576080622641420177,,118293,,1576080622,641340102,"""world""",,,1.30101144314,0.0221078749746,0.567322909832,,-0.00377042358741,-0.010204766877,0.00724601373076,-0.999914646149
1576080622661382262,,118294,,1576080622,661286759,"""world""",,,1.300999403,0.0220810566097,0.56732583046,,-0.00411383202299,-0.0101636154577,0.00776821887121,-0.999909758568
1576080622681375736,,118295,,1576080622,681305979,"""world""",,,1.30100619793,0.0221073105931,0.567326366901,,-0.00371023453772,-0.0102765029296,0.00728373834863,-0.999913871288
1576080622701410477,,118296,,1576080622,701334470,"""world""",,,1.30101406574,0.0221070051193,0.567333221436,,-0.00361723010428,-0.010198825039,0.00724621815607,-0.99991518259
1576080622721366211,,118297,,1576080622,721273035,"""world""",,,1.30103349686,0.0221329908818,0.567317903042,,-0.00341838365421,-0.0103491283953,0.00737878773361,-0.999913454056
1576080622741364566,,118298,,1576080622,741286448,"""world""",,,1.30103075504,0.0221361946315,0.567329347134,,-0.003343883669,-0.0103504899889,0.00741011509672,-0.999913454056
1576080622761576503,,118299,,1576080622,761506152,"""world""",,,1.30103194714,0.0221406947821,0.567324340343,,-0.00339021766558,-0.0103530297056,0.00738944159821,-0.999913394451
1576080622781507566,,118300,,1576080622,781377959,"""world""",,,1.30101430416,0.0221624877304,0.567311882973,,-0.00316989398561,-0.0102264508605,0.00756432907656,-0.999914109707
1576080622801489003,,118301,,1576080622,801416855,"""world""",,,1.30103802681,0.0221434924752,0.56732493639,,-0.00333182606846,-0.0103088598698,0.00736557273194,-0.999914228916
1576080622821445272,,118302,,1576080622,821371413,"""world""",,,1.301040411,0.0221500005573,0.567321419716,,-0.00344133726321,-0.0103612206876,0.00735474098474,-0.999913334846
1576080622841379003,,118303,,1576080622,841298515,"""world""",,,1.30100810528,0.0220785494894,0.567313313484,,-0.00411334540695,-0.0102522792295,0.00774587783962,-0.999908983707
1576080622861579447,,118304,,1576080622,861505018,"""world""",,,1.30100154877,0.0220773257315,0.567319095135,,-0.00419173389673,-0.0102381911129,0.00778398057446,-0.99990850687
1576080622881497609,,118305,,1576080622,881425218,"""world""",,,1.30100631714,0.0220816899091,0.567321300507,,-0.00411657476798,-0.0102181751281,0.00764806335792,-0.999910116196
1576080622901413219,,118306,,1576080622,901345802,"""world""",,,1.30104029179,0.0221329256892,0.567321062088,,-0.00336828432046,-0.0103986840695,0.00746765686199,-0.999912440777
1576080622922010462,,118307,,1576080622,921944527,"""world""",,,1.30103230476,0.0221419949085,0.567314326763,,-0.00343766692095,-0.0103472210467,0.00744149833918,-0.999912858009
1576080622941431087,,118308,,1576080622,941359467,"""world""",,,1.30099594593,0.0220753420144,0.567316710949,,-0.00413029640913,-0.0102677643299,0.00768936006352,-0.999909222126
1576080622961429639,,118309,,1576080622,961343983,"""world""",,,1.30100774765,0.0221188794822,0.567317426205,,-0.00376682705246,-0.010241647251,0.00725638493896,-0.999914169312
1576080622981469395,,118310,,1576080622,981381239,"""world""",,,1.30102050304,0.0221089534461,0.567307412624,,-0.00373917608522,-0.0104106720537,0.00787613261491,-0.999907851219
1576080623001513089,,118311,,1576080623,1441005,"""world""",,,1.30101191998,0.0221061334014,0.567317783833,,-0.00378986191936,-0.0102417692542,0.00734499236569,-0.999913454056
1576080623021561249,,118312,,1576080623,21374637,"""world""",,,1.30103135109,0.0221483949572,0.567317128181,,-0.00344148813747,-0.010414798744,0.00739721255377,-0.999912559986
1576080623041450366,,118313,,1576080623,41342222,"""world""",,,1.30103588104,0.022135514766,0.567320287228,,-0.00344004528597,-0.0103748356923,0.00738899363205,-0.999912977219
1576080623061352296,,118314,,1576080623,61275982,"""world""",,,1.30102086067,0.0221049878746,0.567325592041,,-0.00368145131506,-0.0102043421939,0.00722882337868,-0.999915063381
1576080623081588305,,118315,,1576080623,81515113,"""world""",,,1.30103611946,0.0221307333559,0.56732404232,,-0.00340179447085,-0.0103013729677,0.00736301252618,-0.999914050102
1576080623101768437,,118316,,1576080623,101685388,"""world""",,,1.30100953579,0.0221179910004,0.567327857018,,-0.00376311340369,-0.0102109182626,0.0072692297399,-0.999914348125
1576080623121443279,,118317,,1576080623,121371567,"""world""",,,1.30102241039,0.0221085865051,0.567318499088,,-0.00379159301519,-0.0103676216677,0.00795539282262,-0.999907493591
1576080623141454425,,118318,,1576080623,141384800,"""world""",,,1.30102050304,0.0221039038152,0.567309260368,,-0.0039010066539,-0.0103931231424,0.00788670685142,-0.999907314777
1576080623161440188,,118319,,1576080623,161372171,"""world""",,,1.30103421211,0.0221389811486,0.567321419716,,-0.00341042666696,-0.0103398850188,0.00739557063207,-0.999913454056
1576080623181405424,,118320,,1576080623,181321610,"""world""",,,1.30101561546,0.0221010707319,0.567312777042,,-0.00373970111832,-0.0103408694267,0.00788335781544,-0.999908447266
1576080623201401671,,118321,,1576080623,201315964,"""world""",,,1.30101704597,0.0220995303243,0.567306816578,,-0.00375759112649,-0.0103696733713,0.00795405730605,-0.999907553196
1576080623221326453,,118322,,1576080623,221257864,"""world""",,,1.30101752281,0.0221136361361,0.567310333252,,-0.00384164275602,-0.0104284686968,0.00797333475202,-0.999906539917
1576080623241281582,,118323,,1576080623,241212877,"""world""",,,1.30103850365,0.022144569084,0.567325055599,,-0.00348649383523,-0.0103457309306,0.00729004666209,-0.999913930893
1576080623267027485,,118324,,1576080623,266951404,"""world""",,,1.30100679398,0.0221142005175,0.567330896854,,-0.0036711441353,-0.0101808365434,0.00722500495613,-0.999915421009
1576080623281326730,,118325,,1576080623,281251934,"""world""",,,1.3010340929,0.0221464000642,0.567321240902,,-0.00344288907945,-0.0103777907789,0.00745508447289,-0.999912440777
1576080623301387793,,118326,,1576080623,301316755,"""world""",,,1.30102968216,0.0221391711384,0.567322075367,,-0.0033656207379,-0.0103890430182,0.0074445004575,-0.999912679195
1576080623321478367,,118327,,1576080623,321365596,"""world""",,,1.30100500584,0.022114675492,0.567326903343,,-0.00372430193238,-0.0102031705901,0.00736000342295,-0.999913990498
1576080623341344389,,118328,,1576080623,341235451,"""world""",,,1.30102920532,0.0221429951489,0.567321717739,,-0.00344306277111,-0.0104062985629,0.00736661860719,-0.999912858009
1576080623361638292,,118329,,1576080623,361547115,"""world""",,,1.300999403,0.0220737121999,0.567317962646,,-0.00408121198416,-0.0102332849056,0.00774319516495,-0.99990940094
1576080623381789982,,118330,,1576080623,381714857,"""world""",,,1.30103433132,0.0221270080656,0.567320823669,,-0.00341292866506,-0.0103822285309,0.00747426366434,-0.999912381172
1576080623402148050,,118331,,1576080623,402074327,"""world""",,,1.30103480816,0.0221349094063,0.567320346832,,-0.00344932335429,-0.0103617412969,0.00729708466679,-0.999913752079
1576080623423705884,,118332,,1576080623,423631279,"""world""",,,1.30102145672,0.022095259279,0.567308545113,,-0.00381161365658,-0.0103831421584,0.00790601223707,-0.999907612801
1576080623441446912,,118333,,1576080623,441373874,"""world""",,,1.30103671551,0.0221365671605,0.567320585251,,-0.00335421459749,-0.0103990510106,0.00748196570203,-0.999912321568
1576080623461392285,,118334,,1576080623,461322269,"""world""",,,1.30100512505,0.0221026353538,0.567324340343,,-0.00375941745006,-0.0102897491306,0.00730362394825,-0.999913394451
1576080623481650422,,118335,,1576080623,481569338,"""world""",,,1.30100238323,0.0220797043294,0.567325294018,,-0.00411313725635,-0.0102374050766,0.00770875299349,-0.999909520149
1576080623501362883,,118336,,1576080623,501294232,"""world""",,,1.30103135109,0.0221465807408,0.567322909832,,-0.00335930800065,-0.0103315906599,0.00745824817568,-0.999913275242
1576080623521361285,,118337,,1576080623,521292474,"""world""",,,1.30103158951,0.022152453661,0.567322790623,,-0.00345436157659,-0.0103408014402,0.00750120496377,-0.999912500381
1576080623541408089,,118338,,1576080623,541314166,"""world""",,,1.30101323128,0.0221165399998,0.567331910133,,-0.00365768419579,-0.0102625098079,0.00726783555001,-0.999914228916
1576080623561323319,,118339,,1576080623,561241524,"""world""",,,1.30102944374,0.0221389774233,0.567320883274,,-0.00346509274095,-0.0103896418586,0.00753693375736,-0.999911725521
1576080623581478667,,118340,,1576080623,581386083,"""world""",,,1.30103635788,0.0221215318888,0.567317724228,,-0.00371491350234,-0.0103801991791,0.00704412069172,-0.999914467335
1576080623601309088,,118341,,1576080623,601242361,"""world""",,,1.30103754997,0.0221316386014,0.567311763763,,-0.00351625098847,-0.0103741660714,0.0074191824533,-0.999912559986
1576080623621418459,,118342,,1576080623,621306872,"""world""",,,1.30103123188,0.0221400279552,0.567324995995,,-0.00341214821674,-0.0104083120823,0.00745314126834,-0.999912321568
1576080623641331198,,118343,,1576080623,641257923,"""world""",,,1.301019907,0.022106256336,0.567305743694,,-0.00388982356526,-0.0104071944952,0.00788463279605,-0.999907195568
1576080623661578985,,118344,,1576080623,661510244,"""world""",,,1.30103397369,0.0221365857869,0.567317724228,,-0.00338214612566,-0.0104239303619,0.00737420422956,-0.999912858009
1576080623681636445,,118345,,1576080623,681458178,"""world""",,,1.30103588104,0.0221434570849,0.567321121693,,-0.00340419448912,-0.010312795639,0.00734741752967,-0.999914109707
1576080623701377151,,118346,,1576080623,701295251,"""world""",,,1.3010365963,0.0221416801214,0.567327320576,,-0.00339370709844,-0.0103469118476,0.00743168359622,-0.999913156033
1576080623721452697,,118347,,1576080623,721382176,"""world""",,,1.30105602741,0.0221573021263,0.567309081554,,-0.00333988084458,-0.0105495201424,0.00726720876992,-0.999912440777
1576080623741774143,,118348,,1576080623,741659054,"""world""",,,1.30101299286,0.0221118628979,0.567317485809,,-0.0038114413619,-0.0103957634419,0.00786173157394,-0.999907791615
1576080623761366705,,118349,,1576080623,761299325,"""world""",,,1.30102729797,0.022134128958,0.567320525646,,-0.00341702322476,-0.0103846415877,0.0073976428248,-0.999912858009
1576080623781325217,,118350,,1576080623,781254481,"""world""",,,1.30101823807,0.0221003536135,0.567311525345,,-0.0037584642414,-0.0104057369754,0.00785985775292,-0.999907910824
1576080623801361236,,118351,,1576080623,801293563,"""world""",,,1.30102801323,0.0221364013851,0.567321956158,,-0.00350943510421,-0.0103531861678,0.00739571033046,-0.999912917614
1576080623821330127,,118352,,1576080623,821245123,"""world""",,,1.30100893974,0.0221198853105,0.567325532436,,-0.00371468276717,-0.0102298790589,0.00730411661789,-0.999914169312
1576080623841494508,,118353,,1576080623,841417245,"""world""",,,1.30103254318,0.0221498887986,0.567321002483,,-0.00341030210257,-0.0103585487232,0.00743583450094,-0.999912977219
1576080623861509677,,118354,,1576080623,861429145,"""world""",,,1.30103158951,0.0221409667283,0.567327678204,,-0.00336273433641,-0.0103537971154,0.00746494252235,-0.999912917614
1576080623881530363,,118355,,1576080623,881441670,"""world""",,,1.30103206635,0.022142123431,0.567319512367,,-0.00343023915775,-0.0103831579909,0.00739518785849,-0.999912858009
1576080623901580802,,118356,,1576080623,901506722,"""world""",,,1.30102038383,0.0221083275974,0.567312836647,,-0.00385492597707,-0.0103448694572,0.00800261646509,-0.999907016754
1576080623921657739,,118357,,1576080623,921545409,"""world""",,,1.30104458332,0.0221537053585,0.567312538624,,-0.00327414204367,-0.0105594489723,0.00733832735568,-0.999912023544
1576080623941336404,,118358,,1576080623,941249857,"""world""",,,1.30101716518,0.0221163630486,0.567329645157,,-0.00377357657999,-0.0103339282796,0.00789045821875,-0.999908387661
1576080623961485602,,118359,,1576080623,961416228,"""world""",,,1.30104613304,0.0221052020788,0.567348837852,,-0.00303930975497,-0.0100945550948,0.00772299384698,-0.999914586544
1576080623981537305,,118360,,1576080623,981455483,"""world""",,,1.3010314703,0.0221392177045,0.567327558994,,-0.00346923083998,-0.0103309303522,0.00740072177723,-0.999913215637
1576080624001389576,,118361,,1576080624,1320821,"""world""",,,1.30100142956,0.0221157297492,0.567334353924,,-0.00379246403463,-0.0101967733353,0.00733613874763,-0.999913930893
1576080624021321242,,118362,,1576080624,21210967,"""world""",,,1.30100345612,0.0220520887524,0.567352771759,,-0.00368357868865,-0.00996896624565,0.00809845607728,-0.999910771847
1576080624041551883,,118363,,1576080624,41457639,"""world""",,,1.30103683472,0.0221395585686,0.567319989204,,-0.00342916534282,-0.0103444093838,0.00746859703213,-0.9999127388
1576080624065701781,,118364,,1576080624,65621722,"""world""",,,1.30101728439,0.0221106056124,0.5673173666,,-0.00386747135781,-0.0103612365201,0.00786321703345,-0.999907910824
1576080624081358498,,118365,,1576080624,81285584,"""world""",,,1.30099928379,0.0220788884908,0.567320108414,,-0.00419716676697,-0.0101957982406,0.0078152474016,-0.999908685684
1576080624101435439,,118366,,1576080624,101347533,"""world""",,,1.30099380016,0.022072924301,0.567326188087,,-0.00406271824613,-0.0102123031393,0.00778690027073,-0.999909281731
1576080624121358355,,118367,,1576080624,121270593,"""world""",,,1.30100357533,0.0220871847123,0.567331194878,,-0.00397982774302,-0.0101871853694,0.00767781212926,-0.999910712242
1576080624141446851,,118368,,1576080624,141374934,"""world""",,,1.300999403,0.0221038162708,0.56733506918,,-0.00373769644648,-0.0102057112381,0.00727060995996,-0.999914586544
1576080624161594286,,118369,,1576080624,161507854,"""world""",,,1.30102920532,0.0221420899034,0.567330181599,,-0.00343550369143,-0.0103277862072,0.00746154086664,-0.999912917614
1576080624181721320,,118370,,1576080624,181637993,"""world""",,,1.30101728439,0.0221149530262,0.567323982716,,-0.00380743551068,-0.0103775793687,0.0078330244869,-0.999908268452
1576080624201448798,,118371,,1576080624,201355640,"""world""",,,1.30103123188,0.0221540220082,0.56733083725,,-0.00340089248493,-0.0103452652693,0.00741402152926,-0.999913275242
1576080624221308601,,118372,,1576080624,221237501,"""world""",,,1.30102598667,0.0221390258521,0.567326784134,,-0.00333376368508,-0.0103679643944,0.00736072845757,-0.999913692474
1576080624243158186,,118373,,1576080624,243049087,"""world""",,,1.30102026463,0.0221100412309,0.567321062088,,-0.00376376346685,-0.0103988908231,0.00788671057671,-0.99990773201
1576080624261344656,,118374,,1576080624,261259013,"""world""",,,1.30103516579,0.022132832557,0.567322969437,,-0.00344611215405,-0.0103723984212,0.00733359064907,-0.999913394451
1576080624281390984,,118375,,1576080624,281314157,"""world""",,,1.30103707314,0.0221450235695,0.567330300808,,-0.00336923939176,-0.0103560443968,0.00733085302636,-0.999913811684
1576080624301342026,,118376,,1576080624,301268303,"""world""",,,1.30101680756,0.0221050493419,0.567317605019,,-0.00378757365979,-0.0103558162227,0.00787777267396,-0.999908208847
1576080624322069133,,118377,,1576080624,321999437,"""world""",,,1.30101788044,0.0221152752638,0.56731814146,,-0.00379974348471,-0.0104138823226,0.0078179044649,-0.999908030033
1576080624341960008,,118378,,1576080624,341890437,"""world""",,,1.30105316639,0.022152395919,0.567316830158,,-0.00319023057818,-0.0105361267924,0.0073128035292,-0.9999127388
1576080624361619989,,118379,,1576080624,361550434,"""world""",,,1.30101966858,0.0221121739596,0.567317545414,,-0.00381618668325,-0.0103371376172,0.00786580424756,-0.999908387661
1576080624382672041,,118380,,1576080624,382591987,"""world""",,,1.30103480816,0.0221350044012,0.567330241203,,-0.0033759442158,-0.0103806909174,0.00750287622213,-0.999912321568
1576080624418046195,,118381,,1576080624,417970425,"""world""",,,1.30103731155,0.0221492499113,0.56732749939,,-0.00338922347873,-0.0103747034445,0.00738044129685,-0.999913215637
1576080624421372345,,118382,,1576080624,421307382,"""world""",,,1.30102324486,0.0221123415977,0.567318916321,,-0.00375351426192,-0.0104014929384,0.00793316867203,-0.999907374382
1576080624441976065,,118383,,1576080624,441908528,"""world""",,,1.30101788044,0.0221092514694,0.567322790623,,-0.00382911460474,-0.0103802010417,0.00792363472283,-0.999907433987
1576080624461323434,,118384,,1576080624,461256065,"""world""",,,1.30103719234,0.0221479609609,0.567335426807,,-0.00343963783234,-0.0103667154908,0.00736860744655,-0.999913215637
1576080624483383518,,118385,,1576080624,483302922,"""world""",,,1.30104541779,0.0221532024443,0.56730812788,,-0.00342441024259,-0.0105471955612,0.00722001772374,-0.999912500381
1576080624501747367,,118386,,1576080624,501675829,"""world""",,,1.30102980137,0.0221401527524,0.567322731018,,-0.0035748956725,-0.0103528741747,0.00737807387486,-0.999912798405
1576080624521877639,,118387,,1576080624,521768142,"""world""",,,1.30103218555,0.0221439003944,0.567318618298,,-0.00344866816886,-0.0104052731767,0.00747395306826,-0.999912023544
1576080624543019670,,118388,,1576080624,542946518,"""world""",,,1.30102860928,0.0221394114196,0.567320823669,,-0.00341217964888,-0.0103526664898,0.00737133296207,-0.999913394451
1576080624561822596,,118389,,1576080624,561750929,"""world""",,,1.3010468483,0.0221579931676,0.56730979681,,-0.00330241164193,-0.0105700213462,0.00732033606619,-0.999911904335
1576080624581756222,,118390,,1576080624,581674984,"""world""",,,1.30101370811,0.0220967382193,0.567326366901,,-0.00326515967026,-0.0099391490221,0.00837963726372,-0.999910235405
1576080624601635608,,118391,,1576080624,601563007,"""world""",,,1.30103611946,0.0221424549818,0.567305743694,,-0.00341779761948,-0.0103534571826,0.00746410386637,-0.9999127388
1576080624621998801,,118392,,1576080624,621902098,"""world""",,,1.30101919174,0.022112108767,0.567315220833,,-0.00373883871362,-0.010361360386,0.00791049282998,-0.999908030033
1576080624642047571,,118393,,1576080624,641960173,"""world""",,,1.30101895332,0.0221080556512,0.567310750484,,-0.00377450510859,-0.0103419022635,0.00794383138418,-0.999907851219
1576080624661910956,,118394,,1576080624,661840850,"""world""",,,1.30102884769,0.0221363250166,0.567314982414,,-0.00341274822131,-0.0103422412649,0.00743924500421,-0.999913096428
1576080624681422679,,118395,,1576080624,681333975,"""world""",,,1.30102038383,0.0221697129309,0.567307472229,,-0.00322220451199,-0.010196423158,0.00750576937571,-0.999914646149
1576080624701621316,,118396,,1576080624,701549820,"""world""",,,1.30101144314,0.0221212524921,0.567323803902,,-0.0037627061829,-0.0102296592668,0.00729250069708,-0.999913990498
1576080624721896151,,118397,,1576080624,721820927,"""world""",,,1.30104672909,0.0221484471112,0.567315220833,,-0.00347607303411,-0.0103625245392,0.00742848962545,-0.999912679195
1576080624743233191,,118398,,1576080624,743161378,"""world""",,,1.30101120472,0.0221192166209,0.567326426506,,-0.00373688922264,-0.0102583067492,0.00729404110461,-0.999913871288
1576080624761481873,,118399,,1576080624,761412466,"""world""",,,1.30103027821,0.0221153888851,0.567317128181,,-0.00380502641201,-0.0103832762688,0.00793567486107,-0.999907433987
1576080624781934026,,118400,,1576080624,781847753,"""world""",,,1.30098879337,0.0220797583461,0.56732660532,,-0.00403321580961,-0.0101084150374,0.00772325089201,-0.999911010265
1576080624801261275,,118401,,1576080624,801189752,"""world""",,,1.30101788044,0.0221383832395,0.567321956158,,-0.00346953328699,-0.0103411283344,0.00743674114347,-0.999912917614
1576080624821835377,,118402,,1576080624,821753625,"""world""",,,1.3010456562,0.0221582446247,0.56731069088,,-0.00331668998115,-0.0105933398008,0.00727604143322,-0.99991196394
1576080624844704177,,118403,,1576080624,844623900,"""world""",,,1.30101501942,0.0221125092357,0.567318916321,,-0.0038484595716,-0.0103603675961,0.00795628130436,-0.999907314777
1576080624861625439,,118404,,1576080624,861557975,"""world""",,,1.30102002621,0.0221170037985,0.567316830158,,-0.00384650519118,-0.0103331031278,0.00787000264972,-0.999908328056
1576080624882602985,,118405,,1576080624,882535389,"""world""",,,1.3010314703,0.0221451614052,0.567325234413,,-0.00334664667025,-0.0103143826127,0.00731870438904,-0.999914467335
1576080624901991905,,118406,,1576080624,901922159,"""world""",,,1.30102860928,0.0221379008144,0.567326128483,,-0.0033549121581,-0.0103706205264,0.00732761435211,-0.999913752079
1576080624922780598,,118407,,1576080624,922713163,"""world""",,,1.30101716518,0.0221060812473,0.567312180996,,-0.00394780794159,-0.0103321895003,0.00791619997472,-0.999907493591
1576080624941392399,,118408,,1576080624,941322623,"""world""",,,1.30099439621,0.0220724735409,0.567328810692,,-0.00416765455157,-0.0102127110586,0.00771225476637,-0.99990940094
1576080624961480716,,118409,,1576080624,961386111,"""world""",,,1.30101931095,0.0221041422337,0.567327260971,,-0.00383501499891,-0.0103917969391,0.00786352530122,-0.99990773201
1576080624981283155,,118410,,1576080624,981210912,"""world""",,,1.30105066299,0.0221370365471,0.567310988903,,-0.0033354407642,-0.0105591146275,0.00727747520432,-0.999912261963
1576080625007452887,,118411,,1576080625,7382782,"""world""",,,1.30102646351,0.0221436601132,0.567323386669,,-0.00344080734067,-0.0103766927496,0.00730233872309,-0.999913573265
1576080625021907756,,118412,,1576080625,21777289,"""world""",,,1.30103099346,0.0221354365349,0.567321717739,,-0.00345671363175,-0.0103582646698,0.00739702628925,-0.999913036823
1576080625041462777,,118413,,1576080625,41365894,"""world""",,,1.30101692677,0.0221012346447,0.567320764065,,-0.00388318765908,-0.0103269591928,0.00786459911615,-0.999908208847
1576080625062996421,,118414,,1576080625,62919848,"""world""",,,1.30103385448,0.0221437066793,0.567322194576,,-0.00337879662402,-0.0103556225076,0.00737251108512,-0.99991351366
1576080625081894719,,118415,,1576080625,81822690,"""world""",,,1.30099248886,0.0220794565976,0.567325353622,,-0.00409625098109,-0.0101861413568,0.00770046561956,-0.999910056591
1576080625101492008,,118416,,1576080625,101418965,"""world""",,,1.30101287365,0.0221218727529,0.567335665226,,-0.00366439647041,-0.0102117080241,0.00727260299027,-0.999914705753
1576080625121472110,,118417,,1576080625,121357030,"""world""",,,1.30102109909,0.0221143215895,0.567320227623,,-0.00382987945341,-0.0103616798297,0.00781586207449,-0.999908447266
1576080625141847102,,118418,,1576080625,141768985,"""world""",,,1.30103087425,0.0221458952874,0.567314505577,,-0.00343839381821,-0.0103245330974,0.00734775979072,-0.999913871288
1576080625161367836,,118419,,1576080625,161280660,"""world""",,,1.30103099346,0.0221469160169,0.567314088345,,-0.00343197328039,-0.0103620728478,0.00740038603544,-0.999913096428
1576080625183310250,,118420,,1576080625,183238121,"""world""",,,1.30102789402,0.0221372637898,0.567323386669,,-0.0034469938837,-0.0103886360303,0.00735369417816,-0.999913036823
1576080625201855318,,118421,,1576080625,201774566,"""world""",,,1.301019907,0.0221168510616,0.567312240601,,-0.00394735112786,-0.0103311790153,0.00797956716269,-0.999907016754
1576080625221704972,,118422,,1576080625,221636340,"""world""",,,1.30103325844,0.0221503637731,0.567331910133,,-0.00333482725546,-0.0103740543127,0.00739687588066,-0.999913275242
1576080625241523507,,118423,,1576080625,241456608,"""world""",,,1.30101513863,0.0221217218786,0.567328393459,,-0.00375829217955,-0.0102264871821,0.00715927965939,-0.999915003777
1576080625261368513,,118424,,1576080625,261299119,"""world""",,,1.30103886127,0.0221412461251,0.567318379879,,-0.0034944077488,-0.0103761721402,0.00746678141877,-0.999912261963
1576080625281263022,,118425,,1576080625,281184392,"""world""",,,1.30104255676,0.0221411958337,0.567319393158,,-0.00347128720023,-0.010370737873,0.00728726200759,-0.999913692474
1576080625301544979,,118426,,1576080625,301458995,"""world""",,,1.30103313923,0.0221501998603,0.567319512367,,-0.00355881010182,-0.0102987280115,0.00735915964469,-0.999913573265
1576080625321474755,,118427,,1576080625,321392131,"""world""",,,1.30102038383,0.0221142247319,0.567324757576,,-0.00380225363187,-0.0103648379445,0.00779384886846,-0.999908745289
1576080625341259810,,118428,,1576080625,341193236,"""world""",,,1.30103909969,0.0221392028034,0.567331075668,,-0.00339424260892,-0.0103802857921,0.00738660991192,-0.999913156033
1576080625361248122,,118429,,1576080625,361182869,"""world""",,,1.30103182793,0.0221423935145,0.567319631577,,-0.00350054074079,-0.0103441718966,0.00742972688749,-0.999912798405
1576080625381325211,,118430,,1576080625,381247462,"""world""",,,1.30103671551,0.0221464317292,0.567323923111,,-0.00342192896642,-0.01033677347,0.00742348842323,-0.999913156033
1576080625401409928,,118431,,1576080625,401332606,"""world""",,,1.30103623867,0.0221299547702,0.567318916321,,-0.00367857399397,-0.0104171959683,0.0071089384146,-0.999913752079
1576080625421317375,,118432,,1576080625,421232011,"""world""",,,1.30102396011,0.0221050158143,0.567314088345,,-0.00377701572143,-0.0103895002976,0.00780534325168,-0.99990850687
1576080625441331821,,118433,,1576080625,441257819,"""world""",,,1.30104136467,0.0220862030983,0.567348778248,,-0.00334746437147,-0.00998906884342,0.00755650177598,-0.999916017056
1576080625461284467,,118434,,1576080625,461215334,"""world""",,,1.30100607872,0.0221222303808,0.567331731319,,-0.00369404628873,-0.0102402344346,0.00718996953219,-0.999914884567
1576080625481336394,,118435,,1576080625,481245519,"""world""",,,1.30102062225,0.0221200399101,0.567320227623,,-0.00372113659978,-0.0103836441413,0.00788441952318,-0.999908149242
1576080625501374985,,118436,,1576080625,501299475,"""world""",,,1.30103981495,0.022144632414,0.567322850227,,-0.00340352253988,-0.0103561626747,0.00741799594834,-0.999913156033
1576080625521247038,,118437,,1576080625,521175240,"""world""",,,1.30101525784,0.0221135877073,0.567318677902,,-0.00376828759909,-0.0104183992371,0.00793017167598,-0.999907195568
1576080625541318560,,118438,,1576080625,541245300,"""world""",,,1.30103874207,0.0221428610384,0.56733071804,,-0.00338305323385,-0.0103415176272,0.00741451140493,-0.999913334846
1576080625561429822,,118439,,1576080625,561343655,"""world""",,,1.3010392189,0.0221387147903,0.567325413227,,-0.00338853918947,-0.0103246551007,0.00748742790893,-0.999912917614
1576080625581339958,,118440,,1576080625,581259897,"""world""",,,1.30102193356,0.0221103988588,0.567317843437,,-0.00389652629383,-0.0103591233492,0.00797120854259,-0.999907016754
1576080625601302957,,118441,,1576080625,601234101,"""world""",,,1.30100131035,0.0220775976777,0.567321121693,,-0.00408484227955,-0.0101949516684,0.00776097271591,-0.999909579754
1576080625621730551,,118442,,1576080625,621631164,"""world""",,,1.30103719234,0.0221375543624,0.567317903042,,-0.00335915083997,-0.0103204315528,0.00740436697379,-0.999913752079
1576080625641303908,,118443,,1576080625,641227620,"""world""",,,1.30102753639,0.0221054945141,0.567322611809,,-0.00372579554096,-0.0103302774951,0.00785736460239,-0.999908864498
1576080625670999760,,118444,,1576080625,670910403,"""world""",,,1.30102264881,0.0220988634974,0.567320525646,,-0.00381011585705,-0.0104192728177,0.00794942583889,-0.99990695715
1576080625681403541,,118445,,1576080625,681330877,"""world""",,,1.3010571003,0.022150920704,0.56731069088,,-0.00333935394883,-0.0105801150203,0.00723387673497,-0.999912321568
1576080625711332796,,118446,,1576080625,711258252,"""world""",,,1.30103945732,0.0221362002194,0.567327678204,,-0.00331757683307,-0.0103797847405,0.00742914807051,-0.999913036823
1576080625721342538,,118447,,1576080625,721238278,"""world""",,,1.30103433132,0.0221228692681,0.567307949066,,-0.00360651430674,-0.0104523273185,0.00709636555985,-0.999913752079
1576080625741530411,,118448,,1576080625,741435791,"""world""",,,1.30100154877,0.0220846645534,0.567320108414,,-0.00407383870333,-0.0102217402309,0.00772809283808,-0.999909579754
1576080625761253357,,118449,,1576080625,761181107,"""world""",,,1.30101799965,0.0221009366214,0.567320406437,,-0.00375156966038,-0.0102267535403,0.00731978239492,-0.999913930893
1576080625784055209,,118450,,1576080625,783983295,"""world""",,,1.30101764202,0.0221049580723,0.567327022552,,-0.00381251680665,-0.0102394632995,0.00720148812979,-0.99991440773
1576080625801369666,,118451,,1576080625,801280353,"""world""",,,1.30103027821,0.0221436712891,0.567317962646,,-0.00333039299585,-0.0103657236323,0.00733084790409,-0.999913871288
1576080625821327162,,118452,,1576080625,821254811,"""world""",,,1.3010327816,0.0221287813038,0.567314326763,,-0.00341448769905,-0.0103274732828,0.00743221351877,-0.999913275242
1576080625841368077,,118453,,1576080625,841288586,"""world""",,,1.30102205276,0.0221137087792,0.567317485809,,-0.00380586087704,-0.0104058487341,0.00786446593702,-0.99990773201
1576080625861257654,,118454,,1576080625,861185279,"""world""",,,1.30102407932,0.0220922473818,0.567317664623,,-0.00379529455677,-0.0103493882343,0.00789379980415,-0.999908089638
1576080625881440448,,118455,,1576080625,881369730,"""world""",,,1.30103552341,0.0221284385771,0.567318201065,,-0.00341887329705,-0.0103872297332,0.00740905990824,-0.9999127388
1576080625901726886,,118456,,1576080625,901653645,"""world""",,,1.30102729797,0.0221382007003,0.567312777042,,-0.00348633807153,-0.0103366393596,0.00740126613528,-0.999913096428
1576080625921220943,,118457,,1576080625,921141915,"""world""",,,1.30101776123,0.0221034362912,0.56730902195,,-0.00379270408303,-0.0103738214821,0.00797296501696,-0.999907255173
1576080625941427236,,118458,,1576080625,941356941,"""world""",,,1.30105304718,0.0221572034061,0.567303836346,,-0.00334574421868,-0.0105411494151,0.00724031915888,-0.999912619591
1576080625961362330,,118459,,1576080625,961279082,"""world""",,,1.30104982853,0.022104807198,0.567341864109,,-0.00304925185628,-0.0100841457024,0.00774005940184,-0.999914586544
1576080625983621777,,118460,,1576080625,983553837,"""world""",,,1.3010276556,0.0221409965307,0.567325115204,,-0.0033943830058,-0.0103327929974,0.00738370651379,-0.999913692474
1576080626001466606,,118461,,1576080626,1376801,"""world""",,,1.30102455616,0.0221411921084,0.567311942577,,-0.00358340702951,-0.0103478366509,0.00749909039587,-0.99991196394
1576080626021302588,,118462,,1576080626,21230630,"""world""",,,1.30102705956,0.0221267286688,0.56732326746,,-0.00345368310809,-0.0103517901152,0.007450660225,-0.999912679195
1576080626041586131,,118463,,1576080626,41456357,"""world""",,,1.30102515221,0.0221425313503,0.567323863506,,-0.00346522917971,-0.0104157477617,0.00757151097059,-0.999911129475
1576080626061328115,,118464,,1576080626,61249463,"""world""",,,1.30102336407,0.0221008379012,0.567317426205,,-0.00380939384922,-0.0103210629895,0.00787476077676,-0.99990850687
1576080626081424292,,118465,,1576080626,81282286,"""world""",,,1.30101597309,0.0221056956798,0.567327320576,,-0.00370355765335,-0.0103666894138,0.00788636691868,-0.999908387661
1576080626101312670,,118466,,1576080626,101228546,"""world""",,,1.30101847649,0.0221102051437,0.567320227623,,-0.00374961225316,-0.0103619871661,0.00792368128896,-0.999907910824
1576080626121303279,,118467,,1576080626,121218687,"""world""",,,1.30101597309,0.0221091639251,0.567320644855,,-0.00388092175126,-0.0103449206799,0.00787604413927,-0.999908030033
1576080626141286306,,118468,,1576080626,141214097,"""world""",,,1.30104136467,0.0221445783973,0.567330181599,,-0.0034152220469,-0.0103522511199,0.00738035421818,-0.999913334846
1576080626161434069,,118469,,1576080626,161369391,"""world""",,,1.30104899406,0.0221061334014,0.56734418869,,-0.00320979626849,-0.0100980903953,0.00779466098174,-0.99991351366
1576080626181586146,,118470,,1576080626,181514666,"""world""",,,1.30103266239,0.0221391823143,0.567325532436,,-0.00338810356334,-0.0103410948068,0.00736758951098,-0.999913692474
1576080626201395526,,118471,,1576080626,201329522,"""world""",,,1.30102610588,0.0221388395876,0.56732404232,,-0.00341712730005,-0.0103082209826,0.00748955039307,-0.999912977219
1576080626221246028,,118472,,1576080626,221180868,"""world""",,,1.30102002621,0.0221113506705,0.567321956158,,-0.00376187916845,-0.01038877666,0.00796503853053,-0.999907255173
1576080626241298887,,118473,,1576080626,241232067,"""world""",,,1.30101954937,0.0221007838845,0.567314863205,,-0.00379541423172,-0.0103233419359,0.00794751103967,-0.999908030033
1576080626261429594,,118474,,1576080626,261362686,"""world""",,,1.30100274086,0.0221393946558,0.56730401516,,-0.00353505508974,-0.0102180335671,0.0080203935504,-0.99990940094
1576080626281365741,,118475,,1576080626,281270799,"""world""",,,1.30102586746,0.0221526082605,0.567324221134,,-0.00346573558636,-0.0103861503303,0.0073971208185,-0.999912679195
1576080626301408156,,118476,,1576080626,301324887,"""world""",,,1.30101954937,0.0221129953861,0.567312836647,,-0.003817939898,-0.0103437742218,0.0078917471692,-0.999908089638
1576080626321499177,,118477,,1576080626,321372833,"""world""",,,1.30102181435,0.0221335124224,0.567331314087,,-0.00341454986483,-0.0103316698223,0.00743685103953,-0.999913156033
1576080626341275656,,118478,,1576080626,341192606,"""world""",,,1.30101418495,0.0221093446016,0.567321121693,,-0.00382060324773,-0.0103864166886,0.00782395061105,-0.999908208847
1576080626361379867,,118479,,1576080626,361307931,"""world""",,,1.30101048946,0.0221641305834,0.567312717438,,-0.00312738539651,-0.0102175250649,0.00764775741845,-0.999913752079
1576080626381223768,,118480,,1576080626,381150858,"""world""",,,1.30101394653,0.0221123546362,0.567317903042,,-0.00373339653015,-0.010324748233,0.00794006697834,-0.999908208847
1576080626401347694,,118481,,1576080626,401276576,"""world""",,,1.30101442337,0.0221088081598,0.567323744297,,-0.0037458173465,-0.0103652086109,0.00787890609354,-0.999908268452
1576080626421309846,,118482,,1576080626,421238611,"""world""",,,1.3010187149,0.0220999903977,0.567312777042,,-0.00370862730779,-0.0103398887441,0.00783132947981,-0.999908983707
1576080626441220339,,118483,,1576080626,441144506,"""world""",,,1.30099511147,0.0220828726888,0.567324697971,,-0.00414485950023,-0.0102410782129,0.00770949618891,-0.999909281731
1576080626461304970,,118484,,1576080626,461231511,"""world""",,,1.30100953579,0.0221074093133,0.56732738018,,-0.00370058976114,-0.0102212373167,0.00718431035057,-0.99991518259
1576080626481431239,,118485,,1576080626,481308876,"""world""",,,1.30104124546,0.0221426803619,0.567311584949,,-0.00346698844805,-0.0104219112545,0.00732990261167,-0.999912858009
1576080626501615490,,118486,,1576080626,501528669,"""world""",,,1.30103838444,0.0220650471747,0.567341804504,,-0.00341635174118,-0.0101315118372,0.00810934975743,-0.999910056591
1576080626521418792,,118487,,1576080626,521347288,"""world""",,,1.30102300644,0.022113263607,0.567310214043,,-0.00379695254378,-0.0103883370757,0.00786420796067,-0.999907970428
1576080626541217679,,118488,,1576080626,541145564,"""world""",,,1.30103552341,0.0221434663981,0.567315578461,,-0.00344048440456,-0.0103118605912,0.00735181197524,-0.999913930893
1576080626561193795,,118489,,1576080626,561122872,"""world""",,,1.30104207993,0.0220742933452,0.567333817482,,-0.0035248962231,-0.0100807761773,0.00821365881711,-0.999909222126
1576080626581361554,,118490,,1576080626,581243350,"""world""",,,1.30103516579,0.0221315175295,0.567317247391,,-0.00340961012989,-0.0103592546657,0.00747358705848,-0.999912619591
1576080626601354922,,118491,,1576080626,601262927,"""world""",,,1.30103230476,0.0221449937671,0.567320585251,,-0.00356597080827,-0.0103630814701,0.00732608977705,-0.999913096428
1576080626621403810,,118492,,1576080626,621275239,"""world""",,,1.30102872849,0.0221395455301,0.567321836948,,-0.0034784770105,-0.0103727383539,0.00744757149369,-0.999912500381
1576080626641401212,,118493,,1576080626,641328299,"""world""",,,1.30102992058,0.022138286382,0.567310214043,,-0.0035442635417,-0.010341072455,0.00740376440808,-0.999912858009
1576080626661437399,,118494,,1576080626,661351122,"""world""",,,1.30101954937,0.0221617911011,0.567309916019,,-0.0031962855719,-0.0101267658174,0.007509005256,-0.999915421009
1576080626681270444,,118495,,1576080626,681184550,"""world""",,,1.30101466179,0.022108649835,0.567317247391,,-0.00382535718381,-0.0103325517848,0.00789425708354,-0.999908208847
1576080626701504961,,118496,,1576080626,701419877,"""world""",,,1.30101597309,0.0221094228327,0.567310988903,,-0.00380232487805,-0.0103754168376,0.00776954833418,-0.999908804893
1576080626721459715,,118497,,1576080626,721365671,"""world""",,,1.30101501942,0.0221050269902,0.567318558693,,-0.00383411161602,-0.0103823263198,0.00791531149298,-0.999907433987
1576080626741235882,,118498,,1576080626,741166215,"""world""",,,1.30103254318,0.0221344921738,0.567319869995,,-0.00345601234585,-0.010433149524,0.00744123896584,-0.999911904335
1576080626761264872,,118499,,1576080626,761196359,"""world""",,,1.30103099346,0.0221379026771,0.567317008972,,-0.00342863402329,-0.0103776454926,0.00751779135317,-0.999912023544
1576080626781345999,,118500,,1576080626,781264254,"""world""",,,1.30102241039,0.0221077762544,0.567322492599,,-0.00379258650355,-0.0103133991361,0.00793771445751,-0.999908149242
1576080626802796700,,118501,,1576080626,802727134,"""world""",,,1.301030159,0.0221447385848,0.567322432995,,-0.0034237941727,-0.0103397797793,0.00742625119165,-0.999913096428
1576080626821234546,,118502,,1576080626,821148876,"""world""",,,1.30104756355,0.022147776559,0.567319095135,,-0.00329276383854,-0.0105696702376,0.0072633754462,-0.999912381172
1576080626841424978,,118503,,1576080626,841335380,"""world""",,,1.30103182793,0.0221365001053,0.567313909531,,-0.0034909627866,-0.0103622032329,0.00746739469469,-0.999912321568
1576080626861521842,,118504,,1576080626,861447823,"""world""",,,1.30102777481,0.0221489034593,0.567323029041,,-0.00341861695051,-0.0103538399562,0.00739776622504,-0.999913215637
1576080626881532784,,118505,,1576080626,881464760,"""world""",,,1.30100107193,0.0221039988101,0.567331492901,,-0.00372985308059,-0.0101883299649,0.00728774257004,-0.999914646149
1576080626901284043,,118506,,1576080626,901211034,"""world""",,,1.30103170872,0.0221363846213,0.567334234715,,-0.00342187588103,-0.0103083485737,0.00733692431822,-0.999914109707
1576080626921461048,,118507,,1576080626,921308583,"""world""",,,1.30103123188,0.0221353024244,0.567323565483,,-0.00346341705881,-0.0103501034901,0.00742603372782,-0.999912858009
1576080626941280466,,118508,,1576080626,941180066,"""world""",,,1.3010289669,0.0221359413117,0.567322611809,,-0.00343710463494,-0.0103662796319,0.00745509378612,-0.999912559986
1576080626961266782,,118509,,1576080626,961192076,"""world""",,,1.3010071516,0.0221147090197,0.567332088947,,-0.00371212349273,-0.0102147348225,0.00718579208478,-0.999915122986
1576080626981309906,,118510,,1576080626,981211836,"""world""",,,1.30101621151,0.02210752666,0.567324280739,,-0.00379869295284,-0.0103805987164,0.0079719433561,-0.999907135963
1576080627001346667,,118511,,1576080627,1275249,"""world""",,,1.30103933811,0.022068079561,0.567339897156,,-0.00347479060292,-0.0101035824046,0.00821178313345,-0.999909222126
1576080627021378957,,118512,,1576080627,21285244,"""world""",,,1.30103564262,0.0221370067447,0.567336976528,,-0.00339944148436,-0.0103486599401,0.00729165645316,-0.999914169312
1576080627041246680,,118513,,1576080627,41111859,"""world""",,,1.30103027821,0.02212523669,0.567324399948,,-0.00335679901764,-0.010412379168,0.0074281943962,-0.999912619591
1576080627061497767,,118514,,1576080627,61408578,"""world""",,,1.30100762844,0.0221168063581,0.567337691784,,-0.00362891028635,-0.0101910457015,0.0072631817311,-0.99991518259
1576080627081362625,,118515,,1576080627,81270517,"""world""",,,1.30103898048,0.0221448186785,0.567328333855,,-0.0034210269805,-0.0103290453553,0.00741768209264,-0.999913275242
1576080627101327326,,118516,,1576080627,101228485,"""world""",,,1.30103373528,0.022143881768,0.567330658436,,-0.00344494660385,-0.010315483436,0.00735250627622,-0.999913871288
1576080627121251782,,118517,,1576080627,121182990,"""world""",,,1.3010289669,0.022121746093,0.567330002785,,-0.00355511228554,-0.0104061625898,0.00718836998567,-0.999913752079
1576080627141247476,,118518,,1576080627,141172794,"""world""",,,1.30103075504,0.0221336390823,0.567323148251,,-0.00341066927649,-0.01031784527,0.00740774907172,-0.999913573265
1576080627161172269,,118519,,1576080627,161104134,"""world""",,,1.30099284649,0.0220875721425,0.567322313786,,-0.00413534697145,-0.0102306641638,0.00763541134074,-0.999909937382
1576080627181281070,,118520,,1576080627,181206976,"""world""",,,1.30103719234,0.022131992504,0.56732237339,,-0.0033262767829,-0.0103170014918,0.00737293856218,-0.999914050102
1576080627201470236,,118521,,1576080627,201397807,"""world""",,,1.30102372169,0.0221041217446,0.567314684391,,-0.0037229268346,-0.0102927135304,0.00792261678725,-0.999908745289
1576080627221206638,,118522,,1576080627,221125986,"""world""",,,1.30103695393,0.0221363659948,0.56732583046,,-0.00341875711456,-0.0103889377788,0.00743217300624,-0.999912619591
1576080627241454262,,118523,,1576080627,241373813,"""world""",,,1.30103111267,0.0221411436796,0.567329883575,,-0.00340817705728,-0.0103255501017,0.00730242487043,-0.999914288521
1576080627261196180,,118524,,1576080627,261129940,"""world""",,,1.30102789402,0.0221374966204,0.567327082157,,-0.00339609617367,-0.0103572467342,0.00746181886643,-0.999912798405
1576080627281294810,,118525,,1576080627,281206660,"""world""",,,1.30100667477,0.0221197772771,0.567336201668,,-0.00369182578288,-0.0101871816441,0.007299259305,-0.999914705753
1576080627301306895,,118526,,1576080627,301228296,"""world""",,,1.30099821091,0.0220803897828,0.567320466042,,-0.00400749640539,-0.0102139692754,0.00766129884869,-0.999910533428
1576080627321570226,,118527,,1576080627,321502867,"""world""",,,1.30102312565,0.0221460815519,0.567323684692,,-0.00347747141495,-0.0103730829433,0.00749200163409,-0.999912142754
1576080627341372305,,118528,,1576080627,341302709,"""world""",,,1.30101132393,0.0221715979278,0.567302942276,,-0.00311202579178,-0.010230335407,0.00762510998175,-0.999913752079
1576080627361308853,,118529,,1576080627,361230595,"""world""",,,1.30104482174,0.0221657883376,0.56730645895,,-0.00332824443467,-0.0105561092496,0.0072821401991,-0.999912202358
1576080627381225845,,118530,,1576080627,381149164,"""world""",,,1.30103540421,0.0221446566284,0.567321300507,,-0.00351668987423,-0.010359861888,0.00745490146801,-0.999912440777
1576080627401295327,,118531,,1576080627,401208940,"""world""",,,1.30102849007,0.0221376400441,0.567319273949,,-0.00334247178398,-0.0103828525171,0.00756077142432,-0.99991196394
