rosbagTimestamp,x,y,theta
1576080620661570942,1.30102586746,0.0221438147128,-0.0146708497638
1576080620681562398,1.30103230476,0.0221424736083,-0.0147279175043
1576080620701431696,1.30101573467,0.0221708267927,-0.0152515328452
1576080620721458884,1.30101335049,0.0221011843532,-0.015605552113
1576080620741455596,1.30103290081,0.0221479330212,-0.0147432972196
1576080620765425240,1.30100476742,0.02210348472,-0.015915274026
1576080620781473405,1.30100440979,0.0221184585243,-0.0145910231621
1576080620801439732,1.30101084709,0.0221105199307,-0.0156026381115
1576080620821535453,1.30099868774,0.0221132505685,-0.0144921030103
1576080620841457919,1.30103063583,0.0221439432353,-0.0147545767706
1576080620864201657,1.3010185957,0.0221104696393,-0.0155375646301
1576080620881538241,1.30099058151,0.0220882892609,-0.015275996506
1576080620901458904,1.30103266239,0.0221406109631,-0.0147561990479
1576080620921646019,1.30099356174,0.0220856182277,-0.0154333273564
1576080620941640901,1.30099654198,0.0220850482583,-0.0156275937404
1576080620961764299,1.30100631714,0.0221266783774,-0.014487648696
1576080620981503429,1.30098676682,0.0220797732472,-0.0155337968496
1576080621001625667,1.30098724365,0.0220785625279,-0.0154603584401
1576080621021572243,1.30099987984,0.0221104510128,-0.0144609997987
1576080621041704769,1.30102241039,0.0221204534173,-0.014062580944
1576080621061411422,1.30101084709,0.0221086349338,-0.0156042683676
1576080621081494901,1.30100810528,0.0221689138561,-0.0152357655637
1576080621105221774,1.30100417137,0.02210919559,-0.0145574406418
1576080621121452737,1.3010058403,0.0221171528101,-0.0142866650986
1576080621141440769,1.30100488663,0.0221045594662,-0.014556481629
1576080621161505176,1.30100560188,0.0221191160381,-0.0144222491194
1576080621181536410,1.30102336407,0.0221082661301,-0.0156945539167
1576080621201445787,1.30101585388,0.0221107881516,-0.0156947926449
1576080621221394214,1.30100905895,0.0221313908696,-0.0143992489269
1576080621241392315,1.30103421211,0.0221419855952,-0.0146181859917
1576080621261404700,1.3010519743,0.0221499092877,-0.0143157836549
1576080621281659476,1.30100905895,0.0221196860075,-0.0145878953264
1576080621301447867,1.30101847649,0.0221056938171,-0.0157133653533
1576080621321531882,1.30102109909,0.02203983441,-0.0161103682819
1576080621341388631,1.30104410648,0.0221398342401,-0.0147052038123
1576080621361804255,1.30100035667,0.0220845937729,-0.0153581576749
1576080621381448669,1.30103564262,0.022134527564,-0.014774456573
1576080621401697147,1.30102086067,0.0221021641046,-0.0157739752983
1576080621425428953,1.30103456974,0.0221366304904,-0.0145968102148
1576080621441375099,1.30101752281,0.0221053529531,-0.0157069546519
1576080621461462875,1.30102241039,0.022108219564,-0.0156549111873
1576080621481617666,1.3010160923,0.0221053399146,-0.0156264263969
1576080621501481289,1.30102813244,0.0221387911588,-0.0148523793861
1576080621527264626,1.30101966858,0.022103978321,-0.0156638435479
1576080621558626855,1.3010083437,0.0221164915711,-0.0143259379111
1576080621562131425,1.30103051662,0.0221370756626,-0.0147361297772
1576080621581934946,1.30103230476,0.0221260953695,-0.0148039884037
1576080621601506625,1.30101382732,0.0221135132015,-0.0155547273921
1576080621621511779,1.30104959011,0.0221086647362,-0.0154128863127
1576080621641716636,1.30101907253,0.0221082381904,-0.0156478933393
1576080621668944176,1.30102932453,0.022141084075,-0.014892950007
1576080621682995348,1.30103290081,0.0221468955278,-0.0148372021442
1576080621701729438,1.30102956295,0.0221377070993,-0.0149490186574
1576080621721627424,1.3010314703,0.0221467707306,-0.0149117982116
1576080621741562473,1.30098617077,0.0220873914659,-0.0152525795043
1576080621761540108,1.30103051662,0.0221294444054,-0.0141220345201
1576080621781643804,1.30099284649,0.0220742709935,-0.015351241732
1576080621801455410,1.30102837086,0.0221465397626,-0.0148936735259
1576080621821360441,1.3010263443,0.0221496913582,-0.0145301426661
1576080621841426854,1.30100977421,0.0221140049398,-0.0155131299868
1576080621861502071,1.30101132393,0.0221261214465,-0.0144500961586
1576080621882197747,1.30099713802,0.0220838468522,-0.0154180722262
1576080621901431002,1.30098748207,0.0220808424056,-0.0155467294764
1576080621921474441,1.30102527142,0.0221397131681,-0.015020497751
1576080621941673017,1.30100345612,0.0221213605255,-0.0146205269365
1576080621961467613,1.301004529,0.0221150331199,-0.0146844324113
1576080621982492867,1.30100917816,0.0221058968455,-0.0155653136929
1576080622001431283,1.30100393295,0.0221088919789,-0.0159165985626
1576080622022870520,1.30102527142,0.0221424084157,-0.0150900634404
1576080622045309730,1.30099833012,0.0221212171018,-0.0156734828079
1576080622061502409,1.301009655,0.0221717171371,-0.0150427680641
1576080622081538690,1.30101263523,0.0221400242299,-0.014796201583
1576080622101461283,1.30102515221,0.0221502147615,-0.0150414515717
1576080622121538060,1.30104470253,0.0221599210054,-0.0143440324365
1576080622141487493,1.30101203918,0.0221054442227,-0.0158585907611
1576080622161714973,1.30100572109,0.0221189893782,-0.0156217049554
1576080622181429080,1.30100703239,0.0221113972366,-0.0156077495732
1576080622201550495,1.3010289669,0.0221504773945,-0.0146970620134
1576080622222012390,1.30100893974,0.0221185106784,-0.0144197701723
1576080622241373274,1.30102443695,0.0221449919045,-0.0147546327205
1576080622261430701,1.30099284649,0.0220732036978,-0.0155035924101
1576080622281573245,1.30103445053,0.0221449136734,-0.014842018647
1576080622301464105,1.30102849007,0.0221393611282,-0.0148659043854
1576080622321405435,1.30103027821,0.0221347771585,-0.0148184987648
1576080622341324791,1.30104708672,0.0221093650907,-0.0154298116367
1576080622361744055,1.30103027821,0.0221415385604,-0.0148142218173
1576080622381651777,1.30102157593,0.0221128128469,-0.0155580148491
1576080622401736531,1.30103397369,0.0221446156502,-0.014742596506
1576080622421437847,1.30104196072,0.0221393108368,-0.014667016564
1576080622441512296,1.30103194714,0.022138107568,-0.0147669958453
1576080622461562502,1.3010212183,0.0221067387611,-0.0144546658674
1576080622481435919,1.30101454258,0.0221074707806,-0.0145517091805
1576080622502254366,1.30099654198,0.0220828782767,-0.0155844301787
1576080622521570540,1.30101835728,0.0221091751009,-0.0144969550261
1576080622541510830,1.30102193356,0.022105563432,-0.0159763398115
1576080622561385858,1.30100417137,0.0220798086375,-0.0153562146456
1576080622581453564,1.30103361607,0.0221488531679,-0.0145728391995
1576080622601464277,1.30103468895,0.0221334118396,-0.0147431531027
1576080622621469272,1.30101799965,0.0221040137112,-0.0145422351154
1576080622641467025,1.30101144314,0.0221078749746,-0.0144173536753
1576080622661392640,1.300999403,0.0220810566097,-0.0154552394981
1576080622681410288,1.30100619793,0.0221073105931,-0.0144935474661
1576080622701430917,1.30101406574,0.0221070051193,-0.0144209393808
1576080622721385426,1.30103349686,0.0221329908818,-0.0146892312981
1576080622741378436,1.30103075504,0.0221361946315,-0.0147534350233
1576080622761590533,1.30103194714,0.0221406947821,-0.0147111032526
1576080622781512059,1.30101430416,0.0221624877304,-0.015066259811
1576080622801512834,1.30103802681,0.0221434924752,-0.0146648430851
1576080622821467150,1.301040411,0.0221500005573,-0.0146405762953
1576080622841390992,1.30100810528,0.0220785494894,-0.0154098724017
1576080622861596005,1.30100154877,0.0220773257315,-0.0154845905233
1576080622881524796,1.30100631714,0.0220816899091,-0.015214406013
1576080622901426901,1.30104029179,0.0221329256892,-0.0148677309312
1576080622922025881,1.30103230476,0.0221419949085,-0.0148142888304
1576080622941461595,1.30099594593,0.0220753420144,-0.0152963466675
1576080622961468709,1.30100774765,0.0221188794822,-0.0144379123394
1576080622981499737,1.30102050304,0.0221089534461,-0.0156770165329
1576080623001538564,1.30101191998,0.0221061334014,-0.0146146844189
1576080623021565419,1.30103135109,0.0221483949572,-0.0147251862137
1576080623041463050,1.30103588104,0.022135514766,-0.0147090330685
1576080623061358968,1.30102086067,0.0221049878746,-0.0143847913335
1576080623081611394,1.30103611946,0.0221307333559,-0.0146583236578
1576080623101774801,1.30100953579,0.0221179910004,-0.0144639012774
1576080623121464446,1.30102241039,0.0221085865051,-0.0158347770946
1576080623141480496,1.30102050304,0.0221039038152,-0.0156949179954
1576080623161460809,1.30103421211,0.0221389811486,-0.0147230271754
1576080623181420556,1.30101561546,0.0221010707319,-0.0156919478524
1576080623201417569,1.30101704597,0.0220995303243,-0.0158327992101
1576080623221346870,1.30101752281,0.0221136361361,-0.0158691890525
1576080623241312903,1.30103850365,0.022144569084,-0.0145103251739
1576080623267051829,1.30100679398,0.0221142005175,-0.0143775255994
1576080623281333414,1.3010340929,0.0221464000642,-0.0148411610248
1576080623301409969,1.30102968216,0.0221391711384,-0.0148215261687
1576080623321496339,1.30100500584,0.022114675492,-0.0146463286914
1576080623341347556,1.30102920532,0.0221429951489,-0.014664008928
1576080623361641651,1.300999403,0.0220737121999,-0.0154053120668
1576080623381819616,1.30103433132,0.0221270080656,-0.0148801212943
1576080623402170423,1.30103480816,0.0221349094063,-0.0145250728844
1576080623423735216,1.30102145672,0.022095259279,-0.0157354709272
1576080623441474611,1.30103671551,0.0221365671605,-0.014896645806
1576080623461407018,1.30100512505,0.0221026353538,-0.0145322186371
1576080623481681625,1.30100238323,0.0220797043294,-0.0153357274997
1576080623501392334,1.30103135109,0.0221465807408,-0.0148495165383
1576080623521379838,1.30103158951,0.022152453661,-0.014933417831
1576080623541415000,1.30101323128,0.0221165399998,-0.0144629166958
1576080623561330406,1.30102944374,0.0221389774233,-0.0150043497194
1576080623581488156,1.30103635788,0.0221215318888,-0.0140134051905
1576080623601315426,1.30103754997,0.0221316386014,-0.0147678399299
1576080623621433123,1.30103123188,0.0221400279552,-0.0148377182196
1576080623641351244,1.301019907,0.022106256336,-0.0156909001831
1576080623661588638,1.30103397369,0.0221365857869,-0.014680342348
1576080623681641783,1.30103588104,0.0221434570849,-0.0146270047819
1576080623701383827,1.3010365963,0.0221416801214,-0.0147955686978
1576080623721461771,1.30105602741,0.0221573021263,-0.0144664135819
1576080623741785290,1.30101299286,0.0221118628979,-0.0156468071965
1576080623761373606,1.30102729797,0.022134128958,-0.0147267515
1576080623781332137,1.30101823807,0.0221003536135,-0.0156440933504
1576080623801367431,1.30102801323,0.0221364013851,-0.0147211673746
1576080623821333483,1.30100893974,0.0221198853105,-0.014534545457
1576080623841501188,1.30103254318,0.0221498887986,-0.0148034532771
1576080623861535801,1.30103158951,0.0221409667283,-0.0148626985531
1576080623881535845,1.30103206635,0.022142123431,-0.0147215748062
1576080623901602547,1.30102038383,0.0221083275974,-0.0159280905019
1576080623921678288,1.30104458332,0.0221537053585,-0.0146100077309
1576080623941358774,1.30101716518,0.0221163630486,-0.0157054968241
1576080623961491896,1.30104613304,0.0221052020788,-0.0153870653349
1576080623981556675,1.3010314703,0.0221392177045,-0.0147321715513
1576080624001396395,1.30100142956,0.0221157297492,-0.0145972423515
1576080624021331781,1.30100345612,0.0220520887524,-0.0161259455371
1576080624041559027,1.30103683472,0.0221395585686,-0.0148686901816
1576080624065708827,1.30101728439,0.0221106056124,-0.015648860711
1576080624081364272,1.30099928379,0.0220788884908,-0.0155473593677
1576080624101443498,1.30099380016,0.022072924301,-0.0154932793565
1576080624121364691,1.30100357533,0.0220871847123,-0.0152769504839
1576080624141470720,1.300999403,0.0221038162708,-0.0144672178939
1576080624161611055,1.30102920532,0.0221420899034,-0.0148545507263
1576080624181727054,1.30101728439,0.0221149530262,-0.0155895947533
1576080624201455147,1.30103123188,0.0221540220082,-0.0147600995291
1576080624221315104,1.30102598667,0.0221390258521,-0.0146547447671
1576080624243166127,1.30102026463,0.0221100412309,-0.0156977469457
1576080624261362412,1.30103516579,0.022132832557,-0.0145980961645
1576080624281409962,1.30103707314,0.0221450235695,-0.0145943219425
1576080624301349585,1.30101680756,0.0221050493419,-0.0156796756892
1576080624322086915,1.30101788044,0.0221152752638,-0.0155592510157
1576080624341980723,1.30105316639,0.022152395919,-0.0145608646207
1576080624361629109,1.30101966858,0.0221121739596,-0.0156552735077
1576080624382706467,1.30103480816,0.0221350044012,-0.0149381363934
1576080624418068872,1.30103731155,0.0221492499113,-0.0146929832965
1576080624421399339,1.30102324486,0.0221123415977,-0.0157908761358
1576080624441996506,1.30101788044,0.0221092514694,-0.0157703790972
1576080624461343244,1.30103719234,0.0221479609609,-0.0146683138107
1576080624483402310,1.30104541779,0.0221532024443,-0.0143702410246
1576080624501764610,1.30102980137,0.0221401527524,-0.0146845313834
1576080624521884351,1.30103218555,0.0221439003944,-0.0148786076443
1576080624543037196,1.30102860928,0.0221394114196,-0.0146744266754
1576080624561845429,1.3010468483,0.0221579931676,-0.0145733555837
1576080624581763555,1.30101370811,0.0220967382193,-0.016696954348
1576080624601641800,1.30103611946,0.0221424549818,-0.0148598799927
1576080624622006436,1.30101919174,0.022112108767,-0.0157461025292
1576080624642056238,1.30101895332,0.0221080556512,-0.0158121878647
1576080624661940044,1.30102884769,0.0221363250166,-0.0148103287943
1576080624681443873,1.30102038383,0.0221697129309,-0.0149482271256
1576080624701627261,1.30101144314,0.0221212524921,-0.0145103270178
1576080624721902976,1.30104672909,0.0221484471112,-0.0147873701661
1576080624743253530,1.30101120472,0.0221192166209,-0.0145137353955
1576080624761504617,1.30103027821,0.0221153888851,-0.0157949430108
1576080624781940782,1.30098879337,0.0220797583461,-0.0153673507987
1576080624801267921,1.30101788044,0.0221383832395,-0.0148041499672
1576080624821841722,1.3010456562,0.0221582446247,-0.0144843025064
1576080624844723526,1.30101501942,0.0221125092357,-0.0158354244244
1576080624861648459,1.30102002621,0.0221170037985,-0.0156630715044
1576080624882630659,1.3010314703,0.0221451614052,-0.0145707485397
1576080624902014872,1.30102860928,0.0221379008144,-0.0145880493973
1576080624922791539,1.30101716518,0.0221060812473,-0.0157533913643
1576080624941407508,1.30099439621,0.0220724735409,-0.0153418085513
1576080624961487726,1.30101931095,0.0221041422337,-0.0156499321662
1576080624981291020,1.30105066299,0.0221370365471,-0.0144869848741
1576080625007462588,1.30102646351,0.0221436601132,-0.0145356639103
1576080625021911301,1.30103099346,0.0221354365349,-0.0147248615157
1576080625041487709,1.30101692677,0.0221012346447,-0.0156515480954
1576080625063002906,1.30103385448,0.0221437066793,-0.0146774570146
1576080625081900442,1.30099248886,0.0220794565976,-0.0153198944465
1576080625101500826,1.30101287365,0.0221218727529,-0.0144726647191
1576080625121527214,1.30102109909,0.0221143215895,-0.0155549109803
1576080625141863947,1.30103087425,0.0221458952874,-0.014626906802
1576080625161377242,1.30103099346,0.0221469160169,-0.0147320711228
1576080625183333724,1.30102789402,0.0221372637898,-0.0146381882578
1576080625201875128,1.301019907,0.0221168510616,-0.0158801659371
1576080625221711484,1.30103325844,0.0221503637731,-0.0147269941896
1576080625241529018,1.30101513863,0.0221217218786,-0.0142439507385
1576080625261383135,1.30103886127,0.0221412461251,-0.0148634966756
1576080625281280632,1.30104255676,0.0221411958337,-0.0145049086873
1576080625301576189,1.30103313923,0.0221501998603,-0.0146473905828
1576080625321493300,1.30102038383,0.0221142247319,-0.0155114272797
1576080625341292890,1.30103909969,0.0221392028034,-0.0147051821509
1576080625361281648,1.30103182793,0.0221423935145,-0.0147894564619
1576080625381331449,1.30103671551,0.0221464317292,-0.014778655611
1576080625401430561,1.30103623867,0.0221299547702,-0.01414356466
1576080625421351760,1.30102396011,0.0221050158143,-0.0155347704415
1576080625441351327,1.30104136467,0.0220862030983,-0.0150484422582
1576080625461315416,1.30100607872,0.0221222303808,-0.0143065633528
1576080625481391365,1.30102062225,0.0221200399101,-0.0156941578874
1576080625501389447,1.30103981495,0.022144632414,-0.014767925601
1576080625521256883,1.30101525784,0.0221135877073,-0.0157844532166
1576080625541328738,1.30103874207,0.0221428610384,-0.0147614736752
1576080625561441529,1.3010392189,0.0221387147903,-0.0149073266351
1576080625581350373,1.30102193356,0.0221103988588,-0.0158642946125
1576080625601351473,1.30100131035,0.0220775976777,-0.0154410950473
1576080625621746823,1.30103719234,0.0221375543624,-0.0147418081327
1576080625641319958,1.30102753639,0.0221054945141,-0.0156403132168
1576080625671015507,1.30102264881,0.0220988634974,-0.0158220871138
1576080625681411811,1.3010571003,0.022150920704,-0.0143995582312
1576080625711339026,1.30103945732,0.0221362002194,-0.0147918738413
1576080625721349135,1.30103433132,0.0221228692681,-0.0141196814528
1576080625741571157,1.30100154877,0.0220846645534,-0.0153753433147
1576080625761269596,1.30101799965,0.0221009366214,-0.0145651481136
1576080625784088876,1.30101764202,0.0221049580723,-0.0143271765678
1576080625801385347,1.30103027821,0.0221436712891,-0.014595057757
1576080625821344830,1.3010327816,0.0221287813038,-0.0147963215663
1576080625841400660,1.30102205276,0.0221137087792,-0.0156523207528
1576080625861288445,1.30102407932,0.0220922473818,-0.0157116216576
1576080625881449329,1.30103552341,0.0221284385771,-0.0147495348658
1576080625901749229,1.30102729797,0.0221382007003,-0.0147328688244
1576080625921231732,1.30101776123,0.0221034362912,-0.0158698614437
1576080625941447023,1.30105304718,0.0221572034061,-0.0144125536308
1576080625961377025,1.30104982853,0.022104807198,-0.015421059105
1576080625983641243,1.3010276556,0.0221409965307,-0.0146996718098
1576080626001490005,1.30102455616,0.0221411921084,-0.0149264651701
1576080626021327008,1.30102705956,0.0221267286688,-0.0148322543184
1576080626041594089,1.30102515221,0.0221425313503,-0.0150733463888
1576080626061344194,1.30102336407,0.0221008379012,-0.0156734454612
1576080626081428891,1.30101597309,0.0221056956798,-0.0156985366656
1576080626101321990,1.30101847649,0.0221102051437,-0.0157722555564
1576080626121326861,1.30101597309,0.0221091639251,-0.0156743572268
1576080626141308566,1.30104136467,0.0221445783973,-0.0146924117974
1576080626161461146,1.30104899406,0.0221061334014,-0.0155269529059
1576080626181599940,1.30103266239,0.0221391823143,-0.0146675103198
1576080626201420055,1.30102610588,0.0221388395876,-0.0149110852429
1576080626221269749,1.30102002621,0.0221113506705,-0.0158545421892
1576080626241323030,1.30101954937,0.0221007838845,-0.0158192450786
1576080626261451901,1.30100274086,0.0221393946558,-0.0159711226705
1576080626281409558,1.30102586746,0.0221526082605,-0.0147246832066
1576080626301435946,1.30101954937,0.0221129953861,-0.0157070854423
1576080626321502221,1.30102181435,0.0221335124224,-0.0148055708839
1576080626341319660,1.30101418495,0.0221093446016,-0.0155711060826
1576080626361405424,1.30101048946,0.0221641305834,-0.0152340692555
1576080626381286327,1.30101394653,0.0221123546362,-0.0158056302264
1576080626401378235,1.30101442337,0.0221088081598,-0.0156827444177
1576080626421331340,1.3010187149,0.0220999903977,-0.0155885231831
1576080626441239180,1.30099511147,0.0220828726888,-0.0153365348233
1576080626461327334,1.30100953579,0.0221074093133,-0.0142952396601
1576080626481452410,1.30104124546,0.0221426803619,-0.0145899633574
1576080626501633778,1.30103838444,0.0220650471747,-0.0161520478746
1576080626521444796,1.30102300644,0.022113263607,-0.0156521147907
1576080626541236447,1.30103552341,0.0221434663981,-0.0146350513404
1576080626561216363,1.30104207993,0.0220742933452,-0.0163588327869
1576080626581364447,1.30103516579,0.0221315175295,-0.0148789832169
1576080626601361564,1.30103230476,0.0221449937671,-0.0145806614566
1576080626621464891,1.30102872849,0.0221395455301,-0.0148254234606
1576080626641418233,1.30102992058,0.022138286382,-0.0147366357929
1576080626661453961,1.30101954937,0.0221617911011,-0.0149556434056
1576080626681285525,1.30101466179,0.022108649835,-0.0157120318995
1576080626701522217,1.30101597309,0.0221094228327,-0.0154627406457
1576080626721468931,1.30101501942,0.0221050269902,-0.0157536106035
1576080626741242235,1.30103254318,0.0221344921738,-0.0148128349687
1576080626761271949,1.30103099346,0.0221379026771,-0.0149668954949
1576080626781374841,1.30102241039,0.0221077762544,-0.0157997785412
1576080626802804033,1.301030159,0.0221447385848,-0.0147841243124
1576080626821256047,1.30104756355,0.022147776559,-0.0144596189476
1576080626841432057,1.30103182793,0.0221365001053,-0.0148648875933
1576080626861528283,1.30102777481,0.0221489034593,-0.0147271610369
1576080626881539645,1.30100107193,0.0221039988101,-0.014501772004
1576080626901309302,1.30103170872,0.0221363846213,-0.0146056782736
1576080626921471280,1.30103123188,0.0221353024244,-0.0147828009718
1576080626941291810,1.3010289669,0.0221359413117,-0.0148413741494
1576080626961272776,1.3010071516,0.0221147090197,-0.0142980137036
1576080626981316665,1.30101621151,0.02210752666,-0.0158676455013
1576080627001364336,1.30103933811,0.022068079561,-0.0163559460321
1576080627021408733,1.30103564262,0.0221370067447,-0.0145153328319
1576080627041259625,1.30103027821,0.02212523669,-0.0147889453674
1576080627061503974,1.30100762844,0.0221168063581,-0.0144546854392
1576080627081401766,1.30103898048,0.0221448186785,-0.0147671089687
1576080627101333873,1.30103373528,0.022143881768,-0.0146363246321
1576080627121257300,1.3010289669,0.022121746093,-0.0143051092295
1576080627141286790,1.30103075504,0.0221336390823,-0.0147475240358
1576080627161178292,1.30099284649,0.0220875721425,-0.0151886161734
1576080627181298127,1.30103719234,0.022131992504,-0.0146796425121
1576080627201475728,1.30102372169,0.0221041217446,-0.0157711626912
1576080627221215222,1.30103695393,0.0221363659948,-0.0147957600967
1576080627241462245,1.30103111267,0.0221411436796,-0.014536839642
1576080627261203391,1.30102789402,0.0221374966204,-0.0148557355617
1576080627281302005,1.30100667477,0.0221197772771,-0.0145255946508
1576080627301331722,1.30099821091,0.0220803897828,-0.0152431491472
1576080627321579076,1.30102312565,0.0221460815519,-0.0149143191744
1576080627341406567,1.30101132393,0.0221715979278,-0.0151890083647
1576080627361335336,1.30104482174,0.0221657883376,-0.0144964887732
1576080627381248858,1.30103540421,0.0221446566284,-0.014839375999
1576080627401323901,1.30102849007,0.0221376400441,-0.0150546316976
1576080627421317312,1.3010365963,0.0221459064633,-0.0147941643227
1576080627441291767,1.30103182793,0.0221403241158,-0.0147787744324
1576080627461326048,1.30103099346,0.0221512056887,-0.0148571907308
1576080627481440066,1.30102539062,0.0221460256726,-0.0148118049715
1576080627501283493,1.3010340929,0.0221543367952,-0.0148496863938
1576080627521300425,1.30104398727,0.0221646558493,-0.0143864610858
1576080627541512144,1.30102670193,0.0221441574395,-0.0149044934174
1576080627561217157,1.30103087425,0.0221459995955,-0.0146513448161
1576080627581280489,1.301019907,0.0221230182797,-0.0143496284525
1576080627601292070,1.30103766918,0.0221485793591,-0.0146738385163
1576080627622284999,1.30103170872,0.022144716233,-0.0149774288913
1576080627641236816,1.30100405216,0.0221204385161,-0.0145317062841
1576080627661349322,1.301030159,0.0221398547292,-0.0147850767534
1576080627681350159,1.30102598667,0.0221412889659,-0.0147453106509
1576080627701246716,1.30102443695,0.02214474231,-0.0148593141502
1576080627721296507,1.30102002621,0.0221125576645,-0.0155539766738
1576080627741202404,1.3010481596,0.0221550501883,-0.0145878956266
1576080627761298571,1.30101585388,0.0221066642553,-0.0157584769847
1576080627781392365,1.30102646351,0.0221386421472,-0.0145738491544
1576080627801350793,1.3010481596,0.0221571642905,-0.014414758764
1576080627821318756,1.30101418495,0.0221098735929,-0.0156239836692
1576080627841311792,1.30098700523,0.0221376605332,-0.0159734182965
1576080627861251571,1.30105543137,0.0221556667238,-0.0144808540305
1576080627881441566,1.30103600025,0.0221373103559,-0.0146826339359
1576080627901875229,1.30104470253,0.0221565924585,-0.0145243771621
1576080627921277321,1.30102443695,0.0220977310091,-0.0157150059794
1576080627941296237,1.30101394653,0.0221116058528,-0.0157107784611
1576080627961293463,1.30100429058,0.0221154671162,-0.0145211646997
1576080627981261557,1.30101358891,0.0221113972366,-0.0157797141151
1576080628001251004,1.30100727081,0.0221110526472,-0.0143955523843
1576080628021385838,1.30101513863,0.0221105292439,-0.0156739982115
1576080628041286622,1.30102825165,0.022151440382,-0.0142588324739
1576080628061225552,1.3010456562,0.022157933563,-0.0144600107785
1576080628081931954,1.30100297928,0.0221245996654,-0.0145639296471
1576080628101354880,1.30101394653,0.0221123099327,-0.0157204375599
1576080628121256972,1.30100774765,0.0221064500511,-0.0157869829196
1576080628141413190,1.3010174036,0.0221357475966,-0.0150848010207
1576080628161228540,1.30102682114,0.0221450831741,-0.0147966232856
1576080628181215674,1.30102670193,0.0221343152225,-0.0148432255033
1576080628201353163,1.30099964142,0.0221223644912,-0.0145462572149
1576080628221268394,1.30100786686,0.0221156440675,-0.0144518270165
1576080628241217447,1.30101203918,0.022113725543,-0.0143544496667
1576080628261483375,1.30102682114,0.0221405867487,-0.0147063677712
1576080628281348143,1.30102443695,0.0221436899155,-0.0147570942459
1576080628301371769,1.30101561546,0.0221012104303,-0.0154637557516
1576080628321221420,1.30103600025,0.0221523270011,-0.0146694941215
1576080628341569931,1.30100631714,0.0221104752272,-0.0155373067862
1576080628361191531,1.30103206635,0.0221337527037,-0.0147736179076
1576080628381268472,1.3010276556,0.0220926795155,-0.0155517564793
1576080628401266451,1.30105733871,0.02209626697,-0.0154454316838
1576080628421264537,1.30105924606,0.0221472606063,-0.0144135571151
1576080628441308215,1.30102539062,0.0221196226776,-0.0156398098857
1576080628461487133,1.30104601383,0.0221475418657,-0.0145476933298
1576080628481397082,1.30103611946,0.022142034024,-0.0146216784972
1576080628501552940,1.3010314703,0.0221330411732,-0.0149681892133
1576080628521244598,1.30101835728,0.0221080649644,-0.0158326820951
1576080628543641559,1.30105221272,0.0221191085875,-0.0155846065466
1576080628561628407,1.30101835728,0.0221124403179,-0.0157081087503
1576080628581287514,1.3010174036,0.0221018567681,-0.0158530859861
1576080628601200397,1.30104255676,0.0221573803574,-0.0145331910824
1576080628621224980,1.30101549625,0.0221020001918,-0.0158052765491
1576080628641278711,1.301019907,0.022134963423,-0.0147195386229
1576080628661251817,1.30102670193,0.0221415366977,-0.0147284667021
1576080628681559153,1.3010071516,0.0221575107425,-0.0151611524535
1576080628701244604,1.30101299286,0.022114418447,-0.0156126483665
1576080628721388489,1.30104863644,0.0221109781414,-0.0155382050402
1576080628741595833,1.3010263443,0.0221336893737,-0.0147311534524
1576080628761227251,1.30101716518,0.022096965462,-0.0157136574926
1576080628781218575,1.30101752281,0.0221572834998,-0.0151680014113
1576080628801300413,1.30103325844,0.0221750196069,-0.0149107450477
1576080628821187562,1.30101943016,0.0221045315266,-0.0156953469084
1576080628841331136,1.30103111267,0.0221432503313,-0.0147095569822
1576080628861424543,1.301030159,0.0221344940364,-0.0147789972854
1576080628881227747,1.30103254318,0.0221448708326,-0.014707053115
1576080628901244525,1.30102968216,0.0221272613853,-0.0149625704466
1576080628921361467,1.30099880695,0.0220863074064,-0.0153794489123
1576080628941571097,1.30101132393,0.0221099052578,-0.0143853825085
1576080628961158805,1.30099761486,0.0222226139158,-0.0163884504735
1576080628981283829,1.30097973347,0.0221381355077,-0.0181436420792
1576080629001271375,1.3010174036,0.0221189837903,-0.0162279796534
1576080629021312025,1.3009698391,0.0221368409693,-0.0183447915027
1576080629041267389,1.30096614361,0.0222179014236,-0.0180479101856
1576080629061219760,1.30104017258,0.0220687780529,-0.0164442581482
1576080629081310883,1.30108094215,0.0221651103348,-0.0142394370303
1576080629101284251,1.30103445053,0.0221787597984,-0.0155703676879
1576080629121246609,1.30098927021,0.0221871305257,-0.0185014895381
1576080629141242535,1.30108141899,0.0221882723272,-0.0175776893143
1576080629161235820,1.30131840706,0.0225777328014,-0.0178439360733
1576080629181354876,1.30177211761,0.0226680431515,-0.0190168088895
1576080629201336566,1.30233943462,0.0225634276867,-0.0199817814546
1576080629221209764,1.30297791958,0.0224550720304,-0.0176057645421
1576080629241178107,1.30379927158,0.0224613193423,-0.0148112254199
1576080629261556567,1.30487072468,0.0225179996341,-0.0159263782564
1576080629281388159,1.30610501766,0.0224524531513,-0.016904801149
1576080629301161057,1.30745279789,0.0224819853902,-0.0191104300989
1576080629322314347,1.3089979887,0.0225387923419,-0.0125893678074
1576080629341279391,1.31071186066,0.0226834230125,-0.0131732931818
1576080629362759696,1.31274425983,0.0225456673652,-0.0153017406496
1576080629381189050,1.31489014626,0.0224526971579,-0.0187591919644
1576080629401128854,1.31723475456,0.0222780425102,-0.0174839236348
1576080629421316611,1.31965780258,0.022524850443,-0.0143343660613
1576080629441012006,1.32241487503,0.0222625881433,-0.0164862883229
1576080629461457784,1.32522702217,0.0221311859787,-0.0180139221742
1576080629481134826,1.32828390598,0.0220607481897,-0.0192189054696
1576080629501060000,1.33139324188,0.0219641849399,-0.0174441513413
1576080629521251112,1.33477401733,0.0221511423588,-0.0107196156342
1576080629541280767,1.33836102486,0.0221007671207,-0.0163145125863
1576080629560993977,1.34212255478,0.022108707577,-0.0142945043808
1576080629581154812,1.34571707249,0.0222454704344,-0.0115145828488
1576080629601067652,1.34957718849,0.0219152774662,-0.0090831788048
1576080629621216460,1.35346150398,0.0216306522489,-0.00803627252488
1576080629641245081,1.35753381252,0.0217698514462,-0.0144465409892
1576080629661195028,1.36170589924,0.0220210459083,-0.0162747560971
1576080629681569669,1.36609911919,0.0220670998096,-0.0160108068917
1576080629701080961,1.370626688,0.021752756089,-0.0156156863105
1576080629721208728,1.37514960766,0.0212824046612,-0.00700840346165
1576080629741069561,1.37976431847,0.0215921122581,-0.0106251117211
1576080629761286876,1.38475751877,0.0216078609228,-0.0155675267389
1576080629781201864,1.38941586018,0.0216184072196,-0.0180904448323
1576080629801166973,1.3944901228,0.0215708073229,-0.00467839921794
1576080629821363572,1.39958298206,0.0212789382786,-0.00464909816929
1576080629841155533,1.40489530563,0.0213766358793,-0.00876090898195
1576080629861237411,1.40996015072,0.0215854849666,-0.0115325245457
1576080629881201714,1.41528987885,0.0215175170451,-0.0132186002217
1576080629901207243,1.42055022717,0.0213928241283,-0.0132023636918
1576080629921446835,1.4259724617,0.0210966430604,-0.0151560887475
1576080629941457463,1.43142974377,0.0210997071117,-0.0129678745044
1576080629961113779,1.43671178818,0.0213099904358,-0.0217374494986
1576080629981195906,1.44239866734,0.0213542729616,-0.0161135099014
1576080630001071545,1.4479817152,0.0212134737521,-0.0145301340737
1576080630021031166,1.45348703861,0.0208387896419,-0.00307826149598
1576080630041048832,1.45909869671,0.0212500281632,-0.000126278577933
1576080630061221164,1.46481359005,0.0209880322218,-0.0169262646736
1576080630081528841,1.47043502331,0.020960316062,-0.0250576281356
1576080630105389261,1.47602152824,0.0210362374783,-0.0609467035791
1576080630121295174,1.48175787926,0.0212187506258,-0.730518448401
1576080630141204298,1.48737227917,0.0213788487017,-3.07362742427
1576080630161125007,1.49290585518,0.020968336612,-3.10545535663
1576080630182317071,1.49859654903,0.0213675182313,-3.09607136764
1576080630201123738,1.50411593914,0.0213354434818,-3.08247093361
1576080630221295798,1.50959873199,0.0213890261948,-3.09355957914
1576080630241099147,1.51516079903,0.0210668519139,-3.12632913455
1576080630261186482,1.52026581764,0.0212769433856,-3.12042644321
1576080630281100720,1.52547943592,0.0214277710766,-3.11383067014
1576080630301032378,1.53060436249,0.0213857404888,-3.11811847301
1576080630321052042,1.53543365002,0.0214556958526,-3.12647476643
1576080630341077840,1.54019892216,0.021461987868,-3.12751833247
1576080630361065347,1.54473567009,0.0213168878108,-3.12407909343
1576080630381310868,1.54926240444,0.021517239511,-3.11981924965
1576080630401119906,1.55349302292,0.0216563381255,-3.11831388528
1576080630421036476,1.55772197247,0.0213952865452,-3.12216678902
1576080630450662153,1.56155598164,0.0214214101434,-3.12322445691
1576080630476465014,1.56529533863,0.0212849918753,-3.12251649249
1576080630481045597,1.56860518456,0.0214201137424,-3.12582737015
1576080630501162447,1.57185745239,0.0216198060662,-3.11982190419
1576080630521245644,1.57465434074,0.0220451243222,-3.11450204181
1576080630542765066,1.57751297951,0.0215559247881,-3.11833737343
1576080630561185275,1.58007633686,0.021154595539,-3.1279763714
1576080630581254030,1.58232617378,0.0212385617197,-3.12680727352
1576080630603217370,1.58423495293,0.0217339657247,-3.11602712688
1576080630621408709,1.58600413799,0.0215782690793,-3.1215907083
1576080630641229977,1.58744955063,0.0213892385364,-3.12692797333
1576080630661864582,1.58863222599,0.0213739834726,-3.12599724396
1576080630681952482,1.58986866474,0.0215918980539,-3.12194250654
1576080630701007923,1.5906342268,0.0218282788992,-3.11851315968
1576080630721096864,1.59140539169,0.0217768885195,-3.10666955794
1576080630741014101,1.59187984467,0.0217349324375,-3.10801572107
1576080630761350112,1.5922755003,0.0215051639825,-3.09797761951
1576080630785050743,1.59234762192,0.021526183933,-3.08780029281
1576080630801294745,1.5923101902,0.0217854920775,-3.08650796193
1576080630821135104,1.59202706814,0.0213811378926,-3.06395260375
1576080630841450020,1.5916608572,0.021281182766,-3.05923534548
1576080630861282826,1.59121441841,0.0213737804443,-3.01389345717
1576080630881230382,1.59060800076,0.0215470381081,-2.92934385701
1576080630901336475,1.58992552757,0.0214912854135,-2.52054059456
1576080630921181758,1.58927583694,0.0216643791646,-0.573010852456
1576080630941307365,1.58864080906,0.0214220602065,-0.190765090634
1576080630961343210,1.58808362484,0.0214990600944,-0.107746064831
1576080630981074291,1.58747899532,0.021477477625,-0.059479519381
1576080631001123116,1.5869576931,0.0212343595922,-0.0498016709119
1576080631021111105,1.5864136219,0.0213120877743,-0.0405436832548
1576080631041109855,1.5861260891,0.0214328672737,-0.0450265374915
1576080631061143796,1.5860170126,0.0214134082198,-0.0407077379672
1576080631080999171,1.58592402935,0.0212198402733,-0.0294403010821
1576080631103975036,1.58610880375,0.0209406465292,-0.0193846744316
1576080631121376879,1.58656227589,0.0209403634071,-0.0169456728951
1576080631141290701,1.58729064465,0.0209626629949,-0.0169248027979
1576080631161144803,1.58814394474,0.0209350530058,-0.0128654315593
1576080631181179395,1.58919048309,0.0210407935083,-0.00351657256305
1576080631201131392,1.59064030647,0.02061134018,-0.00537293967724
1576080631221022912,1.59220445156,0.0207070745528,-0.00506193722264
1576080631241137164,1.59405303001,0.0209174901247,-0.00993979777546
1576080631261111538,1.59626996517,0.0206743367016,-0.00566442370561
1576080631281082752,1.59876787663,0.0205550026149,-0.00838895827572
1576080631301280723,1.60143208504,0.020300379023,-0.00520895680976
1576080631321123796,1.60465884209,0.0201723258942,-0.00797972617922
1576080631341308619,1.60796427727,0.0203565787524,-0.00770662117962
1576080631361224373,1.61156082153,0.0200461726636,-0.00346989136918
1576080631381200406,1.61532330513,0.0198949724436,-0.00328908602167
1576080631401173083,1.61946296692,0.0199682917446,-0.0107623538314
1576080631421039889,1.62352883816,0.0198705866933,-0.000440726560777
1576080631441094697,1.62789571285,0.0197657607496,-0.0044012454698
1576080631461210290,1.63229823112,0.01962335594,-0.0299042200975
1576080631481233637,1.63670134544,0.0197710543871,2.85757628719
1576080631501209182,1.64113843441,0.0194308999926,-3.11115291802
1576080631521175192,1.64557695389,0.0195636451244,-3.11620826685
1576080631548771958,1.6499620676,0.019901778549,-3.11986819863
1576080631561477989,1.65432274342,0.01939268969,-3.13438837852
1576080631581371928,1.65855813026,0.0194682143629,-3.12355725998
1576080631609878114,1.66255068779,0.0197200365365,-3.1346910803
1576080631621196690,1.66647529602,0.0190609302372,-3.13607413139
1576080631641112503,1.66997826099,0.0191607922316,-3.13045012591
1576080631661217043,1.6733506918,0.0190926361829,-3.1265315882
1576080631681240349,1.67652320862,0.0191387683153,-3.12482664658
1576080631701174373,1.67907476425,0.0191654395312,-3.12445584926
1576080631721172597,1.68180680275,0.0184854660183,-3.1305085291
1576080631741278758,1.68394267559,0.0185999125242,-3.12652200386
1576080631761100561,1.68583106995,0.0188391748816,-3.11986258489
1576080631781091514,1.68715965748,0.0188758242875,-3.1188902566
1576080631801122820,1.68817472458,0.0186796598136,-3.11717018011
1576080631821072737,1.68935072422,0.0184878278524,-3.10733139107
1576080631841339463,1.68991863728,0.0185070876032,-3.10071797275
1576080631861043715,1.69027650356,0.0184747986495,-3.0940898412
1576080631881354831,1.69068932533,0.0186634995043,-3.06361821008
1576080631901071265,1.69055318832,0.0181807652116,-3.06628101982
1576080631922607072,1.69025015831,0.0182314980775,-3.0080343287
1576080631944520705,1.68983721733,0.01857079193,-2.73595685551
1576080631961142974,1.68922758102,0.01812954247,-0.455949784852
1576080631981575411,1.68883705139,0.0176118202507,-0.141975576738
1576080632001250827,1.68834078312,0.0177393499762,-0.0867288839135
1576080632021079444,1.68793022633,0.0178593359888,-0.0625385546521
1576080632041248598,1.6878246069,0.0175807066262,-0.0589941838603
1576080632061195797,1.68770360947,0.0174213275313,-0.0356878669674
1576080632084092436,1.68782734871,0.0173046551645,-0.0289047090245
1576080632101235735,1.6881262064,0.0172519572079,-0.0206885368151
1576080632121181328,1.6889206171,0.0170647613704,-0.0225154223518
1576080632141123432,1.68986272812,0.0173367373645,-0.0142720296874
1576080632161445419,1.69086897373,0.0170848444104,-0.00978011181947
1576080632181670648,1.69238162041,0.0166611969471,-0.00254361154585
1576080632200979894,1.69427287579,0.0164314843714,-0.0052549044454
1576080632221022349,1.69633090496,0.0165022630244,-0.00621166548144
1576080632241002651,1.69883656502,0.0162391271442,-0.00554145847335
1576080632261241516,1.70149457455,0.016029432416,-0.00422437643888
1576080632281036599,1.70467448235,0.0157704483718,-0.00417401745465
1576080632301165180,1.70805943012,0.0157479736954,-0.00723175357801
1576080632321101460,1.71176087856,0.0155794862658,-0.00118765040485
1576080632341112638,1.71550154686,0.0155112296343,-0.00405254794701
1576080632361154966,1.71950304508,0.0151862083003,0.000674617956893
1576080632381090165,1.72369205952,0.0148069802672,-0.00080183913928
1576080632401153884,1.72809255123,0.0149249080569,-0.00505624454363
1576080632421195510,1.73256850243,0.0147103127092,-0.00117967863787
1576080632441163785,1.73705029488,0.0145669346675,0.0144563475378
1576080632461318501,1.74161291122,0.014673105441,0.0853571775224
1576080632481327815,1.74601829052,0.0148842055351,-3.13395187491
1576080632501342616,1.75053334236,0.0144077427685,-3.08927750701
1576080632521346409,1.75497758389,0.0145157296211,-3.09918878971
1576080632546610146,1.75950717926,0.0146218053997,-3.1105363345
1576080632561228372,1.76358389854,0.0146713461727,-3.11262904002
1576080632585246001,1.76739239693,0.0144337723032,-3.12443006465
1576080632601009585,1.7711776495,0.0143064847216,-3.12184343872
1576080632621256762,1.77474343777,0.0141767868772,-3.12325967781
1576080632641445475,1.77800130844,0.0146971521899,-3.10961449805
1576080632661286429,1.78095912933,0.0149123314768,-3.10197228195
1576080632687296375,1.78376841545,0.0142120514065,-3.11767928555
1576080632701214215,1.78615701199,0.0141425495967,-3.11937689346
1576080632721303600,1.78833019733,0.0140752326697,-3.12236928406
1576080632741795145,1.79034256935,0.0140737770125,-3.12352974639
1576080632761443991,1.79206299782,0.0139332041144,-3.12057486765
1576080632789387338,1.79354131222,0.0138996662572,-3.11940051851
1576080632801140110,1.7948063612,0.01366523467,-3.11901458274
1576080632821311478,1.79580175877,0.0136897759512,-3.12113117128
1576080632841289895,1.79658448696,0.0137534504756,-3.11813895649
1576080632861297662,1.79720711708,0.013707254082,-3.11746047316
1576080632881234734,1.79754829407,0.0137319918722,-3.11253925254
1576080632901280272,1.79772150517,0.0135642923415,-3.11595525373
1576080632921304879,1.797544837,0.013654765673,-3.11463336257
1576080632941179925,1.79737234116,0.0137353762984,-3.11606262727
1576080632961278568,1.79692494869,0.0135813429952,-3.11301936736
1576080632981246175,1.79628634453,0.0135951424018,-3.11643388115
1576080633001371660,1.79540812969,0.0134617406875,-3.11361071176
1576080633021406678,1.79431629181,0.0135996825993,-3.11336554011
1576080633041385631,1.79303717613,0.0136947510764,-3.1105710466
1576080633061357863,1.79178595543,0.0134123275056,-3.11202866095
1576080633081274600,1.79028820992,0.0132118286565,-3.11529121208
1576080633101155121,1.78875482082,0.0132575249299,-3.12096142657
1576080633121320909,1.78665721416,0.0129227926955,-3.11327990339
1576080633141501140,1.78457176685,0.0129882320762,-3.11296897882
1576080633161315511,1.78237271309,0.0129525382072,-3.11620590372
1576080633181277163,1.78003692627,0.0129808969796,-3.11562209274
1576080633209532941,1.7775812149,0.0128600550815,-3.11285496024
1576080633221460465,1.77474713326,0.0125541947782,-3.11493865607
1576080633249711031,1.77198421955,0.0126385018229,-3.11892270384
1576080633261312741,1.7689845562,0.012732418254,-3.11856293172
1576080633281207860,1.76597082615,0.012706479989,-3.11477313813
1576080633301341024,1.76276481152,0.0129172783345,-3.12362151841
1576080633321304185,1.75936543941,0.0126449298114,-3.12885061126
1576080633341272945,1.75640428066,0.0130559271201,-3.11190152176
1576080633367674611,1.75336015224,0.0130590917543,-3.12083760815
1576080633381327849,1.75017893314,0.0126469712704,-3.1294299277
1576080633401217164,1.74674654007,0.0124436253682,-3.12220156153
1576080633421163259,1.74381792545,0.0126142166555,-3.11834755139
1576080633441579261,1.74062240124,0.0125422738492,-3.11394931231
1576080633461285726,1.73734819889,0.012349777855,-3.12466576643
1576080633481615725,1.73388981819,0.0123062208295,-3.12460927767
1576080633501325124,1.73024058342,0.0122608281672,-3.11556790166
1576080633521411778,1.72657740116,0.0120495883748,-3.12036929824
1576080633541618523,1.72305560112,0.0120802978054,-3.11686097106
1576080633561612082,1.71911931038,0.0120836431161,-3.12120312094
1576080633581599514,1.71522510052,0.0120780467987,-3.11792564513
1576080633601293022,1.71129310131,0.0120702534914,-3.12681529393
1576080633623084730,1.70722603798,0.0120142316446,-3.1235387024
1576080633642120649,1.70321381092,0.0118519933894,-3.11624178068
1576080633663430387,1.69886398315,0.0120364567265,-3.11959659836
1576080633681362683,1.69442331791,0.012154456228,-3.12119304003
1576080633701254922,1.69014680386,0.0120628010482,-3.11623140379
1576080633721553765,1.68570399284,0.0120734954253,-3.12525985546
1576080633741382093,1.68108391762,0.0123488986865,-3.12263494505
1576080633761261449,1.67684423923,0.0120137706399,-3.12359175811
1576080633781258582,1.67196726799,0.0119503391907,-3.12477887948
1576080633801219190,1.66822934151,0.0127927586436,-3.13247124671
1576080633821344136,1.66504395008,0.0134362326935,-3.13627449095
1576080633841463811,1.66181945801,0.0126971034333,-3.13053563382
1576080633861426897,1.65880346298,0.0124607989565,-3.11422098895
1576080633881348636,1.65617060661,0.0122905857861,-3.1233061058
1576080633901374882,1.65295934677,0.0122585631907,-3.12453218748
1576080633921461773,1.64970231056,0.0121620278805,-3.1279730369
1576080633948431071,1.64662373066,0.0124786552042,-3.12505049057
1576080633961459661,1.6432672739,0.01228794083,-3.12197994238
1576080633994768789,1.63985145092,0.0120669743046,-3.12473841168
1576080634001453393,1.63658094406,0.0124465106055,-3.11831845223
1576080634021522730,1.63327729702,0.0122376233339,-3.123578396
1576080634041534982,1.62959969044,0.0120956329629,-3.12403406558
1576080634061698381,1.62569642067,0.012208821252,-3.12614605365
1576080634081516447,1.62221813202,0.012245375663,-3.12068813193
1576080634102027170,1.61805319786,0.0124119231477,-3.12343448393
1576080634121472266,1.61393034458,0.0124660478905,-3.11896663197
1576080634141413681,1.60984623432,0.0124896867201,-3.12290409565
1576080634161459117,1.60594213009,0.0125205004588,-3.12530026403
1576080634182596096,1.60214221478,0.0125778922811,-3.11457571658
1576080634201290060,1.59836518764,0.0122177861631,-3.11299194305
1576080634222028860,1.59491717815,0.0128371948376,-3.10418023673
1576080634241580689,1.59100210667,0.0127600999549,-3.10025383686
1576080634261392774,1.58741784096,0.012697076425,-3.10338943219
1576080634281318793,1.58389317989,0.0129143483937,-3.10373958562
1576080634301329237,1.58067941666,0.0129033662379,-3.10372964099
1576080634321375003,1.57726061344,0.0127015151083,-3.11203854173
1576080634341260500,1.57419478893,0.0129348551854,-3.09295173496
1576080634361174406,1.57122540474,0.0133073329926,-3.07221166595
1576080634381311807,1.56796956062,0.0131288059056,-3.06265256237
1576080634401393519,1.56520581245,0.0131108891219,-3.05114495903
1576080634421644212,1.56217837334,0.0129416454583,-3.06835909839
1576080634441718138,1.5594149828,0.0133134443313,-3.0096520143
1576080634461384491,1.55703866482,0.0136136598885,-2.87602801738
1576080634482803365,1.55469381809,0.0132979666814,-2.75350493087
1576080634501769111,1.55211079121,0.013128538616,-2.42932546546
1576080634521694504,1.55003845692,0.0136237805709,-0.894062122194
1576080634541587024,1.54764676094,0.0133316265419,-0.330146476843
1576080634561295354,1.54566574097,0.0133724398911,-0.203699462734
1576080634581264263,1.54346239567,0.0133346011862,-0.131316428232
1576080634601469937,1.54132962227,0.0134878018871,-0.127708588027
1576080634621305476,1.53902769089,0.0135919945315,-0.102430701133
1576080634641385552,1.53694903851,0.0135615142062,-0.0906576142059
1576080634661566074,1.53472733498,0.0137482732534,-0.0649321967858
1576080634681882939,1.53245127201,0.0140249785036,-0.0598970703612
1576080634701325855,1.53031671047,0.0139850089327,-0.0500154004112
1576080634721207630,1.52801156044,0.0139070209116,-0.0352586777108
1576080634741131237,1.52552938461,0.0142346657813,-0.0496970238628
1576080634761659679,1.52308452129,0.014314728789,-0.0490889614833
1576080634781366690,1.52057349682,0.0144110368565,-0.0464149417485
1576080634801984249,1.51822447777,0.0145146688446,-0.0436384816468
1576080634821212381,1.51574969292,0.0143097117543,-0.0331677456049
1576080634841384070,1.51303637028,0.0143943568692,-0.0258339575553
1576080634861368883,1.5104688406,0.0144868558273,-0.0172296103223
1576080634881453023,1.50731384754,0.0150543404743,-0.0178958308108
1576080634901303197,1.50457286835,0.0143304672092,-0.0234108981233
1576080634921292801,1.50143742561,0.0147337252274,-0.013736442216
1576080634941467591,1.49830329418,0.0149791305885,-0.015477434458
1576080634961222038,1.49510264397,0.0153470942751,-0.0137531494243
1576080634981461446,1.49183630943,0.0149998813868,-0.0193669216734
1576080635001409876,1.48842406273,0.0152568845078,-0.00904177045487
1576080635021533912,1.48508691788,0.0152605213225,-0.0120294289323
1576080635041442473,1.4817044735,0.0152065232396,-0.0145930243704
1576080635061448611,1.47807991505,0.0150829032063,-0.0128812863289
1576080635081615651,1.47451663017,0.0150860073045,-0.0149406793056
1576080635101850279,1.47057306767,0.015175530687,-0.00597689540117
1576080635121259269,1.46674132347,0.0152100613341,-0.00685539086789
1576080635141263666,1.46322393417,0.0153443114832,-0.00877343146266
1576080635161815253,1.45920276642,0.0153972608969,-0.00418917551312
1576080635181349644,1.45543825626,0.0151822688058,-0.00774142876403
1576080635201300064,1.45135259628,0.0155487023294,-0.0129814008898
1576080635221396739,1.44735312462,0.0154430102557,-0.00754740913235
1576080635241537801,1.44337701797,0.0157217253,-0.00365875508415
1576080635261540015,1.43954670429,0.0158464517444,-0.0122178481078
1576080635281622390,1.43575632572,0.0153258927166,-0.0036568542984
1576080635302433518,1.43167448044,0.0157696474344,-0.0341173175115
1576080635321583189,1.42794978619,0.0154273658991,-0.0629838866193
1576080635341441431,1.42410099506,0.0158956777304,-0.105853792016
1576080635361783944,1.42023253441,0.0157555118203,-0.583477216389
1576080635381941834,1.41676568985,0.015648085624,-3.11423119749
1576080635404784996,1.41333651543,0.0161288287491,-3.0504189397
1576080635422033011,1.41013014317,0.0156922079623,-3.11624921657
1576080635441538108,1.40690350533,0.0157223902643,-3.12198682372
1576080635461701815,1.40370357037,0.0160862449557,-3.12252077568
1576080635481391231,1.40105736256,0.0162815731019,-3.09209849842
1576080635501484777,1.39781391621,0.0163585059345,-3.12140427905
1576080635521100428,1.39509010315,0.0163876395673,-3.11379883181
1576080635541380756,1.3922201395,0.015882095322,-3.12856550854
1576080635561472926,1.38959896564,0.0159455817193,-3.13696695086
1576080635581419681,1.38707876205,0.0162676628679,-3.13504894234
1576080635601535406,1.3844575882,0.0158462263644,-3.13893162732
1576080635621372445,1.38238501549,0.0161130614579,-3.12869941657
1576080635641506821,1.38028621674,0.0162362065166,-3.12351062351
1576080635661703746,1.37789595127,0.0167141985148,-3.1185250308
1576080635681313343,1.37583565712,0.0165750663728,-3.12156515967
1576080635701364636,1.37368702888,0.0161874704063,-3.1327777221
1576080635721289340,1.37176191807,0.01636980474,-3.13623011379
1576080635741373905,1.37009871006,0.0158395990729,-3.13678327946
1576080635761581966,1.36818408966,0.0163478590548,-3.12405073246
1576080635781516087,1.36633956432,0.0163192357868,-3.12665678718
1576080635801401933,1.36492145061,0.0164276640862,-3.12808906857
1576080635821418702,1.36327075958,0.0160931050777,-3.12049056501
1576080635841312826,1.36194479465,0.0161253456026,-3.12115184519
1576080635862071866,1.36009907722,0.016017742455,-3.12304506824
1576080635884977923,1.35916101933,0.0159933045506,-3.13179426426
1576080635901513356,1.35742783546,0.0159379579127,-3.13149584936
1576080635921540504,1.35616576672,0.0160022061318,-3.10859741708
1576080635941400095,1.35516667366,0.0155021473765,-3.11487368257
1576080635961435335,1.35351419449,0.0156571324915,3.10944876056
1576080635981267241,1.35212087631,0.0154557209462,-0.0530715467196
1576080636001538450,1.35088407993,0.0150792766362,-0.00579827834543
1576080636021381735,1.34946918488,0.0152890570462,-0.0106895379063
1576080636041312161,1.34794199467,0.015397766605,-0.00434041054335
1576080636061322606,1.34646809101,0.0153920920566,-0.0044370923805
1576080636081688168,1.34498894215,0.0154770296067,-0.00790510112733
1576080636101193520,1.34333181381,0.0156320221722,-0.0150334402233
1576080636121729246,1.34194588661,0.0154060637578,-0.0159066340645
1576080636141292655,1.34039247036,0.0152371348813,-0.0150786462599
1576080636171624396,1.3387016058,0.0152227031067,-0.0164048886507
1576080636185925587,1.33725476265,0.0152437491342,-0.0121363216657
1576080636201494045,1.33558917046,0.0151305617765,-0.0135314716999
1576080636223435810,1.33391809464,0.0154604250565,-0.00762483071185
1576080636241574266,1.33238506317,0.0151987783611,-0.0166161652821
1576080636261301509,1.33047831059,0.0150737939402,-0.0172875259842
1576080636281322246,1.32899463177,0.0147019764408,-0.00611990931232
1576080636302819438,1.3266377449,0.0153188165277,-0.0138329906127
1576080636321768911,1.32503664494,0.0150774549693,-0.00878119603203
1576080636341292477,1.32322621346,0.0149573702365,-0.0176254286767
1576080636361558078,1.32141196728,0.0145119316876,-0.0300741375134
1576080636381405459,1.31964445114,0.014979954809,-0.060413541732
1576080636402495239,1.31782853603,0.0147516429424,-0.0358519832985
1576080636421398540,1.31596171856,0.0149518419057,-0.0786165390888
1576080636441461896,1.31389045715,0.0144273946062,-0.0696727762206
1576080636461475880,1.31202733517,0.0149001637474,-0.210277124168
1576080636485204741,1.30993580818,0.0148431705311,-2.70522933699
1576080636501531003,1.30818843842,0.0149035835639,-2.9757996167
1576080636521403370,1.30641007423,0.0148899061605,-3.05137047346
1576080636541257907,1.30448043346,0.0145663293079,-3.09200672313
1576080636561428599,1.30274522305,0.0147966844961,-3.08673461097
1576080636581296472,1.30097210407,0.0151248835027,-3.09586959347
1576080636601250111,1.2992272377,0.0152270868421,-3.10997970653
1576080636621281796,1.2974627018,0.014940998517,-3.117800709
1576080636641583605,1.29600548744,0.0146248573437,-3.12535093536
1576080636661440060,1.29428517818,0.0144339716062,-3.13742902116
1576080636681324108,1.29295635223,0.014268242754,-3.13829941998
1576080636701456885,1.29145169258,0.0145059954375,-3.13240345242
1576080636721376732,1.29052460194,0.0140831647441,-3.13196196186
1576080636741318611,1.28943860531,0.013957134448,-3.1325050247
1576080636761274860,1.2884529829,0.0143786910921,-3.13147859008
1576080636781285977,1.28762340546,0.0142459273338,-3.12745538783
1576080636801285343,1.28684723377,0.014511465095,-3.12407985875
1576080636821428698,1.28604352474,0.0144474515691,-3.12697277634
1576080636841363148,1.28575265408,0.0149185117334,-3.13933895512
1576080636861824235,1.28635811806,0.0147689366713,3.13224619413
1576080636885515080,1.28713393211,0.0146391941234,-3.13511766871
1576080636901640687,1.28809940815,0.0146110830829,-3.1280283093
1576080636921423190,1.28966784477,0.0145335104316,-3.12436458242
1576080636941520204,1.29091334343,0.014605037868,-3.12987841358
1576080636961406680,1.29263877869,0.0142688360065,-3.13964540274
1576080636981501577,1.29499340057,0.0139222415164,-3.13780626627
1576080637001291150,1.29687345028,0.0140182543546,-3.13227047325
1576080637021336710,1.29929256439,0.014336001128,-3.12380634727
1576080637042516396,1.3017693758,0.0139333195984,-3.12480977537
1576080637061238491,1.30426979065,0.0137278772891,-3.13291754168
1576080637081340052,1.30690801144,0.0142807420343,-3.11310946847
1576080637101256918,1.30968165398,0.0140551254153,-3.1262488296
1576080637121304183,1.31281363964,0.0139748426154,-3.12014896736
1576080637141285883,1.31564593315,0.0139668621123,-3.11092248707
1576080637161050338,1.31883656979,0.0135794365779,-3.12740157712
1576080637181428514,1.32224988937,0.0138352699578,-3.11479912622
1576080637206007916,1.32533490658,0.0140976822004,-3.10155790931
1576080637221382339,1.32893919945,0.0135814482346,-3.11387218604
1576080637241278761,1.3323264122,0.0138044981286,-3.09324345765
1576080637261470394,1.33577990532,0.0140638891608,-3.10423441176
1576080637281590493,1.33939731121,0.0140386177227,-3.0931343389
1576080637301415498,1.3432571888,0.0138363838196,-3.07322286508
1576080637321650659,1.34683096409,0.0139435557649,-3.05866434978
1576080637341584404,1.35100626945,0.013623021543,-3.07195265956
1576080637361427996,1.35471618176,0.0139480084181,-3.05345153166
1576080637381508802,1.3587116003,0.0139226112515,-3.03373402733
1576080637401384101,1.36296272278,0.0132575929165,-3.06394392909
1576080637422077394,1.36679363251,0.013723731041,-2.98460332081
1576080637441490345,1.37076306343,0.0138757480308,-2.85165918717
1576080637461338378,1.37399375439,0.0142294745892,-2.9705050436
1576080637481403990,1.37807035446,0.0140894344077,-2.69664065524
1576080637501394778,1.38139653206,0.0137649560347,-2.68625007559
1576080637521400868,1.384593606,0.0133295487612,-2.96443356573
1576080637541341417,1.38820755482,0.0136415427551,-2.19591724696
1576080637561672391,1.39177513123,0.0128724211827,-2.52358798185
1576080637581324202,1.39493060112,0.0132082579657,-1.93164271303
1576080637601440845,1.39825391769,0.013013202697,-1.81204769237
1576080637621407908,1.40142333508,0.0130457747728,-1.32248741404
1576080637641392927,1.40476214886,0.0132786985487,-1.38417867718
1576080637661272160,1.40827345848,0.0127801802009,-1.50964082799
1576080637690052732,1.41119432449,0.013124672696,-2.55380265277
1576080637701392533,1.41434717178,0.0131074525416,-2.40930696364
1576080637721324453,1.41820931435,0.0130332000554,-1.9600905278
1576080637741118216,1.42146646976,0.0129577182233,-2.30879428199
1576080637761376262,1.42482459545,0.0128893973306,-2.47973049659
1576080637786680915,1.42835855484,0.0125222532079,-2.89127456833
1576080637801246739,1.43209517002,0.0128161124885,-2.6620142618
1576080637821231846,1.43527662754,0.0131605900824,-2.70794698888
1576080637841481362,1.43848919868,0.0121756801382,-2.99430028084
1576080637861758776,1.44214189053,0.0128655200824,-2.9943389282
1576080637881370826,1.44573020935,0.0138946976513,-3.05388114502
1576080637901199114,1.44915187359,0.0134884063154,-3.10535273048
1576080637921123450,1.45204758644,0.0125533491373,-3.06139442487
1576080637941104674,1.45536243916,0.0129135102034,-3.05386553384
1576080637961219741,1.45872867107,0.0131007377058,-3.05044482833
1576080637981024397,1.46226274967,0.0127718448639,-3.11218998242
1576080638000981843,1.46547818184,0.0124263186008,-3.06484596093
1576080638020879311,1.46903371811,0.0127701545134,-3.05244761901
1576080638041351544,1.47252750397,0.0127253700048,-3.08177314788
1576080638061027191,1.47614967823,0.0125102559105,-3.09728691581
1576080638082660115,1.47950744629,0.0127218943089,-3.09246299697
1576080638100878686,1.48311817646,0.012466751039,-3.09214165588
1576080638120870833,1.4866963625,0.0123543003574,-3.09194551445
1576080638140998436,1.49022376537,0.0122968349606,-3.09463480449
1576080638160902332,1.49394345284,0.0122528914362,-3.09665185994
1576080638185602568,1.49753057957,0.012422753498,-3.09181185342
1576080638200993304,1.5009816885,0.0120147615671,-3.10595925549
1576080638220896030,1.50473678112,0.0117590036243,-3.1147199626
1576080638240955352,1.50808954239,0.0123633239418,-3.10876865063
1576080638260946412,1.5115557909,0.0117098530754,-3.12912083694
1576080638281070024,1.51487517357,0.0119247650728,-3.10466178423
1576080638301046914,1.51797878742,0.0123118543997,-3.1186547229
1576080638321212732,1.5213201046,0.0118549494073,-3.12651342646
1576080638341064324,1.52428007126,0.0119547089562,-3.11935382243
1576080638361053927,1.52700746059,0.0121833477169,-3.11922187673
1576080638381218861,1.52992618084,0.0122153973207,-3.12186551262
1576080638401134668,1.53259551525,0.0121764484793,-3.12366704385
1576080638420962139,1.5350342989,0.01228932105,-3.12198289466
1576080638440867736,1.53761470318,0.0116433631629,-3.12600644466
1576080638485637497,1.53954613209,0.0120494375005,-3.11923107916
1576080638485761524,1.54172980785,0.0119764469564,-3.1249029325
1576080638501421184,1.5436372757,0.0117445569485,-3.11801578875
1576080638521022710,1.54553723335,0.0119301900268,-3.11811860591
1576080638540998419,1.54725575447,0.0117001840845,-3.12330566996
1576080638561292251,1.54879438877,0.0115713216364,-3.11697554599
1576080638580955305,1.5498944521,0.0117159867659,-3.12721522943
1576080638600980635,1.55116724968,0.0118170129135,-3.12122280791
1576080638621118876,1.55235958099,0.0115278540179,-3.12566121542
1576080638641099247,1.55299413204,0.0116451289505,-3.11931535318
1576080638661007269,1.55368208885,0.0116524305195,-3.12265432278
1576080638684704323,1.55425107479,0.0116499513388,-3.12203105805
1576080638701103825,1.55446970463,0.0119397426024,-3.1166465691
1576080638720998844,1.55487453938,0.0117470100522,-3.11888101756
1576080638741092698,1.55494642258,0.0118441963568,-3.12002030266
1576080638760932656,1.55477702618,0.0117108402774,-3.12461922323
1576080638783473518,1.55478930473,0.0117172813043,-3.12400238859
1576080638800956050,1.55451405048,0.011676444672,-3.12548062442
