rosbagTimestamp,x,y,theta
1576079504754247664,-0.895210802555,0.0225800834596,-0.0126738086878
1576079504774673966,-0.89524269104,0.022597854957,-0.0123473884278
1576079504798387495,-0.895208656788,0.0225744266063,-0.0127605295718
1576079504814794683,-0.895203530788,0.0225712060928,-0.0127516578921
1576079504839783787,-0.895198047161,0.022583194077,-0.0125263262574
1576079504854444817,-0.895199537277,0.0225661322474,-0.0126234820322
1576079504873986794,-0.895198762417,0.0225709937513,-0.0126987422367
1576079504894024553,-0.89519995451,0.0225697215647,-0.0125500250363
1576079504915411732,-0.895191669464,0.022576989606,-0.0124678782483
1576079504934092212,-0.895207643509,0.0225881002843,-0.0127312485005
1576079504954806959,-0.895202457905,0.0225712768734,-0.0127658516134
1576079504974953532,-0.89524179697,0.0225899014622,-0.012398020194
1576079504993640485,-0.895202159882,0.0225746165961,-0.012889118979
1576079505014099078,-0.89519482851,0.022573236376,-0.0127862543237
1576079505033631481,-0.895210444927,0.0225788857788,-0.0126745411421
1576079505054265819,-0.89521420002,0.0225845426321,-0.0124030984015
1576079505077894897,-0.895212352276,0.0225801952183,-0.01246473485
1576079505096009857,-0.895206212997,0.0225852057338,-0.0124012954276
1576079505118512872,-0.895264685154,0.0226119440049,-0.011822978498
1576079505135003470,-0.895254433155,0.022605093196,-0.0118070312373
1576079505153741214,-0.89525449276,0.0226036086679,-0.0119145915838
1576079505175826196,-0.895199418068,0.022564984858,-0.0128718705625
1576079505195139128,-0.895211338997,0.0225771255791,-0.0127055799714
1576079505214138664,-0.89526373148,0.0226126592606,-0.0117349347029
1576079505234873693,-0.895206332207,0.0225832965225,-0.0126631468593
1576079505254162026,-0.895236134529,0.0225863885134,-0.0122468732448
1576079505274381195,-0.895210802555,0.0225709974766,-0.0127531277087
1576079505293617098,-0.895216047764,0.0225760526955,-0.0127767525045
1576079505313654394,-0.895208239555,0.0225635133684,-0.0126590214587
1576079505335240963,-0.895207822323,0.0225651692599,-0.0127542108514
1576079505354153748,-0.895205438137,0.0225731711835,-0.0127073247571
1576079505374413522,-0.895204603672,0.0225674826652,-0.0126139159027
1576079505393615754,-0.895202696323,0.0225662440062,-0.0123962258964
1576079505415870744,-0.8952023983,0.0225657057017,-0.0126813496594
1576079505434848026,-0.89520162344,0.022571541369,-0.0128265261251
1576079505454966414,-0.895203828812,0.0225629191846,-0.0126845798744
1576079505473757141,-0.89520418644,0.0225692596287,-0.0126584489169
1576079505493624868,-0.89519828558,0.0225630421191,-0.0128063809426
1576079505514601509,-0.895212769508,0.0225643608719,-0.0127395548013
1576079505533616580,-0.895211577415,0.0225769188255,-0.0126779844348
1576079505553871577,-0.895206451416,0.0225600525737,-0.0128663037344
1576079505573814160,-0.895210564137,0.0225732382387,-0.0126817284696
1576079505594095984,-0.895216882229,0.0225820988417,-0.0127439834987
1576079505615279147,-0.895223915577,0.0225716996938,-0.0126680487581
1576079505634875893,-0.895221173763,0.0225687175989,-0.0126538140602
1576079505656016101,-0.895219802856,0.0225851703435,-0.0129194492207
1576079505675305167,-0.895205557346,0.0225797165185,-0.0124176583344
1576079505694252641,-0.895214915276,0.0225701257586,-0.0126161365071
1576079505713744031,-0.895213901997,0.0225649066269,-0.0126811844018
1576079505733710789,-0.89520406723,0.0225625559688,-0.0125825418092
1576079505754789607,-0.895202040672,0.0225693713874,-0.0129253143015
1576079505773804159,-0.895202755928,0.0225780680776,-0.0124993920833
1576079505793646464,-0.895192742348,0.0225758142769,-0.0127025243421
1576079505813771257,-0.895203053951,0.0225732140243,-0.0126651798415
1576079505834033940,-0.895196557045,0.0225730463862,-0.0125685599373
1576079505856278846,-0.895207881927,0.022576071322,-0.0125790987881
1576079505875433107,-0.895197868347,0.0225786529481,-0.0128682581403
1576079505895737230,-0.895211696625,0.0225792545825,-0.0125927470209
1576079505914117377,-0.895236313343,0.0226095616817,-0.012163357506
1576079505935135292,-0.895204901695,0.0225714594126,-0.0127163690037
1576079505954883803,-0.895199537277,0.0225766971707,-0.0127106840803
1576079505973812751,-0.895208179951,0.0225822869688,-0.0127737929395
1576079505995905086,-0.895264387131,0.0226290374994,-0.0116218068543
1576079506013671500,-0.895208954811,0.0225715469569,-0.0125327896827
1576079506033637156,-0.895212709904,0.0225920565426,-0.0127208195442
1576079506054007386,-0.895215570927,0.0225791670382,-0.0128562171989
1576079506074142650,-0.895205438137,0.0225819163024,-0.0124706857892
1576079506095681455,-0.895203888416,0.0225764717907,-0.0125749703713
1576079506115214078,-0.895192265511,0.0225767027587,-0.0126273469173
1576079506133646662,-0.895207941532,0.0225853230804,-0.012732277281
1576079506154348883,-0.895268678665,0.0226293522865,-0.0118012536538
1576079506175236532,-0.895214617252,0.0225712358952,-0.0128749789294
1576079506193859418,-0.895213365555,0.0225692503154,-0.0126878533057
1576079506214635870,-0.895208239555,0.0225777383894,-0.0126950743937
1576079506233730821,-0.89520740509,0.0225819665939,-0.012744701399
1576079506254170938,-0.895193040371,0.0225746892393,-0.0126662485968
1576079506274141620,-0.895209610462,0.0225734245032,-0.0126525067454
1576079506294216211,-0.895206987858,0.022574108094,-0.012645277513
1576079506313708834,-0.895208895206,0.0225691068918,-0.0126342279775
1576079506336643862,-0.895211160183,0.022571483627,-0.0128225378476
1576079506355037674,-0.895210504532,0.0225695036352,-0.0127869438019
1576079506374090888,-0.895196855068,0.0225723665208,-0.0126975850952
1576079506393698371,-0.895206332207,0.0225798152387,-0.0128353119406
1576079506413662634,-0.895203053951,0.0225702952594,-0.0123966991459
1576079506433737627,-0.895201444626,0.0225667841733,-0.01259149111
1576079506454831340,-0.895210802555,0.0225761011243,-0.0126774927422
1576079506475243232,-0.895204126835,0.0225739534944,-0.0129208252098
1576079506493757685,-0.895209312439,0.0225769616663,-0.0125982040906
1576079506513755941,-0.895199000835,0.0225767530501,-0.0126403196174
1576079506534429141,-0.895199418068,0.0225768387318,-0.0126440334978
1576079506553838728,-0.895209133625,0.0225809197873,-0.0125335000716
1576079506574060091,-0.895203649998,0.0225662067533,-0.0126361866289
1576079506593636227,-0.895210385323,0.0225715599954,-0.012808526872
1576079506613666618,-0.89520907402,0.0225576292723,-0.0127643501497
1576079506633621586,-0.895204126835,0.022571079433,-0.0125113024763
1576079506653656671,-0.895215034485,0.0225781220943,-0.0126580162213
1576079506673909081,-0.895207643509,0.0225789770484,-0.0126098606199
1576079506693653005,-0.895203351974,0.0225736256689,-0.0124470812881
1576079506713686154,-0.895218074322,0.0225718989968,-0.0125606643201
1576079506734056426,-0.895209729671,0.0225842762738,-0.01272442386
1576079506753983074,-0.895210087299,0.0225812476128,-0.0124285088875
1576079506773607011,-0.895212054253,0.0225878842175,-0.0127566688176
1576079506793676927,-0.895210504532,0.02256908454,-0.0127041816577
1576079506813598933,-0.895211458206,0.0225786101073,-0.0125481656901
1576079506833637327,-0.895203888416,0.0225713085383,-0.0125827674221
1576079506854909509,-0.895207226276,0.0225732214749,-0.0126066440718
1576079506873797637,-0.895210683346,0.0225751679391,-0.0126738433948
1576079506893665200,-0.895204365253,0.0225699376315,-0.0126265263145
1576079506913862185,-0.895206391811,0.0225719325244,-0.0128325371266
1576079506933825867,-0.895206749439,0.022572664544,-0.0126644363772
1576079506953579102,-0.895203948021,0.0225696749985,-0.0125840086709
1576079506973666488,-0.895210921764,0.0225775875151,-0.0127238697193
1576079506993518784,-0.895209789276,0.0225596148521,-0.0126221386354
1576079507014513604,-0.895202040672,0.0225702412426,-0.0125674546983
1576079507034547192,-0.895203769207,0.0225689522922,-0.0126684705475
1576079507054151504,-0.895200788975,0.022571541369,-0.0126872754466
1576079507073756964,-0.895201325417,0.0225744079798,-0.0125717129425
1576079507093620252,-0.895201027393,0.0225738491863,-0.0126022822292
1576079507113841188,-0.895209729671,0.0225727241486,-0.0127566461316
1576079507133730217,-0.895209014416,0.0225698240101,-0.0126699432889
1576079507156867166,-0.895221590996,0.0225745216012,-0.012569963063
1576079507175034594,-0.895227789879,0.0225791074336,-0.0130031471894
1576079507193879733,-0.895211040974,0.0225774701685,-0.0126001326677
1576079507214073299,-0.895213842392,0.0225766785443,-0.0125980490456
1576079507234775959,-0.89524435997,0.0225851275027,-0.0122949076505
1576079507253684606,-0.895210981369,0.0225768145174,-0.0126951566569
1576079507273701285,-0.895204782486,0.0225647483021,-0.0125990265103
1576079507294480287,-0.895203411579,0.0225739162415,-0.012667863769
1576079507313689669,-0.895204246044,0.0225775130093,-0.0126331319647
1576079507333574936,-0.895203530788,0.0225731935352,-0.0126929591534
1576079507353630861,-0.895206451416,0.0225627738982,-0.0125843268134
1576079507373628166,-0.895199000835,0.0225671585649,-0.0124050110108
1576079507393735464,-0.895205438137,0.0225741155446,-0.0124080120798
1576079507414188191,-0.895213603973,0.0225706677884,-0.0126914383597
1576079507433579515,-0.895204365253,0.0225797090679,-0.012596538814
1576079507453719131,-0.895209014416,0.0225632954389,-0.0128257160408
1576079507474433127,-0.895214080811,0.022561121732,-0.0126277937126
1576079507493658939,-0.895215451717,0.0225709881634,-0.0126591172257
1576079507513549564,-0.895209431648,0.0225744396448,-0.0126528310555
1576079507534032766,-0.895210385323,0.0225851107389,-0.0125927978135
1576079507553882229,-0.895216524601,0.022589514032,-0.0128213117584
1576079507574872041,-0.89520740509,0.0225723292679,-0.0126556756015
1576079507594406071,-0.895207047462,0.0225762091577,-0.0128386933755
1576079507613710680,-0.895210266113,0.0225695576519,-0.0125934044813
1576079507634492725,-0.895208954811,0.0225856080651,-0.0126615904252
1576079507653797727,-0.895206153393,0.0225760173053,-0.0128426150895
1576079507673851151,-0.895204424858,0.0225745495409,-0.0124673256715
1576079507693602273,-0.895195782185,0.0225745867938,-0.0125834588429
1576079507713600239,-0.895211815834,0.0225906316191,-0.0127620910725
1576079507733646739,-0.895203113556,0.022568365559,-0.0127166579459
1576079507753560633,-0.895215690136,0.0225820019841,-0.0126562613913
1576079507773611831,-0.895204126835,0.0225681401789,-0.0126619982709
1576079507793632608,-0.895201146603,0.0225733779371,-0.0125680844977
1576079507813588879,-0.895200252533,0.0225685499609,-0.0128724605358
1576079507833900147,-0.895206272602,0.0225752927363,-0.0125401712043
1576079507854245890,-0.895207941532,0.0225709099323,-0.0128773171462
1576079507873628306,-0.895218372345,0.0225749630481,-0.0127021690563
1576079507893536991,-0.895210027695,0.0225745812058,-0.0126133969534
1576079507913964767,-0.8952216506,0.0225694794208,-0.0127558744126
1576079507933539315,-0.895217478275,0.0225807297975,-0.0127278307186
1576079507953771612,-0.895206511021,0.0225782450289,-0.0125416996764
1576079507973846768,-0.895211577415,0.0225696340203,-0.0127189798359
1576079507993601042,-0.895207822323,0.0225740596652,-0.0127236711092
1576079508013603426,-0.8952023983,0.0225739125162,-0.0127040285319
1576079508034028857,-0.895213961601,0.0225682463497,-0.0125875096285
1576079508053525360,-0.895216703415,0.0225946623832,-0.0125800989911
1576079508073544243,-0.895206809044,0.0225784182549,-0.0126109473183
1576079508093628224,-0.895092785358,0.0225367862731,-0.0123603431452
1576079508114261171,-0.895211815834,0.0225731376559,-0.012649277023
1576079508134155266,-0.895209729671,0.0225772615522,-0.0128133971125
1576079508155044411,-0.89524012804,0.0225924383849,-0.012259521535
1576079508173571499,-0.895207345486,0.0225731413811,-0.0126994413619
1576079508194400999,-0.895215451717,0.022576674819,-0.0128154261333
1576079508216209578,-0.895208895206,0.0225732531399,-0.0127447393209
1576079508233627351,-0.89520329237,0.022571420297,-0.0128952622191
1576079508253701684,-0.895201325417,0.0225703660399,-0.0125900276023
1576079508274107385,-0.89520329237,0.0225615799427,-0.0125607999236
1576079508293718084,-0.895203232765,0.0225646607578,-0.0126339803113
1576079508313760726,-0.895210564137,0.0225740261376,-0.0127152955636
1576079508333653012,-0.895201385021,0.0225661899894,-0.0126225774027
1576079508353712508,-0.895202100277,0.022573120892,-0.0126202445091
1576079508373582334,-0.895212769508,0.0225762743503,-0.0128403192632
1576079508393826460,-0.895214021206,0.0225720852613,-0.0125506109098
1576079508413985823,-0.895208179951,0.0225800573826,-0.0126036836798
1576079508433686891,-0.895197272301,0.0225742887706,-0.0125891129992
1576079508453685332,-0.895200967789,0.0225620511919,-0.01253659415
1576079508473539422,-0.895197749138,0.0225673224777,-0.0125179713939
1576079508493848068,-0.895204424858,0.022574275732,-0.0126263169677
1576079508513522378,-0.895192563534,0.0225604157895,-0.0126139527516
1576079508533551766,-0.895206093788,0.0225823111832,-0.0129027224067
1576079508553688737,-0.895201265812,0.0225763935596,-0.0125137580028
1576079508574067706,-0.895191371441,0.0225749202073,-0.0127703658707
1576079508593618443,-0.895204007626,0.0225676614791,-0.0126533252414
1576079508613662698,-0.895198643208,0.022567877546,-0.0127798447653
1576079508633670235,-0.89520573616,0.0225689280778,-0.0126805553272
1576079508654695456,-0.895198941231,0.0225665848702,-0.0125831099191
1576079508673843648,-0.895211875439,0.022571625188,-0.0128317945428
1576079508694442490,-0.895212888718,0.022569866851,-0.0126780036166
1576079508713814756,-0.895203173161,0.0225597321987,-0.0126444865524
1576079508733574402,-0.895207643509,0.0225636716932,-0.0127672521781
1576079508754309590,-0.895203948021,0.0225698761642,-0.0127850423487
1576079508773548766,-0.895213901997,0.0225691087544,-0.012750646658
1576079508793515910,-0.895187914371,0.0225637611002,-0.0126677972202
1576079508814140084,-0.895200431347,0.0225570444018,-0.0126399487294
1576079508833721305,-0.89519906044,0.0225679334253,-0.0126417933408
1576079508854413255,-0.895196437836,0.022554943338,-0.0126761446727
1576079508873635904,-0.895195662975,0.0225547309965,-0.0126805440044
1576079508893560813,-0.895206928253,0.0225563570857,-0.0126475560078
1576079508913618736,-0.895204603672,0.0225682351738,-0.0125889150704
1576079508933556750,-0.895195305347,0.0225620362908,-0.0125271017384
1576079508954019131,-0.895205795765,0.0225576590747,-0.0126567441593
1576079508974064063,-0.895198404789,0.0225615277886,-0.0125842367849
1576079508993805339,-0.895208716393,0.0225659422576,-0.012720990918
1576079509020181508,-0.89520329237,0.0225571803749,-0.0126003998127
1576079509035720235,-0.895205497742,0.0225527957082,-0.012682020309
1576079509053657671,-0.895195662975,0.0225602686405,-0.0125264351609
1576079509074555306,-0.895205080509,0.0225702952594,-0.0127136082351
1576079509094196349,-0.895108819008,0.0225361064076,-0.0118852749479
1576079509113770609,-0.895206391811,0.0225700475276,-0.0125976951715
1576079509133863543,-0.895212292671,0.0225719604641,-0.0126124883671
1576079509155129215,-0.895215332508,0.0225653331727,-0.0125972756887
1576079509173661036,-0.895204365253,0.0225706901401,-0.0126831630727
1576079509194465561,-0.895214438438,0.0225826818496,-0.0126695751791
1576079509213560670,-0.895216047764,0.0225746482611,-0.012776344288
1576079509234148185,-0.89520573616,0.0225721877068,-0.0127744912111
1576079509253684397,-0.895202040672,0.0225673075765,-0.0125988054029
1576079509273632273,-0.895215988159,0.0225710663944,-0.0125822914268
1576079509293602754,-0.895213127136,0.0225677378476,-0.0126753429838
1576079509313813626,-0.895199120045,0.0225687306374,-0.012639094309
1576079509333847545,-0.895207047462,0.0225590150803,-0.0126252444067
1576079509354179796,-0.895202755928,0.0225639548153,-0.0127444312704
1576079509373633023,-0.895207703114,0.0225708987564,-0.012546705154
1576079509393648913,-0.895201265812,0.022569630295,-0.0125628389159
1576079509413585940,-0.895202100277,0.0225596372038,-0.0125302214518
1576079509433805321,-0.895206272602,0.0225774887949,-0.0125489508534
1576079509453686489,-0.895208895206,0.0225724987686,-0.0125068648937
1576079509473865500,-0.895218372345,0.0225685406476,-0.0126835245755
1576079509494428454,-0.895211160183,0.0225687734783,-0.0126668165142
1576079509514420007,-0.895213901997,0.0225774776191,-0.0125717154739
1576079509533645257,-0.895199716091,0.0225720461458,-0.0126957300499
1576079509553574777,-0.895205080509,0.0225677657872,-0.0126954162814
1576079509573638005,-0.895212233067,0.0225692540407,-0.0126833457717
1576079509593769762,-0.895211517811,0.02257883735,-0.0128273046716
1576079509614438245,-0.895219147205,0.0225870124996,-0.0129696787432
1576079509633638957,-0.895218729973,0.022580139339,-0.012831826617
1576079509653554561,-0.895208358765,0.0225669238716,-0.012660152968
1576079509673624760,-0.895211279392,0.0225698780268,-0.0126772737004
1576079509693792203,-0.895214617252,0.0225829854608,-0.0126612475577
1576079509713586438,-0.895209372044,0.0225785840303,-0.0125966203668
1576079509733803354,-0.895199477673,0.0225704107434,-0.0124906854193
1576079509753906606,-0.895205795765,0.0225549563766,-0.0126690287929
1576079509773649982,-0.895206093788,0.0225714426488,-0.012848467322
1576079509793605973,-0.895214140415,0.022573037073,-0.012495587774
1576079509814025248,-0.895210146904,0.0225774366409,-0.0124675857804
1576079509833947756,-0.895210206509,0.022566922009,-0.0125777439465
1576079509854463258,-0.895213603973,0.0225619915873,-0.0124473792748
1576079509873672195,-0.895211219788,0.0225739572197,-0.012612958143
1576079509893623645,-0.895213067532,0.0225693900138,-0.0126436774861
1576079509913649608,-0.895212352276,0.0225813072175,-0.0126969869551
1576079509933571328,-0.895200669765,0.0225852280855,-0.0125763247182
1576079509954110590,-0.895205497742,0.0225836616009,-0.0126390179601
1576079509973896289,-0.895207226276,0.0225674826652,-0.0125600331149
1576079509994569281,-0.895206987858,0.0225767772645,-0.0126435707565
1576079510013570050,-0.89519995451,0.0225722044706,-0.0125749129869
1576079510034092682,-0.895106613636,0.0225439816713,-0.0120663075055
1576079510053883431,-0.895208358765,0.0225892663002,-0.0125031002781
1576079510074212586,-0.895208358765,0.0225867517292,-0.0125899124265
1576079510093635046,-0.895202219486,0.0225730743259,-0.0127581853361
1576079510113484616,-0.895203232765,0.0225693881512,-0.0126622508497
1576079510133629047,-0.895211458206,0.0225774217397,-0.0125727094183
1576079510153710522,-0.895214796066,0.0225768368691,-0.0126019188891
1576079510174119308,-0.895199358463,0.0225776918232,-0.0126075892674
1576079510193549437,-0.895213127136,0.02257601358,-0.0128521764599
1576079510214062313,-0.895209372044,0.0225668046623,-0.0127229932423
1576079510233703482,-0.895214438438,0.022573934868,-0.0127390632087
1576079510253658831,-0.895217657089,0.0225797146559,-0.0126073172944
1576079510273501334,-0.895211935043,0.0225783195347,-0.0128536856761
1576079510293456099,-0.895212054253,0.0225797574967,-0.012723305136
1576079510313891273,-0.895207107067,0.0225673317909,-0.012685134901
1576079510334236311,-0.895212471485,0.0225830748677,-0.0126122005717
1576079510353614500,-0.895214378834,0.0225706975907,-0.0129224183447
1576079510374253775,-0.895214736462,0.0225742254406,-0.0127678522757
1576079510393786566,-0.895216286182,0.0225728861988,-0.0127051370141
1576079510413628861,-0.895218372345,0.0225710961968,-0.0125957535184
1576079510435064129,-0.895212769508,0.0225818827748,-0.0126458302613
1576079510454006254,-0.895215213299,0.0225720070302,-0.0126621112693
1576079510473923135,-0.895224988461,0.0225675348192,-0.0127010611623
1576079510493926776,-0.895218729973,0.0225735269487,-0.0125595919806
1576079510513990635,-0.895223796368,0.0225809924304,-0.0126662310757
1576079510534194107,-0.895216107368,0.022578349337,-0.0124548491747
1576079510553728687,-0.895221412182,0.0225714314729,-0.0125970696914
1576079510578400367,-0.895209729671,0.0225650779903,-0.0126908307053
1576079510593533646,-0.895223021507,0.0225672647357,-0.0127433760001
1576079510613837137,-0.895209908485,0.0225689969957,-0.0127547813141
1576079510634181025,-0.895220041275,0.0225730855018,-0.0127445067469
1576079510654675125,-0.895217657089,0.0225731451064,-0.0124514290314
1576079510673663530,-0.895216166973,0.0225730501115,-0.0126010103888
1576079510694088438,-0.895217835903,0.0225693844259,-0.0125262737899
1576079510713617277,-0.89520663023,0.0225756950676,-0.0126249556227
1576079510734128866,-0.895108997822,0.0225390903652,-0.0120898865706
1576079510753782419,-0.895217955112,0.0225777775049,-0.012555343095
1576079510775982329,-0.895210385323,0.022579934448,-0.0124577629955
1576079510793546292,-0.895211219788,0.0225854571909,-0.0125477367369
1576079510813588174,-0.895228564739,0.0225790236145,-0.0127756065598
1576079510834118715,-0.895211458206,0.0225818101317,-0.0126741271816
1576079510853616599,-0.895218253136,0.0225800368935,-0.0128461545649
1576079510873602596,-0.895218789577,0.0225721877068,-0.0125345945174
1576079510893585537,-0.895211040974,0.0225739590824,-0.0129202472535
1576079510913550807,-0.895210504532,0.0225711874664,-0.0128953024659
1576079510934248653,-0.895219504833,0.022593036294,-0.0127306080963
1576079510954089648,-0.895219147205,0.0225731823593,-0.0129366238284
1576079510973904418,-0.895219624043,0.0225800406188,-0.0127488515108
1576079510993698333,-0.895221352577,0.0225801952183,-0.0127001436829
1576079511013591105,-0.895222604275,0.0225748997182,-0.0126272147033
1576079511034538283,-0.895206868649,0.0225790850818,-0.0127747084639
1576079511054943438,-0.895210266113,0.0225763414055,-0.012618769255
1576079511073508210,-0.895212590694,0.0225827284157,-0.0126330151632
1576079511093887324,-0.895211100578,0.0225813966244,-0.0127896777045
1576079511114016149,-0.895208358765,0.0225798096508,-0.0129809289905
1576079511134276823,-0.895210087299,0.0225815176964,-0.012786536838
1576079511154371984,-0.895208239555,0.0225779023021,-0.0125839188467
1576079511173974599,-0.895220518112,0.022583046928,-0.0126849252331
1576079511193554980,-0.895207285881,0.0225799772888,-0.0127512894221
1576079511214215176,-0.895198225975,0.0225762277842,-0.0128070366287
1576079511234897907,-0.895212173462,0.0225779153407,-0.012855496882
1576079511253717847,-0.895203828812,0.0225667580962,-0.0128099115011
1576079511278212254,-0.895203113556,0.0225743837655,-0.0128680533214
1576079511294276808,-0.895207226276,0.0225764941424,-0.0129738109191
1576079511313951509,-0.895206928253,0.0225769262761,-0.012666785857
1576079511334998377,-0.895210981369,0.0225857533514,-0.0130142954207
1576079511354229028,-0.895211994648,0.0225770752877,-0.0126801400508
1576079511373883042,-0.895203769207,0.0225751455873,-0.0128321337009
1576079511393631220,-0.895221829414,0.0225764214993,-0.0126861424519
1576079511413541765,-0.895204007626,0.022571824491,-0.0126312112225
1576079511434108246,-0.895205795765,0.0225666798651,-0.0126965156417
1576079511454172949,-0.895210504532,0.0225638207048,-0.0126573357368
1576079511473984764,-0.895245730877,0.0225871615112,-0.0123913244091
1576079511493715197,-0.895220458508,0.022564785555,-0.0127151466279
1576079511513643275,-0.895212769508,0.0225636251271,-0.0124926577177
1576079511535154344,-0.895210564137,0.0225696414709,-0.0126701790438
1576079511554911832,-0.895205199718,0.0225745420903,-0.012653524896
1576079511578172834,-0.895217835903,0.0225759390742,-0.0127509809919
1576079511595080420,-0.895258367062,0.0226306505501,-0.0118968297927
1576079511614614125,-0.8951998353,0.0225697122514,-0.0124688120245
1576079511634274106,-0.895216047764,0.0225758366287,-0.0125854498926
1576079511653486125,-0.895210444927,0.022564182058,-0.0126445303563
1576079511673503336,-0.895203828812,0.0225740112364,-0.0126622321202
1576079511693564983,-0.895208060741,0.0225716698915,-0.012716133088
1576079511714826713,-0.895208179951,0.022566659376,-0.012680614826
1576079511734141343,-0.895211517811,0.0225685350597,-0.0127281623705
1576079511753837435,-0.895211577415,0.0225731953979,-0.0126909829137
1576079511773546232,-0.895210802555,0.0225688964128,-0.0126131047507
1576079511793696916,-0.895270228386,0.0226227343082,-0.0116828995503
1576079511813720601,-0.895216524601,0.0225680693984,-0.012846180637
1576079511834082996,-0.895221233368,0.0225664209574,-0.0128034544197
1576079511853822408,-0.895202815533,0.0225737262517,-0.0125324414834
1576079511873631856,-0.895200490952,0.0225786883384,-0.0126655441007
1576079511894063845,-0.895217418671,0.0225881393999,-0.0128445525924
1576079511914143542,-0.895221054554,0.0225760322064,-0.0126321930486
1576079511934123000,-0.895207822323,0.0225768871605,-0.0126562409997
1576079511953845284,-0.895205795765,0.0225700736046,-0.0128346111858
1576079511973473130,-0.89521509409,0.0225679147989,-0.0126247750898
1576079511993858336,-0.895197510719,0.0225642770529,-0.012745706301
1576079512014367669,-0.895090937614,0.022530734539,-0.0121693694973
1576079512033467025,-0.895204007626,0.0225716903806,-0.0125280049569
1576079512053551088,-0.8952049613,0.0225664414465,-0.0125976862913
1576079512073536141,-0.895213067532,0.0225727055222,-0.0125235946516
1576079512093996631,-0.89521241188,0.022578291595,-0.0126358168864
1576079512113392923,-0.895213425159,0.022578863427,-0.0127297556683
1576079512133442185,-0.895208716393,0.0225752517581,-0.0126975958922
1576079512153493515,-0.895206511021,0.0225756019354,-0.012534745612
1576079512174625471,-0.895199656487,0.022574974224,-0.0124950860786
1576079512193449370,-0.895207881927,0.0225793812424,-0.0126826775898
1576079512213472303,-0.895202040672,0.0225624274462,-0.0125569644718
1576079512233547798,-0.895214140415,0.0225741453469,-0.0128254755339
1576079512254141108,-0.895199358463,0.02257854864,-0.0125878744707
1576079512273562701,-0.89521509409,0.0225709807128,-0.01252811329
1576079512293471567,-0.895210921764,0.0225730780512,-0.0126357093265
1576079512313438562,-0.895216882229,0.0225707311183,-0.0127213752263
1576079512333761358,-0.895215570927,0.0225672200322,-0.012580276905
1576079512353657005,-0.895197153091,0.0225578472018,-0.0126521368971
1576079512377208387,-0.895201027393,0.0225532315671,-0.0127006588379
1576079512393410496,-0.895199179649,0.022566139698,-0.0126811919531
1576079512415460249,-0.895213603973,0.0225576143712,-0.0128162828725
1576079512433833895,-0.895271480083,0.0226104296744,-0.0116798465323
1576079512453473384,-0.895205914974,0.0225703474134,-0.0126713204649
1576079512473997421,-0.895219445229,0.0225734263659,-0.012709343645
1576079512493913692,-0.895215153694,0.0225702803582,-0.0126168633513
1576079512513857662,-0.895209670067,0.0225682966411,-0.0127685930159
1576079512533674385,-0.895214557648,0.0225734580308,-0.0127652256771
1576079512553533223,-0.895203530788,0.0225785300136,-0.0125804111439
1576079512573551056,-0.895273566246,0.0226203426719,-0.0117524168901
1576079512593606684,-0.89520919323,0.0225771851838,-0.012447576771
1576079512613870282,-0.895197331905,0.0225652381778,-0.0126001770184
1576079512633450766,-0.89509510994,0.0225345510989,-0.0121869616131
1576079512653512270,-0.895211994648,0.0225843880326,-0.0126273010465
1576079512673499372,-0.895207345486,0.0225807800889,-0.0126187005208
1576079512693521556,-0.89520406723,0.022571882233,-0.0124152474486
1576079512713555245,-0.895210266113,0.0225671697408,-0.0127388962285
1576079512733602279,-0.895223021507,0.0225749649107,-0.0125758532789
1576079512753656072,-0.8952216506,0.0225754249841,-0.0127453142325
1576079512773614077,-0.895207762718,0.0225685089827,-0.0125448971512
1576079512793459969,-0.895204126835,0.0225715842098,-0.0124851374864
1576079512813614694,-0.895204782486,0.02259061113,-0.0128202198674
1576079512833466374,-0.895197689533,0.0225302632898,-0.0123838240237
1576079512853477500,-0.895191371441,0.0225333180279,-0.011935090126
1576079512874238653,-0.895170092583,0.0225370414555,-0.0118303414596
1576079512893477165,-0.895144939423,0.02255355753,-0.0116825384236
1576079512913422905,-0.895136415958,0.0225074980408,-0.0114240913314
1576079512933415888,-0.895161628723,0.022549027577,-0.0122496974098
1576079512953793638,-0.895141839981,0.0225168261677,-0.0115886834794
1576079512974295825,-0.895173609257,0.0225316621363,-0.0120893957867
1576079512993414471,-0.895148634911,0.0224740244448,-0.0112261458369
1576079513013824107,-0.895106911659,0.0225452873856,-0.0116961194596
1576079513033900248,-0.895015358925,0.0225539971143,-0.0122745468294
1576079513053345043,-0.894961893559,0.0225980896503,-0.0126014159354
1576079513073723193,-0.894969165325,0.0226611960679,-0.0106542237323
1576079513094308185,-0.894721627235,0.0226150527596,-0.0131861829777
1576079513115038763,-0.894403040409,0.0226446129382,-0.0129225726589
1576079513133427979,-0.893948256969,0.0227665696293,-0.0145329018948
1576079513153466789,-0.89335334301,0.0229438375682,-0.0156558456785
1576079513173869591,-0.89258736372,0.0229603629559,-0.0130716878452
1576079513193595376,-0.891775012016,0.0228703934699,-0.0103817386593
1576079513213722607,-0.890748143196,0.0227688308805,-0.0119761096463
1576079513237376889,-0.889568090439,0.0227347463369,-0.0150824383146
1576079513253958771,-0.888162136078,0.0227644313127,-0.0197400263856
1576079513274140251,-0.886867284775,0.0228144880384,-0.0151701058789
1576079513293785273,-0.885248601437,0.022736504674,-0.0121892732452
1576079513313459055,-0.883634805679,0.0227744579315,-0.0145754297328
1576079513336614588,-0.881793856621,0.0229236185551,-0.0137180307267
1576079513354838203,-0.879817128181,0.0228166300803,-0.0155949957326
1576079513374348745,-0.877780616283,0.0228876937181,-0.0138111215665
1576079513393468945,-0.8753734231,0.0227242559195,-0.0158991537537
1576079513413823596,-0.873210132122,0.0228382963687,-0.015668640215
1576079513434347622,-0.870720744133,0.0228594820946,-0.0154233975347
1576079513454958878,-0.868121027946,0.0228146854788,-0.0163532433149
1576079513473931688,-0.865496814251,0.0226664561778,-0.0156838822228
1576079513493809966,-0.862656712532,0.0227330885828,-0.0134474329371
1576079513518585097,-0.859625756741,0.0228662975132,-0.0127434105588
1576079513534231354,-0.856634616852,0.0228403769433,-0.0204701631597
1576079513554115018,-0.853604018688,0.0226173792034,-0.0147700660602
1576079513573896875,-0.850210368633,0.022722421214,-0.0137429852983
1576079513593560347,-0.847064912319,0.022696621716,-0.0146368383998
1576079513613908609,-0.843681931496,0.0227473564446,-0.0167419723059
1576079513634299658,-0.839998841286,0.02256510593,-0.0165389268678
1576079513653793524,-0.836702406406,0.0225228518248,-0.015690310097
1576079513673880037,-0.833026945591,0.0225775334984,-0.0165252014761
1576079513694309867,-0.829523324966,0.0223425365984,-0.0231357562133
1576079513714461400,-0.825970232487,0.0223784260452,-0.0156405645391
1576079513734080731,-0.822168827057,0.0225370712578,-0.0223216664184
1576079513754319395,-0.818300962448,0.022464569658,-0.0219805674749
1576079513774532977,-0.814552009106,0.0223386120051,-0.0168149205127
1576079513793540256,-0.810628592968,0.0225622896105,-0.0246659202275
1576079513813966621,-0.806859433651,0.0226636976004,-0.0191140869189
1576079513833677058,-0.802859961987,0.0225848127156,-0.0194693897569
1576079513853979615,-0.798701941967,0.0224010851234,-0.0251285461621
1576079513874107348,-0.79444283247,0.022373251617,-0.0244255867043
1576079513894178157,-0.790616750717,0.022530099377,-0.0262727780159
1576079513913844181,-0.786393284798,0.0225535612553,-0.0285655198248
1576079513933330996,-0.781885445118,0.0222673099488,-0.0300696700412
1576079513953827113,-0.777467191219,0.0225787460804,-0.032350236421
1576079513973710207,-0.772758185863,0.0224993731827,-0.0243094916948
1576079513993449290,-0.768053352833,0.0223874505609,-0.03105409709
1576079514013597040,-0.763397753239,0.0221968702972,-0.0248420522991
1576079514034090166,-0.758632004261,0.0224284529686,-0.0190652973551
1576079514055183445,-0.753979861736,0.0225328933448,-0.0277087532651
1576079514073578167,-0.748991668224,0.0223656818271,-0.0396634075043
1576079514093536418,-0.744252800941,0.0225035715848,-0.0343829807643
1576079514113626696,-0.739484488964,0.0226382017136,-0.0350645425141
1576079514135621780,-0.734592795372,0.0226150695235,-0.0545395191452
1576079514154992555,-0.729856669903,0.0225292034447,-0.0425134305057
1576079514173899908,-0.72507339716,0.0224661510438,-0.0518183843466
1576079514193766307,-0.720688581467,0.0225284993649,-0.0566999066964
1576079514214585067,-0.715903997421,0.0226399712265,-0.059744074199
1576079514233573500,-0.711229562759,0.0221182499081,-0.0505721530347
1576079514253938039,-0.706423342228,0.0222953744233,-0.0884705975834
1576079514273773246,-0.70185893774,0.0222348645329,-0.119456629721
1576079514293894541,-0.697228312492,0.0221333224326,-0.211123222607
1576079514313878610,-0.692924082279,0.0222018063068,-0.363340408391
1576079514335488931,-0.688580274582,0.0220811944455,-1.54369605118
1576079514353656897,-0.684058487415,0.0219190884382,-2.80752392041
1576079514373729066,-0.68012213707,0.0221101697534,-2.96549563871
1576079514393802924,-0.675481021404,0.0216825008392,-2.98661025833
1576079514413595303,-0.670820176601,0.0221541337669,-3.02592525019
1576079514433653576,-0.666722238064,0.0223805010319,-3.03730371573
1576079514453638718,-0.662810981274,0.0219994038343,-3.06436620776
1576079514474218695,-0.658406674862,0.0217720903456,-3.07051004775
1576079514494309448,-0.654485940933,0.0220438949764,-3.08427998925
1576079514513986266,-0.650445044041,0.0220901183784,-3.09379232233
1576079514534034070,-0.646852493286,0.0215289015323,-3.09523332972
1576079514557158465,-0.642700433731,0.0218299832195,-3.09744192317
1576079514573541591,-0.639584898949,0.02185822092,-3.10467057118
1576079514593449838,-0.636151611805,0.0218844674528,-3.10373911516
1576079514613636177,-0.633253574371,0.0215424206108,-3.11358300602
1576079514633736267,-0.630031168461,0.0214874409139,-3.12722030069
1576079514653535729,-0.626808702946,0.0215657502413,-3.12259881087
1576079514673938307,-0.62405782938,0.0216933507472,-3.12081865895
1576079514693281960,-0.621381103992,0.0217451956123,-3.11544251277
1576079514713633784,-0.619197487831,0.0216261763126,-3.11845784655
1576079514734029439,-0.616487443447,0.0215748194605,-3.12011063997
1576079514753696722,-0.614517092705,0.0216138586402,-3.12219793446
1576079514773646676,-0.613031506538,0.0216014701873,-3.13101611352
1576079514793487933,-0.611268103123,0.0217495597899,-3.12318187349
1576079514813551945,-0.610079884529,0.0215624887496,-3.12393591361
1576079514834593388,-0.608684420586,0.0214134417474,-3.13208685487
1576079514853632137,-0.607825815678,0.0215963758528,-3.12643541099
1576079514873882272,-0.6070317626,0.0213150121272,-3.12340210621
1576079514894010659,-0.606977343559,0.0213780384511,-3.12423469653
1576079514913806908,-0.606880128384,0.0210011489689,-3.12694260663
1576079514933582905,-0.606953918934,0.0212481990457,-3.12923860693
1576079514953574445,-0.607206165791,0.0214664936066,-3.1268201898
1576079514974263071,-0.607728302479,0.0212524011731,-3.12495483433
1576079514993418175,-0.608409702778,0.0211040638387,-3.12420882763
1576079515013797324,-0.609481394291,0.0212663784623,-3.12543329174
1576079515034810379,-0.610597133636,0.0213305000216,-3.12358606547
1576079515053516638,-0.612244546413,0.0213636681437,-3.12670385955
1576079515074045117,-0.613919079304,0.0211814772338,-3.13244506714
1576079515094217458,-0.615648567677,0.0210970975459,-3.13652476943
1576079515113424612,-0.617696344852,0.0214216336608,-3.10994699527
1576079515133514391,-0.619467616081,0.0215613041073,-3.09371949472
1576079515153450156,-0.621647238731,0.0214027930051,-3.08981349209
1576079515173655053,-0.623020589352,0.0213141031563,-3.09019247148
1576079515193623420,-0.62346971035,0.0209864526987,-3.06324451736
1576079515213723138,-0.625021100044,0.0212207660079,-3.06864578861
1576079515233694518,-0.625700294971,0.0212391819805,-2.03768210515
1576079515254358727,-0.62682300806,0.0214018337429,-0.0588210861638
1576079515274031964,-0.628417134285,0.0214495863765,-0.0228392217753
1576079515293778722,-0.629198312759,0.0215144883841,-0.0565228810143
1576079515314514983,-0.630006432533,0.0214148759842,-0.0417552783771
1576079515333581856,-0.630580246449,0.0209305714816,-0.0284293693409
1576079515353612459,-0.631387710571,0.0207016598433,-0.0311705635376
1576079515374135012,-0.632028341293,0.0212509278208,-0.0174191159956
1576079515393541800,-0.632314682007,0.0212046466768,-0.0245007055365
1576079515413592200,-0.632905066013,0.0207669138908,-0.0185860480554
1576079515433577953,-0.633135735989,0.020745864138,-0.0139824856599
1576079515453618989,-0.633517622948,0.0210329666734,-0.01771318468
1576079515473444956,-0.633486390114,0.0210140310228,-0.00959295960947
1576079515493530677,-0.633438825607,0.0211189351976,-0.00428867911564
1576079515513804106,-0.633422791958,0.0210378523916,-0.00666590074737
1576079515533762327,-0.632828354836,0.0209149010479,-0.00718315308066
1576079515553622476,-0.632532179356,0.021110156551,-0.00993516186627
1576079515574824307,-0.63192242384,0.0211033448577,-0.00819717549886
1576079515593451665,-0.631048679352,0.0211247373372,-0.00679871079117
1576079515613673374,-0.630115032196,0.0211440268904,-0.00749215055419
1576079515633754227,-0.628781855106,0.0210244506598,-0.00703780963557
1576079515653909598,-0.627219080925,0.0211234111339,-0.0089308000639
1576079515673622653,-0.625637769699,0.0210750233382,-0.00797254219979
1576079515693523979,-0.62391191721,0.0211490243673,-0.0052103730813
1576079515713689484,-0.622090816498,0.0212884172797,-0.00773343258796
1576079515733377182,-0.620179891586,0.0211352091283,-0.0115837103874
1576079515753756804,-0.617936551571,0.0211962480098,-0.0173066022169
1576079515773431194,-0.615392446518,0.021281003952,-0.0166281915544
1576079515793385990,-0.613221585751,0.021475950256,-0.0082811797952
1576079515813498646,-0.610793709755,0.0214986819774,-0.0100048976048
1576079515833357018,-0.60812741518,0.0214782487601,-0.014633112841
1576079515857134670,-0.605540573597,0.021528467536,-0.0126462239165
1576079515873751710,-0.602542698383,0.0213986169547,-0.0195391421318
1576079515896131338,-0.599564194679,0.0214751549065,-0.0156038928707
1576079515913980767,-0.59671241045,0.0216340683401,-0.00631188855478
1576079515934198276,-0.593700826168,0.0211019106209,-0.0205212873385
1576079515953686826,-0.590867578983,0.0209757983685,-0.10043467268
1576079515973849544,-0.588079214096,0.0212856084108,-0.585727322529
1576079515994758060,-0.584957718849,0.0213961862028,-3.02497595204
1576079516013621950,-0.582471370697,0.0214273184538,-3.04389279543
1576079516034257867,-0.57959061861,0.0211757086217,-3.08910968486
1576079516053694466,-0.576876223087,0.0213317200541,-3.10006553549
1576079516074137254,-0.574211716652,0.0215122532099,-3.09710529439
1576079516094057415,-0.571766197681,0.0215437076986,-3.11215717529
1576079516113867834,-0.569286346436,0.0219407528639,-3.10705609562
1576079516133588020,-0.567516684532,0.0216409601271,-3.12202430393
1576079516153913660,-0.565638303757,0.0216895453632,-3.11819608281
1576079516174079008,-0.564170479774,0.0219936296344,-3.12072059762
1576079516194398660,-0.56241941452,0.0220815241337,-3.10732349618
1576079516213690501,-0.561177015305,0.0220465883613,-3.11745171961
1576079516233593265,-0.560217916965,0.0218945629895,-3.11512471339
1576079516253725858,-0.559865891933,0.021782245487,-3.12095372171
1576079516273624769,-0.559614241123,0.0219567865133,-3.1211778728
1576079516293739699,-0.5595728755,0.0219588074833,-3.12096574869
1576079516313832623,-0.559890031815,0.0218784809113,-3.119964999
1576079516337526820,-0.560184895992,0.0218313187361,-3.11814733035
1576079516353586271,-0.56098139286,0.0218956507742,-3.11595218151
1576079516373465265,-0.562342882156,0.0218926891685,-3.11765063812
1576079516393557177,-0.563543319702,0.0217907708138,-3.11455082213
1576079516414273855,-0.565262913704,0.0216460879892,-3.1189140066
1576079516433555509,-0.567305982113,0.021934427321,-3.11497499502
1576079516453770389,-0.569021821022,0.0220354646444,-3.1134027761
1576079516474381704,-0.571705281734,0.0220219679177,-3.10611023302
1576079516493675324,-0.574408531189,0.0221037138253,-3.10490443094
1576079516513526363,-0.577270209789,0.0222493223846,-3.11449489681
1576079516533546450,-0.580508887768,0.0221464652568,-3.08521108215
1576079516553866865,-0.583158969879,0.0218576435,-3.08112441714
1576079516573972918,-0.586269497871,0.0218423139304,-3.03480277078
1576079516593638097,-0.589577794075,0.0219004005194,-2.95991241975
1576079516613654031,-0.593058943748,0.022061413154,-2.28133884677
1576079516633673898,-0.59668302536,0.0217575598508,-0.258641014087
1576079516653705516,-0.600509405136,0.0219716634601,-0.0747382000564
1576079516674110135,-0.603714704514,0.0217858012766,-0.0578121227112
1576079516694053558,-0.607324957848,0.0217012055218,-0.0469795297857
1576079516715489212,-0.610873401165,0.0219181030989,-0.0247847076297
1576079516733419806,-0.613487958908,0.0215223487467,-0.0205347414989
1576079516758171426,-0.616581618786,0.0217671878636,-0.0112953429653
1576079516775087332,-0.619504749775,0.0218097362667,-0.00723841513955
1576079516793304043,-0.622232377529,0.0218608509749,-0.01216552304
1576079516813932866,-0.624840795994,0.0219487790018,-0.0108455473999
1576079516833631803,-0.627100169659,0.0220284145325,-0.00810263752079
1576079516853743653,-0.62926787138,0.0219848677516,-0.00966894060443
1576079516873608687,-0.631067812443,0.0220022592694,-0.00283614925558
1576079516893577066,-0.632315933704,0.0218529552221,-0.00660915613953
1576079516914418160,-0.633656919003,0.0217552017421,-0.00719538500283
1576079516933394605,-0.634703397751,0.0216972772032,-0.0075725287402
1576079516953400257,-0.635460019112,0.0218754298985,-0.0103659387552
1576079516973667665,-0.636198699474,0.0218630414456,-0.0161959209396
1576079516993600273,-0.636316359043,0.0215000864118,-0.0085793765104
1576079517013505141,-0.636625885963,0.0217482130975,-0.012894573199
1576079517033470814,-0.636601030827,0.0219016317278,-0.0205393914372
1576079517053382782,-0.636070072651,0.0221310928464,0.00487734403779
1576079517073286099,-0.635593533516,0.0220879390836,0.00320046327046
1576079517093809699,-0.63514727354,0.0219156574458,0.00152935795438
1576079517113944380,-0.634500622749,0.0219165552408,-0.0321479513701
1576079517133773250,-0.633875191212,0.0220340956002,-0.0670734353962
1576079517153651624,-0.633159995079,0.0218954458833,-2.61458886826
1576079517173750676,-0.632754087448,0.0217753350735,-3.09224606136
1576079517193662026,-0.632261812687,0.0218409691006,-3.12866407706
1576079517214077732,-0.631553113461,0.0217044427991,-3.11961795247
1576079517233641429,-0.631758987904,0.0217312164605,-3.11403942128
1576079517257455865,-0.631462037563,0.0221846215427,-3.11724100381
1576079517273473355,-0.631319582462,0.0223044641316,-3.11796262669
1576079517293422738,-0.631659686565,0.0220816712826,-3.12093043272
1576079517313651772,-0.632056474686,0.0221869815141,-3.11953134941
1576079517333428388,-0.632634162903,0.0222453996539,-3.12361746781
1576079517353715583,-0.633447885513,0.0223401598632,-3.12145664017
1576079517373662100,-0.63471609354,0.022319810465,-3.12767055726
1576079517393895856,-0.63574719429,0.0223211813718,-3.12796348946
1576079517415906481,-0.637475073338,0.0221618227661,-3.13210333264
1576079517433611643,-0.639187276363,0.0220738369972,-3.12421761083
1576079517453651742,-0.641052246094,0.0223094038665,-3.12863998947
1576079517473893799,-0.643224835396,0.0223013646901,-3.12610071933
1576079517493603116,-0.645685255527,0.0220707580447,-3.12459533639
1576079517513810246,-0.648321270943,0.0222360845655,-3.12158140287
1576079517534463635,-0.650649487972,0.0223615020514,-3.12486012941
1576079517553477381,-0.653591632843,0.0220752283931,-3.12575900509
1576079517573350490,-0.656660139561,0.0220012031496,-3.12596069559
1576079517593553731,-0.660002589226,0.0220938939601,-3.12185717492
1576079517614191168,-0.663308262825,0.0222991351038,-3.11855480456
1576079517633747998,-0.666602492332,0.0224810391665,-3.11641263336
1576079517653907111,-0.670802474022,0.0223209578544,-3.13171792377
1576079517674136956,-0.674654662609,0.0225179512054,-3.1208076341
1576079517693252954,-0.678587079048,0.0224023610353,-3.11337694055
1576079517713424158,-0.682130694389,0.0222902242094,-3.11096214317
1576079517734230674,-0.68628180027,0.0227396711707,-3.11730683337
1576079517754073585,-0.690217494965,0.0228469204158,-3.12062386112
1576079517773530030,-0.694062948227,0.0224487688392,-3.12010299478
1576079517793507084,-0.697573304176,0.0219997465611,-3.10836149349
1576079517813349759,-0.70123398304,0.0225836150348,-3.10446016898
1576079517834225874,-0.704851448536,0.0226271934807,-3.10877515162
1576079517853430055,-0.708455681801,0.0223413929343,-3.10211866671
1576079517873503912,-0.712047874928,0.0220236051828,-3.10438450924
1576079517894039138,-0.71604514122,0.022233851254,-3.09935606682
1576079517913428716,-0.719577252865,0.0222454164177,-3.09298010547
1576079517933330644,-0.723600268364,0.0224049892277,-3.09424636414
1576079517953266762,-0.727297365665,0.0219276770949,-3.10039343616
1576079517973824962,-0.731055259705,0.0219265837222,-3.08763850618
1576079517993493577,-0.735244989395,0.0222224444151,-3.08552110722
1576079518014286193,-0.739505112171,0.022233478725,-3.07149327079
1576079518033547510,-0.743531882763,0.0223109573126,-3.08547333095
1576079518053394524,-0.74747043848,0.022051140666,-3.09784449367
1576079518073265587,-0.751118302345,0.0223444662988,-3.08734084514
1576079518093693982,-0.754997491837,0.022075522691,-3.07472565887
1576079518113364613,-0.758738696575,0.0221539959311,-3.08809529329
1576079518133366139,-0.762229919434,0.0223513096571,-3.09516073889
1576079518153547014,-0.766253590584,0.0217936486006,-3.07259033551
1576079518173781834,-0.770036518574,0.0217923764139,-3.07136382052
1576079518193690692,-0.77364051342,0.0221286639571,-3.06612077979
1576079518213336644,-0.777054607868,0.0220343247056,-3.03471238733
1576079518233244427,-0.780514538288,0.0221420451999,-3.08312211801
1576079518253366814,-0.783759772778,0.0218341741711,-3.06636285833
1576079518273974515,-0.786535382271,0.0220886040479,-3.09515059095
1576079518293232312,-0.790044367313,0.0219989959151,-3.06134214903
1576079518313313236,-0.793688952923,0.0218570251018,-3.05939913777
1576079518333182319,-0.79676502943,0.021594632417,-3.04702374615
1576079518353313248,-0.800389945507,0.021723145619,-3.06243459206
1576079518373402648,-0.803617358208,0.0217152237892,-3.07029565511
1576079518393709114,-0.807172417641,0.0218931213021,-3.09449229823
1576079518413326898,-0.810633659363,0.0217752885073,-3.08133417819
1576079518433241086,-0.813983678818,0.0216307118535,-3.04335293038
1576079518455868438,-0.817488253117,0.0217453557998,-3.06489068979
1576079518473249914,-0.820882976055,0.0215939357877,-3.06174254532
1576079518493266762,-0.823230028152,0.021989364177,-3.11557122902
1576079518513501211,-0.825761675835,0.0222579035908,3.13956912185
1576079518533308474,-0.828146874905,0.0215717274696,-3.09251852378
1576079518553549902,-0.830598115921,0.021546555683,-3.08508252466
1576079518573185319,-0.83268558979,0.0214751251042,-3.07972449726
1576079518593551729,-0.834934830666,0.0214919261634,-3.06713242676
1576079518613507411,-0.836892664433,0.0214603673667,-3.08795518974
1576079518633507792,-0.839490056038,0.0213932152838,-3.06832138668
1576079518654062369,-0.842002630234,0.0214561037719,-3.08270243011
1576079518673223589,-0.844648241997,0.02148264274,-3.09101778366
1576079518693489765,-0.846843719482,0.0212462581694,-3.0751697606
1576079518714312913,-0.849059700966,0.0214093308896,-3.05270253949
1576079518734012875,-0.851628184319,0.0216382332146,-3.0746474445
1576079518753087328,-0.853707194328,0.0213131569326,-3.07199930508
1576079518773290719,-0.856264531612,0.0214323531836,-3.08034691776
1576079518793308562,-0.858663022518,0.0212816204876,-3.08272074003
1576079518813480180,-0.861290991306,0.0214606672525,-3.08411180767
1576079518833397151,-0.863961517811,0.0215800460428,-3.086732346
1576079518853277801,-0.865867733955,0.0211966373026,-3.10382456727
1576079518873302580,-0.868345081806,0.021237814799,-3.10027342145
1576079518893085175,-0.871082603931,0.0212603304535,-3.10329078205
1576079518914038561,-0.873692452908,0.021210892126,-3.10065145455
1576079518933173741,-0.876083314419,0.0214187800884,-3.11226173292
1576079518953534248,-0.878801763058,0.0212665982544,-3.10290597363
1576079518974587934,-0.881659448147,0.0212955102324,-3.10782438608
1576079518993285202,-0.884316265583,0.021138491109,-3.10860288573
1576079519013198588,-0.887076079845,0.0212298948318,-3.11704940584
1576079519033312676,-0.890368938446,0.0211074147373,-3.11468669128
1576079519053159590,-0.893019497395,0.0212508775294,-3.11709691006
1576079519073384837,-0.896148622036,0.0212763212621,-3.11143256948
1576079519093321820,-0.898913323879,0.0213825330138,-3.11972409728
1576079519114081572,-0.902122437954,0.0213748700917,-3.12145194025
1576079519133257463,-0.904818534851,0.0209335796535,-3.12003541528
1576079519153208434,-0.907597661018,0.0212799180299,-3.1206053764
1576079519173426667,-0.910688817501,0.0214756596833,-3.11756294331
1576079519193416431,-0.913459777832,0.0215459130704,-3.12133248999
1576079519213336398,-0.916737437248,0.0208076238632,-3.12461570763
1576079519233227518,-0.919614374638,0.0210833568126,-3.12642178514
1576079519253338950,-0.922818720341,0.0211404561996,-3.12319861258
1576079519275110477,-0.925783395767,0.021115578711,-3.1245883035
1576079519293247695,-0.929142773151,0.0210134144872,-3.12445930083
1576079519313287350,-0.932518064976,0.0209300313145,-3.12276675819
1576079519333114560,-0.935427963734,0.021357351914,-3.13741968639
1576079519354053387,-0.938422083855,0.021289659664,-3.12979080543
1576079519373218932,-0.941236674786,0.0211510937661,-3.13593760046
1576079519393288191,-0.94423776865,0.0207350347191,-3.13604724113
1576079519413398519,-0.947253465652,0.0210863165557,-3.12836002453
1576079519433336136,-0.95030361414,0.0210192687809,-3.12755191707
1576079519453255186,-0.953350365162,0.0211294479668,-3.14036684763
1576079519473703746,-0.956522703171,0.0210927333683,-3.13508918673
1576079519493656045,-0.959881663322,0.0209642201662,-3.13745256886
1576079519513438821,-0.96307104826,0.0210238043219,-3.13712965813
1576079519533708854,-0.96638661623,0.0211229659617,-3.13489605229
1576079519553473354,-0.970012068748,0.0211693868041,-3.13478492651
1576079519573493259,-0.97325026989,0.021197764203,-3.13506523974
1576079519593628693,-0.976916432381,0.0209976285696,-3.13433378264
1576079519613775166,-0.98033195734,0.0211222656071,-3.1354633445
1576079519633432605,-0.984547555447,0.0213040765375,-3.13599713782
1576079519653896262,-0.988285601139,0.0214574635029,-3.13314713327
1576079519673670204,-0.991889536381,0.0213836990297,-3.13371210879
1576079519693331796,-0.995943784714,0.0211345665157,-3.13641728231
1576079519713615815,-1.0000576973,0.0210232939571,-3.13629933863
1576079519733839605,-1.00439584255,0.0211149789393,3.14125800826
1576079519753434966,-1.0083053112,0.0214055813849,-3.13359174305
1576079519773527373,-1.01264691353,0.0213767942041,-3.1323128491
1576079519793222519,-1.01742196083,0.0213314052671,-3.13167342245
1576079519813862219,-1.02207767963,0.0213523544371,-3.13137694402
1576079519833333384,-1.0272153616,0.0213337112218,-3.13246213649
1576079519853921882,-1.03183579445,0.0214471872896,-3.12969688638
1576079519873111196,-1.03661990166,0.0213870853186,-3.13050096559
1576079519893696809,-1.04162371159,0.0213666725904,-3.12846308749
1576079519913151089,-1.04663252831,0.0216146018356,-3.11865643163
1576079519933216003,-1.05160677433,0.0214608553797,-3.11620882325
1576079519953340968,-1.05668723583,0.0212699268013,-3.12160619247
1576079519973814079,-1.06217968464,0.0211600661278,-3.11546078051
1576079519993374379,-1.06716132164,0.0213286317885,-3.11140414319
1576079520013588948,-1.07229363918,0.0214680563658,-3.11008135313
1576079520039163852,-1.0775282383,0.0214704349637,-3.09694984322
1576079520053403775,-1.08277475834,0.0212719887495,-3.08670396439
1576079520073354400,-1.0878661871,0.0212600380182,-3.08591418705
1576079520095581462,-1.0928555727,0.0214621517807,-3.03445836193
1576079520132323714,-1.09805989265,0.0213643405586,-3.01004999861
1576079520133489570,-1.10315930843,0.0210772864521,-2.73380337746
1576079520154040846,-1.10816025734,0.0210958682001,-0.160796685198
1576079520173408923,-1.11303400993,0.021088656038,0.00947033628589
1576079520194059470,-1.11812126637,0.0211499016732,0.0400719343268
1576079520213405882,-1.12271392345,0.0212002601475,0.0254150679133
1576079520233876149,-1.12742853165,0.0210078246891,0.0258418219826
1576079520253399702,-1.13256144524,0.0210778862238,0.00382138656946
1576079520273252613,-1.13721752167,0.0207593869418,-0.00478032695943
1576079520294078020,-1.14150226116,0.0211923513561,0.0202417698715
1576079520313404641,-1.14552271366,0.0213002804667,0.0345379221721
1576079520333237703,-1.14913332462,0.021213054657,0.0147835515367
1576079520356172197,-1.15254163742,0.0209832731634,-0.00633419506132
1576079520373433941,-1.15557610989,0.0209620781243,-0.00589093061621
1576079520393059622,-1.15901112556,0.0208861101419,0.00208315260975
1576079520413264936,-1.16192507744,0.0206509996206,0.0135499537875
1576079520433068709,-1.16513478756,0.0205231998116,0.0125062912915
1576079520453325706,-1.16754412651,0.0208453387022,-0.00193726385017
1576079520474296121,-1.17091536522,0.0207896865904,0.00249019852515
1576079520493142015,-1.17377650738,0.0208813734353,0.00171088619683
1576079520514429468,-1.17639946938,0.0208501629531,9.17360289102e-05
1576079520533353466,-1.17957150936,0.0202615261078,-0.00129833807786
1576079520553264607,-1.18172991276,0.0204989146441,0.00113368124134
1576079520578387491,-1.18454408646,0.0203489605337,-0.00134345655215
1576079520593171761,-1.18677461147,0.0204037297517,-0.00742304308237
1576079520613286893,-1.18901467323,0.0203391145915,-0.00632645476028
1576079520633721707,-1.19096648693,0.0203499365598,-0.00405902487267
1576079520653643884,-1.19239759445,0.0207042880356,-0.00352592493573
1576079520673271290,-1.1942807436,0.0204652417451,-0.00427420294202
1576079520693099485,-1.19566595554,0.0206711310893,-0.00554640353939
1576079520713451522,-1.1971950531,0.0207050684839,-0.00656407436547
1576079520733382147,-1.19850194454,0.0206152703613,-0.0102667545808
1576079520753297265,-1.1995267868,0.0206456184387,-0.0115640899581
1576079520773676677,-1.20040905476,0.020612962544,-0.0124157998041
1576079520793463820,-1.20079159737,0.0204019825906,-0.0121704957994
1576079520813162675,-1.20117795467,0.0207311734557,-0.01167084959
1576079520833160872,-1.20174455643,0.0207264404744,-0.0149892218605
1576079520857391263,-1.20170211792,0.0202898941934,-0.0125043580135
1576079520873785863,-1.20180380344,0.0205536838621,-0.0149762682345
1576079520893339551,-1.20130896568,0.0207267217338,-0.0201560224518
1576079520913244481,-1.2008831501,0.0207741297781,-0.0149279430969
1576079520933057879,-1.20027577877,0.0207134168595,-0.019650001443
1576079520959621140,-1.19942927361,0.0205991659313,-0.0220206218056
1576079520973605003,-1.19843959808,0.0206271614879,-0.021043809835
1576079520993099959,-1.19738543034,0.0206966791302,-0.036230570866
1576079521015594845,-1.1963057518,0.0207387600094,-0.0334135117826
1576079521033533343,-1.19517719746,0.0207173060626,-0.0322811191146
1576079521053209185,-1.19366717339,0.0206381492317,-0.0437837097
1576079521073384479,-1.19241273403,0.0208315383643,-0.0538455744455
1576079521093291078,-1.19093179703,0.0209021959454,-0.0444786296454
1576079521113186015,-1.18943190575,0.020472669974,-0.0597588779493
1576079521133389585,-1.18817090988,0.0204519741237,-0.197375917166
1576079521153249586,-1.18658912182,0.0207594670355,-0.278990031464
1576079521173641788,-1.18515586853,0.0208534579724,-1.55011181958
1576079521193612217,-1.18363165855,0.0208016857505,-2.76896613986
1576079521213267832,-1.18222367764,0.0206109881401,-2.98725752697
1576079521233222957,-1.18091130257,0.0207163970917,-3.01766233106
1576079521253404848,-1.17983698845,0.0206026881933,-3.04212759504
1576079521273262621,-1.17843234539,0.0206761863083,-3.06495882213
1576079521293267610,-1.17751979828,0.0204584617168,-3.0816518407
1576079521313093581,-1.17646992207,0.020548120141,-3.08184513436
1576079521333211722,-1.17579758167,0.0206301286817,-3.08634481705
1576079521353193804,-1.17472445965,0.0205009449273,-3.089600819
1576079521373105069,-1.17375659943,0.0206787642092,-3.10497820302
1576079521393137637,-1.17305731773,0.0205826833844,-3.10941873551
1576079521413115734,-1.17283213139,0.0202940832824,-3.10785982301
1576079521433029919,-1.17269599438,0.0204367078841,-3.11465562465
1576079521457013902,-1.17254793644,0.0203497819602,-3.11688114118
1576079521473182923,-1.17288672924,0.0202054865658,-3.11520835285
1576079521493512051,-1.17299592495,0.0200212877244,-3.11356088344
1576079521513314074,-1.17359673977,0.0202061738819,-3.12341759836
1576079521533249202,-1.17401051521,0.020387288183,-3.1234295698
1576079521553261510,-1.17496788502,0.0201527923346,-3.1199253636
1576079521573627970,-1.17632818222,0.0199629478157,-3.12198874071
1576079521593352565,-1.17779064178,0.0200247708708,-3.12750116682
1576079521613862731,-1.17945122719,0.0200341399759,-3.1265486585
1576079521640885953,-1.1810182333,0.0199677273631,-3.12352787464
1576079521653295662,-1.18352091312,0.0196962356567,-3.13087477027
1576079521673274323,-1.18600523472,0.0198033805937,-3.12299554208
1576079521693095049,-1.18836379051,0.0198939852417,-3.12119098231
1576079521713011294,-1.19138014317,0.0198144186288,-3.12318537175
1576079521733067018,-1.19427454472,0.019763097167,-3.11786333294
1576079521753328607,-1.19736373425,0.0199152156711,-3.10888280502
1576079521773088590,-1.20081555843,0.0195255447179,-3.12058572608
1576079521793333444,-1.20473992825,0.0195593945682,-3.11726061575
1576079521818607250,-1.20816445351,0.0198052953929,-3.10912201967
1576079521834836950,-1.21187400818,0.0197876971215,-3.08936834145
1576079521853262061,-1.21614587307,0.0196806546301,-3.08101649902
1576079521873222284,-1.22032892704,0.019773485139,-3.04372116097
1576079521893201631,-1.22468996048,0.019367152825,-2.25729935335
1576079521913324363,-1.22883355618,0.0195293948054,-0.12561677738
1576079521933337749,-1.23328840733,0.0194863080978,-0.0841498586812
1576079521953220912,-1.23743438721,0.0197429731488,-0.0459915947504
1576079521973309874,-1.24138748646,0.0197947192937,-0.0426025598823
1576079521993084158,-1.24542307854,0.0197542775422,-0.0365883037967
1576079522013735519,-1.24917638302,0.0198561679572,-0.0271430393236
1576079522033137109,-1.25309574604,0.0200339909643,-0.023075142124
1576079522053210952,-1.25616574287,0.0198620371521,-0.0178087014081
1576079522073958584,-1.25929772854,0.0201156288385,-0.0218110657998
1576079522093237274,-1.26233053207,0.0199558138847,-0.0292691658231
1576079522113298280,-1.26512765884,0.0199648011476,-0.027307434099
1576079522133217702,-1.26741659641,0.0196134969592,-0.0187951674826
1576079522153010323,-1.26956379414,0.0199889782816,-0.0210616222212
1576079522173455926,-1.27133643627,0.0199980512261,-0.0214801069651
1576079522193131428,-1.27299904823,0.0202028807253,-0.0196939926292
1576079522213060167,-1.27438831329,0.0201288890094,-0.0212660720082
1576079522233372676,-1.2757409811,0.0199699997902,-0.0195197315134
1576079522253303962,-1.27671420574,0.020131777972,-0.0207903580306
1576079522273404289,-1.2772564888,0.0199788995087,-0.0214299627018
1576079522293111386,-1.27771103382,0.0203217938542,-0.0245607654914
1576079522313091803,-1.27810621262,0.0199789386243,-0.0225834625309
1576079522333116703,-1.27791643143,0.0202345438302,-0.0241396969609
1576079522353857505,-1.27788901329,0.020174074918,-0.0247961579931
1576079522373766157,-1.27777099609,0.0195434987545,-0.024580944042
