rosbagTimestamp,header,seq,stamp,secs,nsecs,frame_id,pose,position,x,y,z,orientation,x,y,z,w
1576079504754239442,,63269,,1576079504,754151027,"""world""",,,-0.895210802555,0.0225800834596,1.85443305969,,-0.00106857193168,-0.00558394752443,0.00634253537282,-0.999963700771
1576079504774671236,,63270,,1576079504,774579294,"""world""",,,-0.89524269104,0.022597854957,1.85445821285,,-0.000863344233949,-0.00528388516977,0.00617796042934,-0.999966621399
1576079504798382869,,63271,,1576079504,798277857,"""world""",,,-0.895208656788,0.0225744266063,1.85444009304,,-0.000985194696113,-0.00558768352494,0.00638543069363,-0.999963581562
1576079504814793182,,63272,,1576079504,814703647,"""world""",,,-0.895203530788,0.0225712060928,1.85443305969,,-0.00103497551754,-0.00556802935898,0.00638125557452,-0.999963700771
1576079504839783240,,63273,,1576079504,839687007,"""world""",,,-0.895198047161,0.022583194077,1.85443508625,,-0.00103208306246,-0.00554715422913,0.00626856135204,-0.999964475632
1576079504854439708,,63274,,1576079504,854351073,"""world""",,,-0.895199537277,0.0225661322474,1.85443818569,,-0.000939621997532,-0.00558045972139,0.00631665065885,-0.999964118004
1576079504873963282,,63275,,1576079504,873757918,"""world""",,,-0.895198762417,0.0225709937513,1.85443532467,,-0.00105576252099,-0.00560101913288,0.00635494617745,-0.999963581562
1576079504893990732,,63276,,1576079504,893905323,"""world""",,,-0.89519995451,0.0225697215647,1.85443508625,,-0.00107581040356,-0.00559289008379,0.00628069695085,-0.999964058399
1576079504915408763,,63277,,1576079504,915316155,"""world""",,,-0.895191669464,0.022576989606,1.8544318676,,-0.00119566498324,-0.0056111481972,0.00624031759799,-0.999964118004
1576079504934091923,,63278,,1576079504,934006004,"""world""",,,-0.895207643509,0.0225881002843,1.85443627834,,-0.000974871043582,-0.00561110768467,0.00637075351551,-0.999963521957
1576079504954784087,,63279,,1576079504,954709577,"""world""",,,-0.895202457905,0.0225712768734,1.8544421196,,-0.00106744724326,-0.00555158313364,0.00638851709664,-0.999963700771
1576079504974947204,,63280,,1576079504,974802617,"""world""",,,-0.89524179697,0.0225899014622,1.85445547104,,-0.000796956126578,-0.0052984636277,0.00620293384418,-0.999966442585
1576079504993638208,,63281,,1576079504,993551520,"""world""",,,-0.895202159882,0.0225746165961,1.85443925858,,-0.00108473352157,-0.00554889906198,0.00645024003461,-0.999963283539
1576079505014086867,,63282,,1576079505,14001337,"""world""",,,-0.89519482851,0.022573236376,1.85444056988,,-0.00104464765172,-0.00554699683562,0.00639858609065,-0.999963581562
1576079505033631619,,63283,,1576079505,33519804,"""world""",,,-0.895210444927,0.0225788857788,1.85444378853,,-0.00106078875251,-0.00560140376911,0.00634287530556,-0.999963700771
1576079505054244377,,63284,,1576079505,54164238,"""world""",,,-0.89521420002,0.0225845426321,1.85443174839,,-0.00116110709496,-0.00555624393746,0.00620767753571,-0.999964654446
1576079505077895573,,63285,,1576079505,77666436,"""world""",,,-0.895212352276,0.0225801952183,1.85442638397,,-0.00111285876483,-0.00565930409357,0.00623832922429,-0.99996393919
1576079505096005181,,63286,,1576079505,95900783,"""world""",,,-0.895206212997,0.0225852057338,1.85443305969,,-0.00109199283179,-0.00559456460178,0.00620642956346,-0.999964535236
1576079505118512893,,63287,,1576079505,118408724,"""world""",,,-0.895264685154,0.0226119440049,1.85447382927,,-0.000668073713314,-0.00496089179069,0.00591455213726,-0.999970018864
1576079505134998144,,63288,,1576079505,134913284,"""world""",,,-0.895254433155,0.022605093196,1.8544781208,,-0.000636890763417,-0.0050091361627,0.00590645056218,-0.99996984005
1576079505153731438,,63289,,1576079505,153611276,"""world""",,,-0.89525449276,0.0226036086679,1.85447692871,,-0.000666076724883,-0.00501327030361,0.00596037646756,-0.999969482422
1576079505175821423,,63290,,1576079505,175683829,"""world""",,,-0.895199418068,0.022564984858,1.85443305969,,-0.0010343916947,-0.0055654454045,0.00644135195762,-0.999963283539
1576079505195134497,,63291,,1576079505,195014113,"""world""",,,-0.895211338997,0.0225771255791,1.85443079472,,-0.00108307204209,-0.00549609027803,0.0063584158197,-0.999964177608
1576079505214134156,,63292,,1576079505,214018688,"""world""",,,-0.89526373148,0.0226126592606,1.85447824001,,-0.000668259395752,-0.00495610106736,0.00587053084746,-0.999970316887
1576079505234882324,,63293,,1576079505,234559176,"""world""",,,-0.895206332207,0.0225832965225,1.85443818569,,-0.000994488596916,-0.00552130164579,0.00633673509583,-0.999964177608
1576079505254158173,,63294,,1576079505,254038339,"""world""",,,-0.895236134529,0.0225863885134,1.85445165634,,-0.000962311634794,-0.00527581200004,0.00612822221592,-0.999966859818
1576079505274363273,,63295,,1576079505,274278572,"""world""",,,-0.895210802555,0.0225709974766,1.85443305969,,-0.000987898907624,-0.00558655429631,0.00638174358755,-0.999963521957
1576079505293601681,,63296,,1576079505,293503732,"""world""",,,-0.895216047764,0.0225760526955,1.85443258286,,-0.00108345865738,-0.00562462443486,0.00639412738383,-0.999963223934
1576079505313631252,,63297,,1576079505,313555308,"""world""",,,-0.895208239555,0.0225635133684,1.85443878174,,-0.00105071696453,-0.00553511176258,0.00633499678224,-0.999964118004
1576079505335221412,,63298,,1576079505,335146123,"""world""",,,-0.895207822323,0.0225651692599,1.85444366932,,-0.00100877298974,-0.00559541815892,0.00638240994886,-0.999963462353
1576079505354144108,,63299,,1576079505,354042076,"""world""",,,-0.895205438137,0.0225731711835,1.85444045067,,-0.00107427453622,-0.00552341947332,0.00635926565155,-0.99996393919
1576079505374403864,,63300,,1576079505,374317255,"""world""",,,-0.895204603672,0.0225674826652,1.85443866253,,-0.00106669950765,-0.0055829952471,0.00631257984787,-0.99996393919
1576079505393601639,,63301,,1576079505,393523236,"""world""",,,-0.895202696323,0.0225662440062,1.85443663597,,-0.00102158042137,-0.00559335714206,0.00620349962264,-0.999964654446
1576079505415855014,,63302,,1576079505,415756075,"""world""",,,-0.8952023983,0.0225657057017,1.85444235802,,-0.000988489016891,-0.00554985459894,0.00634582852945,-0.999964058399
1576079505434826501,,63303,,1576079505,434750563,"""world""",,,-0.89520162344,0.022571541369,1.85443913937,,-0.00113487662748,-0.00563122611493,0.00641930894926,-0.999962985516
1576079505454961329,,63304,,1576079505,454774340,"""world""",,,-0.895203828812,0.0225629191846,1.85443377495,,-0.00107673194725,-0.00561560504138,0.00634799757972,-0.999963581562
1576079505473739749,,63305,,1576079505,473640399,"""world""",,,-0.89520418644,0.0225692596287,1.8544293642,,-0.00103882804979,-0.0055691646412,0.00633467640728,-0.99996393919
1576079505493620003,,63306,,1576079505,493532561,"""world""",,,-0.89519828558,0.0225630421191,1.85444116592,,-0.00103094964288,-0.0055376207456,0.00640856474638,-0.999963700771
1576079505514587107,,63307,,1576079505,514489652,"""world""",,,-0.895212769508,0.0225643608719,1.85443139076,,-0.00106377026532,-0.00558941438794,0.00637538498268,-0.999963521957
1576079505533612240,,63308,,1576079505,533504268,"""world""",,,-0.895211577415,0.0225769188255,1.85443651676,,-0.00107786315493,-0.00557753909379,0.0063446694985,-0.999963819981
1576079505553858137,,63309,,1576079505,553759673,"""world""",,,-0.895206451416,0.0225600525737,1.85443341732,,-0.00108625588473,-0.00561216520146,0.00643890304491,-0.999962925911
1576079505573806193,,63310,,1576079505,573536499,"""world""",,,-0.895210564137,0.0225732382387,1.85443437099,,-0.0010725291213,-0.00560788298026,0.00634654052556,-0.999963581562
1576079505594082566,,63311,,1576079505,593890787,"""world""",,,-0.895216882229,0.0225820988417,1.85443294048,,-0.00112639751751,-0.00556623097509,0.00637792609632,-0.999963581562
1576079505615256857,,63312,,1576079505,614688358,"""world""",,,-0.895223915577,0.0225716996938,1.85444867611,,-0.000960745150223,-0.00562751619145,0.00633909041062,-0.999963641167
1576079505634861213,,63313,,1576079505,634740375,"""world""",,,-0.895221173763,0.0225687175989,1.85443878174,,-0.00106589845382,-0.00562384910882,0.00633256230503,-0.999963581562
1576079505655991882,,63314,,1576079505,655890669,"""world""",,,-0.895219802856,0.0225851703435,1.85443735123,,-0.0010367189534,-0.00555331399664,0.0064651411958,-0.99996316433
1576079505675301486,,63315,,1576079505,675189580,"""world""",,,-0.895205557346,0.0225797165185,1.85443675518,,-0.00107683637179,-0.00554580660537,0.00621447851881,-0.99996483326
1576079505694224849,,63316,,1576079505,694123374,"""world""",,,-0.895214915276,0.0225701257586,1.85444676876,,-0.00103866984136,-0.00564967794344,0.0063135959208,-0.999963641167
1576079505713716461,,63317,,1576079505,713617060,"""world""",,,-0.895213901997,0.0225649066269,1.85444808006,,-0.00102879398037,-0.00559304095805,0.00634600920603,-0.999963700771
1576079505733704328,,63318,,1576079505,733553631,"""world""",,,-0.89520406723,0.0225625559688,1.85443937778,,-0.000996512710117,-0.00559626612812,0.00629651313648,-0.999963998795
1576079505754759628,,63319,,1576079505,754660355,"""world""",,,-0.895202040672,0.0225693713874,1.85443425179,,-0.00100400915835,-0.0055739087984,0.00646791001782,-0.99996304512
1576079505773805561,,63320,,1576079505,773667294,"""world""",,,-0.895202755928,0.0225780680776,1.85442912579,,-0.00111420464236,-0.00557318516076,0.00625557731837,-0.999964296818
1576079505793641837,,63321,,1576079505,793551719,"""world""",,,-0.895192742348,0.0225758142769,1.8544293642,,-0.00109628646169,-0.00562643725425,0.00635708961636,-0.999963402748
1576079505813768072,,63322,,1576079505,813682094,"""world""",,,-0.895203053951,0.0225732140243,1.85443007946,,-0.00111299694981,-0.00561635289341,0.00633850274608,-0.999963581562
1576079505834010553,,63323,,1576079505,833912318,"""world""",,,-0.895196557045,0.0225730463862,1.85443556309,,-0.00108422129415,-0.00559361279011,0.00629001203924,-0.999964058399
1576079505856267044,,63324,,1576079505,856173737,"""world""",,,-0.895207881927,0.022576071322,1.85443472862,,-0.00100643094629,-0.00557484850287,0.00629482837394,-0.999964177608
1576079505875428288,,63325,,1576079505,875340245,"""world""",,,-0.895197868347,0.0225786529481,1.8544318676,,-0.00105362571776,-0.00556795252487,0.00643965555355,-0.999963283539
1576079505895709452,,63326,,1576079505,895614293,"""world""",,,-0.895211696625,0.0225792545825,1.8544331789,,-0.00108477415051,-0.0055672400631,0.00630208197981,-0.999964118004
1576079505914108135,,63327,,1576079505,914014518,"""world""",,,-0.895236313343,0.0226095616817,1.85445225239,,-0.000767355726566,-0.00525304535404,0.00608542235568,-0.999967455864
1576079505935129319,,63328,,1576079505,935045660,"""world""",,,-0.895204901695,0.0225714594126,1.85443413258,,-0.00105512188748,-0.00554867740721,0.00636370573193,-0.999963819981
1576079505954877659,,63329,,1576079505,954792428,"""world""",,,-0.895199537277,0.0225766971707,1.85443031788,,-0.00102955126204,-0.00557072088122,0.0063607422635,-0.999963819981
1576079505973802810,,63330,,1576079505,973721977,"""world""",,,-0.895208179951,0.0225822869688,1.85442996025,,-0.000916380202398,-0.00558471633121,0.00639167474583,-0.999963641167
1576079505995891807,,63331,,1576079505,995769086,"""world""",,,-0.895264387131,0.0226290374994,1.85448145866,,-0.0005447595031,-0.00500556640327,0.00581338023767,-0.999970495701
1576079506013665329,,63332,,1576079506,13568829,"""world""",,,-0.895208954811,0.0225715469569,1.85443484783,,-0.00114001962356,-0.0055419546552,0.00627238722518,-0.999964416027
1576079506033632781,,63333,,1576079506,33522494,"""world""",,,-0.895212709904,0.0225920565426,1.8544280529,,-0.00106944481377,-0.00556496949866,0.00636602612212,-0.999963700771
1576079506054003517,,63334,,1576079506,53635201,"""world""",,,-0.895215570927,0.0225791670382,1.854429245,,-0.00102242128924,-0.0056018368341,0.00643349252641,-0.99996316433
1576079506074138180,,63335,,1576079506,73654431,"""world""",,,-0.895205438137,0.0225819163024,1.8544242382,,-0.00108258228283,-0.00564073678106,0.00624111481011,-0.999964058399
1576079506095677161,,63336,,1576079506,95554804,"""world""",,,-0.895203888416,0.0225764717907,1.85443484783,,-0.00114224757999,-0.0055952235125,0.00629354314879,-0.999963879585
1576079506115200736,,63337,,1576079506,115077550,"""world""",,,-0.895192265511,0.0225767027587,1.85444223881,,-0.00110745395068,-0.00552504230291,0.00631946465001,-0.999964177608
1576079506133633799,,63338,,1576079506,133530056,"""world""",,,-0.895207941532,0.0225853230804,1.85443890095,,-0.000990304397419,-0.00554025312886,0.00637129181996,-0.999963879585
1576079506154317834,,63339,,1576079506,154117469,"""world""",,,-0.895268678665,0.0226293522865,1.85448741913,,-0.000700308824889,-0.00496140541509,0.00590385077521,-0.999970078468
1576079506175128242,,63340,,1576079506,175011178,"""world""",,,-0.895214617252,0.0225712358952,1.85443174839,,-0.0010149209993,-0.00563089549541,0.00644285650924,-0.999962866306
1576079506193855094,,63341,,1576079506,193735767,"""world""",,,-0.895213365555,0.0225692503154,1.85443997383,,-0.00106165918987,-0.00560228200629,0.00634953659028,-0.999963641167
1576079506214630763,,63342,,1576079506,213764919,"""world""",,,-0.895208239555,0.0225777383894,1.85444128513,,-0.00114850141108,-0.00557085080072,0.00635360088199,-0.999963641167
1576079506233722058,,63343,,1576079506,233552438,"""world""",,,-0.89520740509,0.0225819665939,1.85443925858,,-0.00107523915358,-0.00556864682585,0.00637800199911,-0.999963581562
1576079506254165306,,63344,,1576079506,254005042,"""world""",,,-0.895193040371,0.0225746892393,1.85443496704,,-0.00106195779517,-0.00559525331482,0.00633872998878,-0.999963760376
1576079506274005851,,63345,,1576079506,273604322,"""world""",,,-0.895209610462,0.0225734245032,1.85443162918,,-0.00108348287176,-0.00556947663426,0.00633195461705,-0.999963879585
1576079506294194670,,63346,,1576079506,294024522,"""world""",,,-0.895206987858,0.022574108094,1.8544318676,,-0.00100808567367,-0.00555437011644,0.00632790615782,-0.999964058399
1576079506313687467,,63347,,1576079506,313582752,"""world""",,,-0.895208895206,0.0225691068918,1.85443079472,,-0.00114129600115,-0.0056177675724,0.00632318807766,-0.999963581562
1576079506336584431,,63348,,1576079506,336455491,"""world""",,,-0.895211160183,0.022571483627,1.85443675518,,-0.000972109788563,-0.00556287588552,0.00641633803025,-0.999963521957
1576079506355025197,,63349,,1576079506,354920223,"""world""",,,-0.895210504532,0.0225695036352,1.85443401337,,-0.00104822858702,-0.00564067764208,0.00639903917909,-0.999963104725
1576079506374085643,,63350,,1576079506,373821590,"""world""",,,-0.895196855068,0.0225723665208,1.85444247723,,-0.00104543147609,-0.00553371338174,0.00635424628854,-0.99996393919
1576079506393683646,,63351,,1576079506,393576052,"""world""",,,-0.895206332207,0.0225798152387,1.85443925858,,-0.000998798874207,-0.0055357189849,0.00642284890637,-0.999963581562
1576079506413637848,,63352,,1576079506,413518360,"""world""",,,-0.895203053951,0.0225702952594,1.85444355011,,-0.00107001885772,-0.00557182123885,0.00620398623869,-0.999964654446
1576079506433729905,,63353,,1576079506,433631790,"""world""",,,-0.895201444626,0.0225667841733,1.85443866253,,-0.00107052468229,-0.0055646575056,0.00630137231201,-0.999964177608
1576079506454804040,,63354,,1576079506,454683137,"""world""",,,-0.895210802555,0.0225761011243,1.85443198681,,-0.00110627349932,-0.00560680124909,0.00634461129084,-0.999963581562
1576079506475223084,,63355,,1576079506,475097510,"""world""",,,-0.895204126835,0.0225739534944,1.85443460941,,-0.00103108980693,-0.00557792698964,0.00646582106128,-0.999963104725
1576079506493753583,,63356,,1576079506,493650626,"""world""",,,-0.895209312439,0.0225769616663,1.85443651676,,-0.00106054812204,-0.0055737295188,0.00630468130112,-0.999964058399
1576079506513749151,,63357,,1576079506,513593270,"""world""",,,-0.895199000835,0.0225767530501,1.85443210602,,-0.00101196637843,-0.00558087183163,0.0063254730776,-0.99996393919
1576079506534422584,,63358,,1576079506,534288670,"""world""",,,-0.895199418068,0.0225768387318,1.85443174839,,-0.0010444734944,-0.00559067027643,0.00632752059028,-0.999963819981
1576079506553834507,,63359,,1576079506,553731213,"""world""",,,-0.895209133625,0.0225809197873,1.85443210602,,-0.0011120014824,-0.00562415877357,0.00627266941592,-0.99996393919
1576079506574055627,,63360,,1576079506,573929188,"""world""",,,-0.895203649998,0.0225662067533,1.85442769527,,-0.00104738213122,-0.00560549646616,0.00632362766191,-0.999963760376
1576079506593626527,,63361,,1576079506,593521136,"""world""",,,-0.895210385323,0.0225715599954,1.85442960262,,-0.0010944904061,-0.00555296055973,0.00641000457108,-0.999963462353
1576079506613655375,,63362,,1576079506,613555437,"""world""",,,-0.89520907402,0.0225576292723,1.8544305563,,-0.00101857527625,-0.00553956022486,0.00638748379424,-0.999963819981
1576079506633604137,,63363,,1576079506,633522719,"""world""",,,-0.895204126835,0.022571079433,1.85444402695,,-0.00103614362888,-0.00551313301548,0.00626104045659,-0.999964654446
1576079506653625511,,63364,,1576079506,653549931,"""world""",,,-0.895215034485,0.0225781220943,1.85443198681,,-0.00103626493365,-0.00559807009995,0.0063344729133,-0.999963819981
1576079506673878050,,63365,,1576079506,673801383,"""world""",,,-0.895207643509,0.0225789770484,1.85443091393,,-0.00105007935781,-0.00561891915277,0.00631049368531,-0.999963819981
1576079506693632824,,63366,,1576079506,693554973,"""world""",,,-0.895203351974,0.0225736256689,1.85443139076,,-0.00109443382826,-0.00556273804978,0.00622930331156,-0.999964594841
1576079506713682673,,63367,,1576079506,713591093,"""world""",,,-0.895218074322,0.0225718989968,1.85443139076,,-0.000990315922536,-0.00551914097741,0.00628547230735,-0.999964535236
1576079506734027453,,63368,,1576079506,733956441,"""world""",,,-0.895209729671,0.0225842762738,1.85443949699,,-0.000978164607659,-0.00556165771559,0.00636731646955,-0.999963760376
1576079506753980345,,63369,,1576079506,753866458,"""world""",,,-0.895210087299,0.0225812476128,1.85442781448,,-0.00105828710366,-0.00556897977367,0.00621982198209,-0.999964594841
1576079506773588552,,63370,,1576079506,773517213,"""world""",,,-0.895212054253,0.0225878842175,1.8544305563,,-0.00101953116246,-0.00549281062558,0.00638360530138,-0.999963998795
1576079506793662086,,63371,,1576079506,793570389,"""world""",,,-0.895210504532,0.02256908454,1.85443043709,,-0.00101782404818,-0.00553331989795,0.00635739136487,-0.999963998795
1576079506813591090,,63372,,1576079506,813516978,"""world""",,,-0.895211458206,0.0225786101073,1.85443437099,,-0.00108692585491,-0.00556100625545,0.00627979869023,-0.999964296818
1576079506833626935,,63373,,1576079506,833536640,"""world""",,,-0.895203888416,0.0225713085383,1.85443866253,,-0.00106791465078,-0.00562667101622,0.00629705563188,-0.999963819981
1576079506854905176,,63374,,1576079506,854789962,"""world""",,,-0.895207226276,0.0225732214749,1.85443425179,,-0.00101787177846,-0.00555813219398,0.00630864873528,-0.999964177608
1576079506873748090,,63375,,1576079506,873647473,"""world""",,,-0.895210683346,0.0225751679391,1.85443115234,,-0.000993173918687,-0.00563170341775,0.00634217401966,-0.999963581562
1576079506893661944,,63376,,1576079506,893572902,"""world""",,,-0.895204365253,0.0225699376315,1.8544344902,,-0.00107101548929,-0.0055646346882,0.00631889142096,-0.999964058399
1576079506913849162,,63377,,1576079506,913777024,"""world""",,,-0.895206391811,0.0225719325244,1.85442698002,,-0.00111596554052,-0.00558130070567,0.00642215739936,-0.999963283539
1576079506933823778,,63378,,1576079506,933742339,"""world""",,,-0.895206749439,0.022572664544,1.85443723202,,-0.00109105638694,-0.00556271756068,0.00633795466274,-0.999963879585
1576079506953558626,,63379,,1576079506,953470264,"""world""",,,-0.895203948021,0.0225696749985,1.85443711281,,-0.00114647066221,-0.00555428024381,0.00629804329947,-0.999964118004
1576079506973647563,,63380,,1576079506,973568264,"""world""",,,-0.895210921764,0.0225775875151,1.85443413258,,-0.00110949599184,-0.00557967694476,0.00636778911576,-0.999963581562
1576079506993515397,,63381,,1576079506,993413430,"""world""",,,-0.895209789276,0.0225596148521,1.85443639755,,-0.00109652918763,-0.00561162224039,0.00631688628346,-0.999963760376
1576079507014500665,,63382,,1576079507,14419235,"""world""",,,-0.895202040672,0.0225702412426,1.85443711281,,-0.0011110662017,-0.00558880995959,0.00628960458562,-0.999963998795
1576079507034540708,,63383,,1576079507,33472284,"""world""",,,-0.895203769207,0.0225689522922,1.85443437099,,-0.00100980792195,-0.00561109744012,0.00633956259117,-0.999963641167
1576079507054145701,,63384,,1576079507,54059150,"""world""",,,-0.895200788975,0.022571541369,1.85443806648,,-0.00110242317896,-0.00560890277848,0.00634948303923,-0.999963581562
1576079507073747264,,63385,,1576079507,73622027,"""world""",,,-0.895201325417,0.0225744079798,1.85442781448,,-0.00112924992573,-0.00553169287741,0.00629177689552,-0.999964296818
1576079507093609031,,63386,,1576079507,93493418,"""world""",,,-0.895201027393,0.0225738491863,1.85443508625,,-0.00106484384742,-0.00553136086091,0.00630670366809,-0.999964296818
1576079507113831648,,63387,,1576079507,113714102,"""world""",,,-0.895209729671,0.0225727241486,1.85443198681,,-0.00107191980351,-0.0055740266107,0.0063839610666,-0.999963581562
1576079507133723527,,63388,,1576079507,133647425,"""world""",,,-0.895209014416,0.0225698240101,1.85443270206,,-0.00113921274897,-0.00563330482692,0.00634104898199,-0.999963402748
1576079507156856527,,63389,,1576079507,156747757,"""world""",,,-0.895221590996,0.0225745216012,1.85443770885,,-0.00103670987301,-0.00563540868461,0.00629048608243,-0.999963819981
1576079507175032160,,63390,,1576079507,174933930,"""world""",,,-0.895227789879,0.0225791074336,1.85443425179,,-0.000928537629079,-0.00554511230439,0.00650637922809,-0.99996304512
1576079507193874556,,63391,,1576079507,193705868,"""world""",,,-0.895211040974,0.0225774701685,1.85443031788,,-0.00109667342622,-0.00553227355704,0.00630580633879,-0.999964296818
1576079507214053214,,63392,,1576079507,213943911,"""world""",,,-0.895213842392,0.0225766785443,1.85442948341,,-0.00103307096288,-0.00550009589642,0.00630438234657,-0.999964535236
1576079507234772936,,63393,,1576079507,234640406,"""world""",,,-0.89524435997,0.0225851275027,1.85445535183,,-0.000861815002281,-0.0052577056922,0.00615169387311,-0.999966979027
1576079507253680918,,63394,,1576079507,253589880,"""world""",,,-0.895210981369,0.0225768145174,1.85443150997,,-0.00107921904419,-0.00558497570455,0.00635326933116,-0.999963641167
1576079507273680632,,63395,,1576079507,273603880,"""world""",,,-0.895204782486,0.0225647483021,1.85443615913,,-0.000935690186452,-0.00559619767591,0.0063044144772,-0.999964058399
1576079507294430906,,63396,,1576079507,294346335,"""world""",,,-0.895203411579,0.0225739162415,1.85442841053,,-0.00112015288323,-0.00555709656328,0.00633982429281,-0.999963819981
1576079507313685500,,63397,,1576079507,313578775,"""world""",,,-0.895204246044,0.0225775130093,1.85443305969,,-0.00103747693356,-0.00557655887678,0.00632201787084,-0.99996393919
1576079507333558950,,63398,,1576079507,333482694,"""world""",,,-0.895203530788,0.0225731935352,1.85442447662,,-0.00106908881571,-0.00553619675338,0.00635206745937,-0.999963998795
1576079507353611575,,63399,,1576079507,353541878,"""world""",,,-0.895206451416,0.0225627738982,1.85443150997,,-0.00107616698369,-0.00557188829407,0.00629782862961,-0.999964118004
1576079507373623789,,63400,,1576079507,373536344,"""world""",,,-0.895199000835,0.0225671585649,1.85443544388,,-0.000990080297925,-0.0055981669575,0.00620771991089,-0.999964654446
1576079507393729371,,63401,,1576079507,393591723,"""world""",,,-0.895205438137,0.0225741155446,1.85442888737,,-0.00105977989733,-0.00559464329854,0.00620960723609,-0.999964535236
1576079507414162922,,63402,,1576079507,414090257,"""world""",,,-0.895213603973,0.0225706677884,1.85442960262,,-0.00103994982783,-0.00559019343928,0.00635119620711,-0.999963760376
1576079507433569077,,63403,,1576079507,433485003,"""world""",,,-0.895204365253,0.0225797090679,1.85443329811,,-0.00109006708954,-0.00555512402207,0.00630399538204,-0.999964177608
1576079507453706935,,63404,,1576079507,453625830,"""world""",,,-0.895209014416,0.0225632954389,1.85443711281,,-0.00106894085184,-0.00554798496887,0.00641845213249,-0.999963521957
1576079507474398942,,63405,,1576079507,474252811,"""world""",,,-0.895214080811,0.022561121732,1.85444331169,,-0.00107176159509,-0.00559322256595,0.00631955638528,-0.999963819981
1576079507493629000,,63406,,1576079507,493537099,"""world""",,,-0.895215451717,0.0225709881634,1.85443925858,,-0.000936843862291,-0.00557884201407,0.00633445009589,-0.999963998795
1576079507513534785,,63407,,1576079507,513430000,"""world""",,,-0.895209431648,0.0225744396448,1.85443305969,,-0.00103229726665,-0.00555011210963,0.00633181352168,-0.999964058399
1576079507534018688,,63408,,1576079507,533703024,"""world""",,,-0.895210385323,0.0225851107389,1.85443866253,,-0.00102435192093,-0.00555695639923,0.00630176113918,-0.999964237213
1576079507553877290,,63409,,1576079507,553753552,"""world""",,,-0.895216524601,0.022589514032,1.85443472862,,-0.000939978344832,-0.00559537438676,0.00641557294875,-0.999963343143
1576079507573928033,,63410,,1576079507,573527880,"""world""",,,-0.89520740509,0.0225723292679,1.85442864895,,-0.00101730460301,-0.0055823228322,0.00633318210021,-0.99996393919
1576079507594330075,,63411,,1576079507,594248384,"""world""",,,-0.895207047462,0.0225762091577,1.85442948341,,-0.00107837212272,-0.00560532743111,0.00642504775897,-0.99996304512
1576079507613706488,,63412,,1576079507,613559468,"""world""",,,-0.895210266113,0.0225695576519,1.85442709923,,-0.00110674463212,-0.00558268465102,0.00630254857242,-0.999963998795
1576079507634023301,,63413,,1576079507,633922968,"""world""",,,-0.895208954811,0.0225856080651,1.85443150997,,-0.00114904239308,-0.00556276971474,0.00633685477078,-0.999963819981
1576079507653792562,,63414,,1576079507,653618246,"""world""",,,-0.895206153393,0.0225760173053,1.85442996025,,-0.000980278011411,-0.00561007624492,0.00642646290362,-0.999963223934
1576079507673847727,,63415,,1576079507,673630767,"""world""",,,-0.895204424858,0.0225745495409,1.85443925858,,-0.00103129027411,-0.0055580935441,0.00623906869441,-0.999964594841
1576079507693583792,,63416,,1576079507,693497877,"""world""",,,-0.895195782185,0.0225745867938,1.85443794727,,-0.00116864568554,-0.00556190218776,0.00629789987579,-0.999964058399
1576079507713596167,,63417,,1576079507,713503606,"""world""",,,-0.895211815834,0.0225906316191,1.85443103313,,-0.00109862000681,-0.00548678636551,0.00638674525544,-0.99996393919
1576079507733645328,,63418,,1576079507,733543648,"""world""",,,-0.895203113556,0.022568365559,1.85442316532,,-0.00107865303289,-0.00562927592546,0.00636405963451,-0.999963402748
1576079507753542877,,63419,,1576079507,753469832,"""world""",,,-0.895215690136,0.0225820019841,1.85441803932,,-0.00110091478564,-0.00563161401078,0.00633399095386,-0.999963521957
1576079507773609079,,63420,,1576079507,773531423,"""world""",,,-0.895204126835,0.0225681401789,1.85443305969,,-0.00103030342143,-0.00555867888033,0.00633639376611,-0.999963998795
1576079507793564384,,63421,,1576079507,793472130,"""world""",,,-0.895201146603,0.0225733779371,1.85443091393,,-0.00106214894913,-0.00556020950899,0.00628961855546,-0.999964237213
1576079507813568663,,63422,,1576079507,813494781,"""world""",,,-0.895200252533,0.0225685499609,1.85443401337,,-0.00102386146318,-0.00556422676891,0.00644158665091,-0.999963223934
1576079507833886125,,63423,,1576079507,833770594,"""world""",,,-0.895206272602,0.0225752927363,1.85443377495,,-0.00103235570714,-0.00554959010333,0.00627548713237,-0.999964416027
1576079507854224187,,63424,,1576079507,854151484,"""world""",,,-0.895207941532,0.0225709099323,1.85443341732,,-0.0010159634985,-0.00561171863228,0.0064440141432,-0.999962985516
1576079507873615808,,63425,,1576079507,873533198,"""world""",,,-0.895218372345,0.0225749630481,1.85443341732,,-0.000992559129372,-0.00556184351444,0.00635627051815,-0.999963879585
1576079507893514610,,63426,,1576079507,893444195,"""world""",,,-0.895210027695,0.0225745812058,1.85442709923,,-0.00111983029637,-0.00564402993768,0.00631267949939,-0.999963581562
1576079507913946263,,63427,,1576079507,913862662,"""world""",,,-0.8952216506,0.0225694794208,1.85442876816,,-0.000995978829451,-0.00558336963877,0.00638315919787,-0.999963521957
1576079507933522135,,63428,,1576079507,933444821,"""world""",,,-0.895217478275,0.0225807297975,1.85443150997,,-0.00110644171946,-0.00561168277636,0.00636978447437,-0.999963402748
1576079507953755964,,63429,,1576079507,953675099,"""world""",,,-0.895206511021,0.0225782450289,1.85442721844,,-0.00105298077688,-0.00556990504265,0.00627638492733,-0.999964237213
1576079507973833105,,63430,,1576079507,973748333,"""world""",,,-0.895211577415,0.0225696340203,1.85442304611,,-0.00113289256115,-0.00557023799047,0.00636546546593,-0.999963641167
1576079507993583270,,63431,,1576079507,993496598,"""world""",,,-0.895207822323,0.0225740596652,1.85442686081,,-0.00105824740604,-0.00557457702234,0.0063673988916,-0.999963700771
1576079508013585680,,63432,,1576079508,13502572,"""world""",,,-0.8952023983,0.0225739125162,1.85443425179,,-0.00107160874177,-0.00551416166127,0.00635759392753,-0.999963998795
1576079508034010893,,63433,,1576079508,33936535,"""world""",,,-0.895213961601,0.0225682463497,1.85442399979,,-0.00102071522269,-0.00565249472857,0.00629918463528,-0.999963760376
1576079508053515456,,63434,,1576079508,53436458,"""world""",,,-0.895216703415,0.0225946623832,1.85442960262,,-0.00113043887541,-0.005575530231,0.00629602139816,-0.999964058399
1576079508073540134,,63435,,1576079508,73420343,"""world""",,,-0.895206809044,0.0225784182549,1.85442638397,,-0.00110270315781,-0.00552873359993,0.00631124293432,-0.999964237213
1576079508093612516,,63436,,1576079508,93496842,"""world""",,,-0.895092785358,0.0225367862731,1.8545011282,,-0.00136993534397,-0.00643639406189,0.00618857098743,-0.999959230423
1576079508114255858,,63437,,1576079508,114103746,"""world""",,,-0.895211815834,0.0225731376559,1.85442352295,,-0.00098164647352,-0.00563186779618,0.00632982701063,-0.999963700771
1576079508134142258,,63438,,1576079508,134055180,"""world""",,,-0.895209729671,0.0225772615522,1.85442209244,,-0.00100870989263,-0.00563158420846,0.00641203392297,-0.99996316433
1576079508153689418,,63439,,1576079508,153565541,"""world""",,,-0.89524012804,0.0225924383849,1.85444712639,,-0.000877303478774,-0.00527721364051,0.00613409793004,-0.999966859818
1576079508173567768,,63440,,1576079508,173472647,"""world""",,,-0.895207345486,0.0225731413811,1.85443413258,,-0.00101453473326,-0.00554698798805,0.00635501556098,-0.99996393919
1576079508194399930,,63441,,1576079508,194293291,"""world""",,,-0.895215451717,0.022576674819,1.85442280769,,-0.000954032177106,-0.00556931085885,0.0064126867801,-0.999963462353
1576079508216206042,,63442,,1576079508,216112530,"""world""",,,-0.895208895206,0.0225732531399,1.85442101955,,-0.00101275136694,-0.00555670866743,0.00637766206637,-0.999963760376
1576079508233605150,,63443,,1576079508,233528063,"""world""",,,-0.89520329237,0.022571420297,1.85443246365,,-0.000991203356534,-0.00558319780976,0.00645282212645,-0.99996316433
1576079508253677782,,63444,,1576079508,253601843,"""world""",,,-0.895201325417,0.0225703660399,1.85443508625,,-0.000978551572189,-0.00549002829939,0.00630006240681,-0.999964594841
1576079508274087119,,63445,,1576079508,274014983,"""world""",,,-0.89520329237,0.0225615799427,1.8544293642,,-0.000972836627625,-0.00554946763441,0.00628547044471,-0.999964475632
1576079508293698733,,63446,,1576079508,293624041,"""world""",,,-0.895203232765,0.0225646607578,1.85443639755,,-0.00102677219547,-0.00555230490863,0.00632236013189,-0.999964118004
1576079508313743838,,63447,,1576079508,313625621,"""world""",,,-0.895210564137,0.0225740261376,1.85443437099,,-0.00101602706127,-0.00562139227986,0.00636301841587,-0.999963521957
1576079508333642184,,63448,,1576079508,333550686,"""world""",,,-0.895201385021,0.0225661899894,1.85444164276,,-0.000956796458922,-0.00557418819517,0.00631628884003,-0.999964118004
1576079508353693358,,63449,,1576079508,353616251,"""world""",,,-0.895202100277,0.022573120892,1.85443997383,,-0.000953127862886,-0.0055610332638,0.00631509069353,-0.999964177608
1576079508373578859,,63450,,1576079508,373486050,"""world""",,,-0.895212769508,0.0225762743503,1.85443222523,,-0.00104671192821,-0.0055804848671,0.00642566010356,-0.999963283539
1576079508393821356,,63451,,1576079508,393654717,"""world""",,,-0.895214021206,0.0225720852613,1.85442709923,,-0.000926060194615,-0.00561721390113,0.00628017168492,-0.999964118004
1576079508413981840,,63452,,1576079508,413888501,"""world""",,,-0.895208179951,0.0225800573826,1.85442757607,,-0.000969322631136,-0.00555283203721,0.00630689412355,-0.999964296818
1576079508433672366,,63453,,1576079508,433596716,"""world""",,,-0.895197272301,0.0225742887706,1.85443329811,,-0.0011052864138,-0.0055671823211,0.00630037905648,-0.999964058399
1576079508453666471,,63454,,1576079508,453576778,"""world""",,,-0.895200967789,0.0225620511919,1.85444033146,,-0.000996980699711,-0.00558066414669,0.00627352995798,-0.999964296818
1576079508473525957,,63455,,1576079508,473445398,"""world""",,,-0.895197749138,0.0225673224777,1.85443615913,,-0.000993950176053,-0.00558524765074,0.00626420648769,-0.999964356422
1576079508493844032,,63456,,1576079508,493758414,"""world""",,,-0.895204424858,0.022574275732,1.85442399979,,-0.00106789753772,-0.00558169698343,0.00631878525019,-0.999963879585
1576079508513518819,,63457,,1576079508,513410511,"""world""",,,-0.895192563534,0.0225604157895,1.85443043709,,-0.00103281449992,-0.00554071972147,0.00631236983463,-0.999964237213
1576079508533538117,,63458,,1576079508,533440937,"""world""",,,-0.895206093788,0.0225823111832,1.85442793369,,-0.000997861265205,-0.00556813832372,0.00645657582209,-0.999963223934
1576079508553670977,,63459,,1576079508,553595343,"""world""",,,-0.895201265812,0.0225763935596,1.85442912579,,-0.00104413577355,-0.00554849207401,0.00626234570518,-0.999964475632
1576079508574062095,,63460,,1576079508,573824498,"""world""",,,-0.895191371441,0.0225749202073,1.85442006588,,-0.00109304406215,-0.00561885721982,0.00639098230749,-0.999963223934
1576079508593614196,,63461,,1576079508,593499319,"""world""",,,-0.895204007626,0.0225676614791,1.85442245007,,-0.000980356941,-0.00560133811086,0.00633181678131,-0.999963819981
1576079508613649458,,63462,,1576079508,613541398,"""world""",,,-0.895198643208,0.022567877546,1.85443127155,,-0.00109000876546,-0.00559757649899,0.00639568362385,-0.999963343143
1576079508633659837,,63463,,1576079508,633541105,"""world""",,,-0.89520573616,0.0225689280778,1.85443747044,,-0.00099752494134,-0.00554330227897,0.00634547555819,-0.999964058399
1576079508654683777,,63464,,1576079508,654539967,"""world""",,,-0.895198941231,0.0225665848702,1.85443425179,,-0.00103476596996,-0.00557485269383,0.00629699183628,-0.999964118004
1576079508673826927,,63465,,1576079508,673704743,"""world""",,,-0.895211875439,0.022571625188,1.85442912579,,-0.00109753571451,-0.00557129224762,0.00642167311162,-0.999963343143
1576079508694426530,,63466,,1576079508,694309586,"""world""",,,-0.895212888718,0.022569866851,1.85443282127,,-0.00115128280595,-0.00554315419868,0.0063450532034,-0.99996393919
1576079508713792246,,63467,,1576079508,713692991,"""world""",,,-0.895203173161,0.0225597321987,1.85443377495,,-0.00105621200055,-0.00551492813975,0.00632774084806,-0.999964237213
1576079508733555564,,63468,,1576079508,733447902,"""world""",,,-0.895207643509,0.0225636716932,1.85443294048,,-0.00110482960008,-0.00554710766301,0.00638942001387,-0.999963581562
1576079508754301241,,63469,,1576079508,754213265,"""world""",,,-0.895203948021,0.0225698761642,1.85442590714,,-0.00109334720764,-0.00562470173463,0.00639832764864,-0.99996316433
1576079508773528553,,63470,,1576079508,773451709,"""world""",,,-0.895213901997,0.0225691087544,1.85442781448,,-0.00108345376793,-0.00560106383637,0.00638105208054,-0.999963402748
1576079508793511380,,63471,,1576079508,793403071,"""world""",,,-0.895187914371,0.0225637611002,1.85442864895,,-0.00117123906966,-0.00557395908982,0.00634009344503,-0.999963700771
1576079508814131406,,63472,,1576079508,814035868,"""world""",,,-0.895200431347,0.0225570444018,1.85443150997,,-0.00107331376057,-0.00558741716668,0.00632563699037,-0.999963879585
1576079508833700073,,63473,,1576079508,833605783,"""world""",,,-0.89519906044,0.0225679334253,1.85443556309,,-0.00112861965317,-0.00555906072259,0.00632683979347,-0.999963998795
1576079508854403393,,63474,,1576079508,854302599,"""world""",,,-0.895196437836,0.022554943338,1.854429245,,-0.00108586356509,-0.00558943999931,0.00634380569682,-0.999963700771
1576079508873569762,,63475,,1576079508,873474209,"""world""",,,-0.895195662975,0.0225547309965,1.85443890095,,-0.00100181123707,-0.00561758037657,0.00634555984288,-0.999963581562
1576079508893548199,,63476,,1576079508,893470622,"""world""",,,-0.895206928253,0.0225563570857,1.85444152355,,-0.000973374233581,-0.00560684734955,0.00632889801636,-0.999963819981
1576079508913614994,,63477,,1576079508,913531706,"""world""",,,-0.895204603672,0.0225682351738,1.85443019867,,-0.00105826277286,-0.00553733063862,0.00629998929799,-0.999964237213
1576079508933508254,,63478,,1576079508,933438015,"""world""",,,-0.895195305347,0.0225620362908,1.8544369936,,-0.00109144218732,-0.00560339773074,0.00626933434978,-0.999964118004
1576079508954009662,,63479,,1576079508,953911487,"""world""",,,-0.895205795765,0.0225576590747,1.85443592072,,-0.00106633454561,-0.00552589446306,0.00633393600583,-0.999964177608
1576079508974059664,,63480,,1576079508,973961956,"""world""",,,-0.895198404789,0.0225615277886,1.85443305969,,-0.00105092395097,-0.00550249963999,0.00629757717252,-0.999964535236
1576079508993735408,,63481,,1576079508,993668637,"""world""",,,-0.895208716393,0.0225659422576,1.85442245007,,-0.00105344119947,-0.00556633900851,0.00636602425948,-0.999963760376
1576079509020176388,,63482,,1576079509,14922168,"""world""",,,-0.89520329237,0.0225571803749,1.85443210602,,-0.000965475745033,-0.0055604823865,0.00630523730069,-0.999964237213
1576079509035714012,,63483,,1576079509,35296217,"""world""",,,-0.895205497742,0.0225527957082,1.85443401337,,-0.00101599097252,-0.0055924449116,0.00634635519236,-0.999963760376
1576079509053562398,,63484,,1576079509,53426729,"""world""",,,-0.895195662975,0.0225602686405,1.85443937778,,-0.00100893736817,-0.00548007059842,0.00626842631027,-0.99996483326
1576079509074533745,,63485,,1576079509,74406532,"""world""",,,-0.895205080509,0.0225702952594,1.85443592072,,-0.0010995073244,-0.00551196373999,0.00636253599077,-0.999964058399
1576079509094191599,,63486,,1576079509,94088763,"""world""",,,-0.895108819008,0.0225361064076,1.85450088978,,-0.00129753316287,-0.00640117935836,0.00595054775476,-0.999961018562
1576079509113765737,,63487,,1576079509,113670580,"""world""",,,-0.895206391811,0.0225700475276,1.85443115234,,-0.00103813433088,-0.00554588623345,0.0063042761758,-0.999964296818
1576079509133750902,,63488,,1576079509,133619860,"""world""",,,-0.895212292671,0.0225719604641,1.85444140434,,-0.00107297953218,-0.00559744145721,0.00631191534922,-0.999963879585
1576079509155124820,,63489,,1576079509,155016126,"""world""",,,-0.895215332508,0.0225653331727,1.85442984104,,-0.00105479964986,-0.0055737295188,0.00630418537185,-0.999964118004
1576079509173654134,,63490,,1576079509,173491357,"""world""",,,-0.895204365253,0.0225706901401,1.85443556309,,-0.00104517873842,-0.005520590581,0.00634702201933,-0.999964058399
1576079509194458448,,63491,,1576079509,194162430,"""world""",,,-0.895214438438,0.0225826818496,1.85442745686,,-0.00108447507955,-0.00561934430152,0.00634054280818,-0.999963581562
1576079509213555558,,63492,,1576079509,213450988,"""world""",,,-0.895216047764,0.0225746482611,1.8544318676,,-0.00104996969458,-0.00558060081676,0.00639369292185,-0.999963462353
1576079509234142337,,63493,,1576079509,234035015,"""world""",,,-0.89520573616,0.0225721877068,1.85443711281,,-0.000930378737394,-0.0055465484038,0.00639207055792,-0.999963819981
1576079509253667517,,63494,,1576079509,253552612,"""world""",,,-0.895202040672,0.0225673075765,1.85444390774,,-0.00105827033985,-0.00556887080893,0.00630496442318,-0.999964058399
1576079509273589774,,63495,,1576079509,273486377,"""world""",,,-0.895215988159,0.0225710663944,1.85443603992,,-0.00104687502608,-0.00559026747942,0.00629666494206,-0.999964058399
1576079509293596864,,63496,,1576079509,293497036,"""world""",,,-0.895213127136,0.0225677378476,1.85442841053,,-0.00109394325409,-0.0055711241439,0.0063434317708,-0.999963760376
1576079509313797190,,63497,,1576079509,313693655,"""world""",,,-0.895199120045,0.0225687306374,1.85444140434,,-0.00113770412281,-0.00554478028789,0.00632552569732,-0.999963998795
1576079509333839507,,63498,,1576079509,333714665,"""world""",,,-0.895207047462,0.0225590150803,1.85443687439,,-0.00100436143111,-0.00556301744655,0.00631787721068,-0.999964058399
1576079509354174655,,63499,,1576079509,354039818,"""world""",,,-0.895202755928,0.0225639548153,1.85443425179,,-0.00105604436249,-0.00552141480148,0.00637771515176,-0.999963879585
1576079509373628404,,63500,,1576079509,373509012,"""world""",,,-0.895207703114,0.0225708987564,1.854424119,,-0.00114049343392,-0.00559359509498,0.00627940008417,-0.999963998795
1576079509393597559,,63501,,1576079509,393493093,"""world""",,,-0.895201265812,0.022569630295,1.85443258286,,-0.00115307443775,-0.00557504128665,0.00628751795739,-0.999964118004
1576079509413581606,,63502,,1576079509,413457809,"""world""",,,-0.895202100277,0.0225596372038,1.85443067551,,-0.0010217736708,-0.00558245508,0.0062704840675,-0.999964296818
1576079509433799841,,63503,,1576079509,433466024,"""world""",,,-0.895206272602,0.0225774887949,1.85443973541,,-0.00104903941974,-0.00554563524202,0.00627996539697,-0.999964356422
1576079509453670587,,63504,,1576079509,453548849,"""world""",,,-0.895208895206,0.0225724987686,1.85442876816,,-0.00108742353041,-0.00555591285229,0.00625914754346,-0.999964475632
1576079509473848156,,63505,,1576079509,473666965,"""world""",,,-0.895218372345,0.0225685406476,1.85442268848,,-0.000876407255419,-0.0055226655677,0.00634627183899,-0.999964237213
1576079509494414188,,63506,,1576079509,493619407,"""world""",,,-0.895211160183,0.0225687734783,1.8544242382,,-0.00103373429738,-0.00553196296096,0.00633879657835,-0.999964058399
1576079509514401699,,63507,,1576079509,514284111,"""world""",,,-0.895213901997,0.0225774776191,1.85441863537,,-0.00107636582106,-0.00556854577735,0.00629152124748,-0.999964177608
1576079509533630612,,63508,,1576079509,533507745,"""world""",,,-0.895199716091,0.0225720461458,1.85442602634,,-0.00113794277422,-0.00550750829279,0.00635380437598,-0.999963998795
1576079509553560616,,63509,,1576079509,553453075,"""world""",,,-0.895205080509,0.0225677657872,1.85443329811,,-0.0010259593837,-0.00548917334527,0.00635301321745,-0.999964237213
1576079509573633956,,63510,,1576079509,573526831,"""world""",,,-0.895212233067,0.0225692540407,1.85443139076,,-0.00106842815876,-0.00555697036907,0.00634727720171,-0.999963879585
1576079509593764768,,63511,,1576079509,593654282,"""world""",,,-0.895211517811,0.02257883735,1.8544305563,,-0.00105788186193,-0.00552055984735,0.00641915900633,-0.999963700771
1576079509614413365,,63512,,1576079509,614237632,"""world""",,,-0.895219147205,0.0225870124996,1.85442876816,,-0.00101583229844,-0.0055416226387,0.00649012764916,-0.999963104725
1576079509633627339,,63513,,1576079509,633503590,"""world""",,,-0.895218729973,0.022580139339,1.85443174839,,-0.00106720218901,-0.00556117575616,0.00642150966451,-0.999963343143
1576079509653549506,,63514,,1576079509,653438281,"""world""",,,-0.895208358765,0.0225669238716,1.85443413258,,-0.00108419149183,-0.005602595862,0.0063358140178,-0.999963700771
1576079509673604591,,63515,,1576079509,673502347,"""world""",,,-0.895211279392,0.0225698780268,1.85442876816,,-0.00103751383722,-0.00558358756825,0.00634409440681,-0.999963819981
1576079509693787323,,63516,,1576079509,693652428,"""world""",,,-0.895214617252,0.0225829854608,1.85442829132,,-0.00102290022187,-0.00558022083715,0.00633599655703,-0.999963819981
1576079509713574194,,63517,,1576079509,713451220,"""world""",,,-0.895209372044,0.0225785840303,1.85442745686,,-0.00112606398761,-0.00559172034264,0.00630427338183,-0.999963879585
1576079509733798961,,63518,,1576079509,733590957,"""world""",,,-0.895199477673,0.0225704107434,1.8544318676,,-0.00111403060146,-0.00558948284015,0.00625124014914,-0.999964296818
1576079509753896266,,63519,,1576079509,753772152,"""world""",,,-0.895205795765,0.0225549563766,1.8544305563,,-0.00107844942249,-0.00557280611247,0.00634019030258,-0.999963819981
1576079509773637314,,63520,,1576079509,773509237,"""world""",,,-0.895206093788,0.0225714426488,1.85443305969,,-0.00100151100196,-0.00559646170586,0.00642949528992,-0.99996316433
1576079509793600437,,63521,,1576079509,793467100,"""world""",,,-0.895214140415,0.022573037073,1.85443067551,,-0.00104570423719,-0.00565868848935,0.0062533733435,-0.999963879585
1576079509814020563,,63522,,1576079509,813834399,"""world""",,,-0.895210146904,0.0225774366409,1.85443496704,,-0.00108945800457,-0.00558786233887,0.00623955205083,-0.999964416027
1576079509833935244,,63523,,1576079509,833804297,"""world""",,,-0.895210206509,0.022566922009,1.85443651676,,-0.00102904427331,-0.00559047842398,0.00629429193214,-0.999964118004
1576079509854459487,,63524,,1576079509,854241050,"""world""",,,-0.895213603973,0.0225619915873,1.85443282127,,-0.00102532864548,-0.00560750393197,0.00622910866514,-0.999964416027
1576079509873649916,,63525,,1576079509,873540574,"""world""",,,-0.895211219788,0.0225739572197,1.85443544388,,-0.00114598928485,-0.00557537050918,0.00631253654137,-0.99996393919
1576079509893606132,,63526,,1576079509,893486685,"""world""",,,-0.895213067532,0.0225693900138,1.8544293642,,-0.00107853394002,-0.00553585356101,0.00632748007774,-0.999964118004
1576079509913644975,,63527,,1576079509,913529829,"""world""",,,-0.895212352276,0.0225813072175,1.85443341732,,-0.000966960797086,-0.00557500077412,0.00635354826227,-0.999963819981
1576079509933560876,,63528,,1576079509,933429832,"""world""",,,-0.895200669765,0.0225852280855,1.85443484783,,-0.00106732768472,-0.00554778147489,0.00629375502467,-0.999964237213
1576079509954085145,,63529,,1576079509,953953911,"""world""",,,-0.895205497742,0.0225836616009,1.85442459583,,-0.0011315275915,-0.00557081215084,0.00632548006251,-0.999963879585
1576079509973891720,,63530,,1576079509,973752034,"""world""",,,-0.895207226276,0.0225674826652,1.854429245,,-0.00101964687929,-0.00560815446079,0.00628540012985,-0.999963998795
1576079509994558965,,63531,,1576079509,994447430,"""world""",,,-0.895206987858,0.0225767772645,1.85444068909,,-0.00101521331817,-0.00554527854547,0.00632708426565,-0.999964118004
1576079510013557842,,63532,,1576079510,13440791,"""world""",,,-0.89519995451,0.0225722044706,1.85442471504,,-0.00113689014688,-0.00554857309908,0.00629343651235,-0.999964177608
1576079510034088415,,63533,,1576079510,33897915,"""world""",,,-0.895106613636,0.0225439816713,1.85450196266,,-0.00141952978447,-0.00641734572127,0.00604185974225,-0.999960184097
1576079510053876214,,63534,,1576079510,53522530,"""world""",,,-0.895208358765,0.0225892663002,1.85442996025,,-0.000945847074036,-0.00558455567807,0.00625650165603,-0.999964416027
1576079510074091249,,63535,,1576079510,73757101,"""world""",,,-0.895208358765,0.0225867517292,1.85442602634,,-0.00103429541923,-0.00560254091397,0.00630041630939,-0.999963998795
1576079510093629892,,63536,,1576079510,93476732,"""world""",,,-0.895202219486,0.0225730743259,1.85442531109,,-0.000939726654906,-0.00564609561116,0.00638405280188,-0.999963283539
1576079510113484376,,63537,,1576079510,113365045,"""world""",,,-0.895203232765,0.0225693881512,1.85443377495,,-0.000975177797955,-0.00560076674446,0.00633624987677,-0.999963819981
1576079510133618701,,63538,,1576079510,133482997,"""world""",,,-0.895211458206,0.0225774217397,1.85443162918,,-0.000983962672763,-0.00560264568776,0.00629153288901,-0.999964058399
1576079510153669995,,63539,,1576079510,153469969,"""world""",,,-0.895214796066,0.0225768368691,1.85443484783,,-0.00098089047242,-0.00560677330941,0.00630612298846,-0.99996393919
1576079510174076626,,63540,,1576079510,173675956,"""world""",,,-0.895199358463,0.0225776918232,1.85443508625,,-0.000976454350166,-0.00556058762595,0.00630889320746,-0.999964237213
1576079510193543383,,63541,,1576079510,193428194,"""world""",,,-0.895213127136,0.02257601358,1.85443210602,,-0.000972508394625,-0.00553539488465,0.00643113441765,-0.999963521957
1576079510214048144,,63542,,1576079510,213903134,"""world""",,,-0.895209372044,0.0225668046623,1.854424119,,-0.00110245693941,-0.00557688903064,0.00636730901897,-0.999963641167
1576079510233699482,,63543,,1576079510,233581931,"""world""",,,-0.895214438438,0.022573934868,1.85443365574,,-0.000991079374216,-0.00552851473913,0.0063746785745,-0.99996393919
1576079510253649683,,63544,,1576079510,253564084,"""world""",,,-0.895217657089,0.0225797146559,1.8544267416,,-0.00104822928552,-0.0055518373847,0.00630914792418,-0.999964118004
1576079510273492364,,63545,,1576079510,273381655,"""world""",,,-0.895211935043,0.0225783195347,1.85442817211,,-0.00105057528708,-0.00553169706836,0.00643231812865,-0.999963462353
1576079510293446159,,63546,,1576079510,293337024,"""world""",,,-0.895212054253,0.0225797574967,1.85441935062,,-0.00120603141841,-0.00556100532413,0.00636802567169,-0.999963581562
1576079510313874988,,63547,,1576079510,313753633,"""world""",,,-0.895207107067,0.0225673317909,1.85442638397,,-0.00105534819886,-0.00559560768306,0.00634813541546,-0.999963641167
1576079510334222731,,63548,,1576079510,334111641,"""world""",,,-0.895212471485,0.0225830748677,1.85442841053,,-0.00106603861786,-0.00562226725742,0.00631175609306,-0.999963700771
1576079510353595435,,63549,,1576079510,353500036,"""world""",,,-0.895214378834,0.0225706975907,1.85442614555,,-0.0011160785798,-0.00557988230139,0.00646709371358,-0.999962925911
1576079510374235008,,63550,,1576079510,374122905,"""world""",,,-0.895214736462,0.0225742254406,1.85442662239,,-0.00119172595441,-0.00554073322564,0.00639019580558,-0.999963521957
1576079510393779976,,63551,,1576079510,393559710,"""world""",,,-0.895216286182,0.0225728861988,1.85442447662,,-0.00104144925717,-0.005558390636,0.00635802326724,-0.999963819981
1576079510413628217,,63552,,1576079510,413405832,"""world""",,,-0.895218372345,0.0225710961968,1.85443592072,,-0.00107116438448,-0.00552890216932,0.00630347197875,-0.999964296818
1576079510434971991,,63553,,1576079510,434842107,"""world""",,,-0.895212769508,0.0225818827748,1.85443258286,,-0.001138070249,-0.00557730160654,0.00632892921567,-0.999963819981
1576079510454005048,,63554,,1576079510,453847166,"""world""",,,-0.895215213299,0.0225720070302,1.85442852974,,-0.00109758146573,-0.00554582802579,0.00633681192994,-0.999963998795
1576079510473923190,,63555,,1576079510,473757912,"""world""",,,-0.895224988461,0.0225675348192,1.85442972183,,-0.00102083489764,-0.00560407014564,0.00635591242462,-0.999963581562
1576079510493924397,,63556,,1576079510,493576344,"""world""",,,-0.895218729973,0.0225735269487,1.85443603992,,-0.00110694684554,-0.00555272772908,0.00628561433405,-0.999964237213
1576079510513960971,,63557,,1576079510,513747321,"""world""",,,-0.895223796368,0.0225809924304,1.85442769527,,-0.00104725162964,-0.00553521560505,0.00633858237416,-0.999964118004
1576079510534189586,,63558,,1576079510,533842718,"""world""",,,-0.895216107368,0.022578349337,1.85444116592,,-0.00104018533602,-0.00554762687534,0.00623287074268,-0.99996471405
1576079510553720112,,63559,,1576079510,553593349,"""world""",,,-0.895221412182,0.0225714314729,1.85443782806,,-0.000953705515712,-0.00554511370137,0.00630349386483,-0.999964356422
1576079510578375464,,63560,,1576079510,578246275,"""world""",,,-0.895209729671,0.0225650779903,1.85442698002,,-0.00114957510959,-0.00557846063748,0.00635149329901,-0.999963641167
1576079510593506380,,63561,,1576079510,593400206,"""world""",,,-0.895223021507,0.0225672647357,1.85443711281,,-0.00106526340824,-0.00561461830512,0.00637732818723,-0.999963402748
1576079510613794722,,63562,,1576079510,613638874,"""world""",,,-0.895209908485,0.0225689969957,1.854429245,,-0.00115496036597,-0.00556346541271,0.00638348050416,-0.999963462353
1576079510634175774,,63563,,1576079510,633741763,"""world""",,,-0.895220041275,0.0225730855018,1.85443246365,,-0.00112567597535,-0.00559204490855,0.00637821014971,-0.999963462353
1576079510654652215,,63564,,1576079510,654518248,"""world""",,,-0.895217657089,0.0225731451064,1.85443031788,,-0.00112089584582,-0.00555772706866,0.00623161904514,-0.999964535236
1576079510673660291,,63565,,1576079510,673523918,"""world""",,,-0.895216166973,0.0225730501115,1.85443019867,,-0.00103048211895,-0.00558321084827,0.00630592554808,-0.999964058399
1576079510694072650,,63566,,1576079510,693955642,"""world""",,,-0.895217835903,0.0225693844259,1.85443544388,,-0.000976346665993,-0.00553234899417,0.00626821257174,-0.999964594841
1576079510713613166,,63567,,1576079510,713505582,"""world""",,,-0.89520663023,0.0225756950676,1.85443544388,,-0.00100328598637,-0.00553243840113,0.00631769979373,-0.999964296818
1576079510734123853,,63568,,1576079510,733951069,"""world""",,,-0.895108997822,0.0225390903652,1.85450816154,,-0.00129788194317,-0.00638608587906,0.00605282979086,-0.999960482121
1576079510753771260,,63569,,1576079510,753656563,"""world""",,,-0.895217955112,0.0225777775049,1.85442686081,,-0.00103923352435,-0.00561272446066,0.00628317007795,-0.999964058399
1576079510775954883,,63570,,1576079510,775829570,"""world""",,,-0.895210385323,0.022579934448,1.85442197323,,-0.00107288151048,-0.00556644285098,0.00623452756554,-0.999964594841
1576079510793542066,,63571,,1576079510,793411046,"""world""",,,-0.895211219788,0.0225854571909,1.85442721844,,-0.00106771278661,-0.00557228643447,0.00627948762849,-0.999964177608
1576079510813557767,,63572,,1576079510,813451371,"""world""",,,-0.895228564739,0.0225790236145,1.85442447662,,-0.000979476608336,-0.00561581458896,0.00639296136796,-0.999963402748
1576079510834080679,,63573,,1576079510,833945803,"""world""",,,-0.895211458206,0.0225818101317,1.85443305969,,-0.000977288698778,-0.00555779784918,0.00634216191247,-0.999963998795
1576079510853602287,,63574,,1576079510,853446115,"""world""",,,-0.895218253136,0.0225800368935,1.8544305563,,-0.00102540897205,-0.00549502298236,0.00642838003114,-0.999963760376
1576079510873598042,,63575,,1576079510,873486642,"""world""",,,-0.895218789577,0.0225721877068,1.85442709923,,-0.000993120716885,-0.00560376979411,0.00627252878621,-0.999964118004
1576079510893581215,,63576,,1576079510,893460695,"""world""",,,-0.895211040974,0.0225739590824,1.85442829132,,-0.00105325563345,-0.00564307253808,0.00646571721882,-0.999962687492
1576079510913527673,,63577,,1576079510,913384321,"""world""",,,-0.895210504532,0.0225711874664,1.85442483425,,-0.000988266197965,-0.00558162527159,0.00645282398909,-0.999963104725
1576079510934232608,,63578,,1576079510,933797285,"""world""",,,-0.895219504833,0.022593036294,1.85442507267,,-0.00109909463208,-0.00557816633955,0.00637109810486,-0.999963521957
1576079510954082906,,63579,,1576079510,953713435,"""world""",,,-0.895219147205,0.0225731823593,1.85442960262,,-0.00101964222267,-0.00559539953247,0.00647367117926,-0.999962866306
1576079510973876496,,63580,,1576079510,973665166,"""world""",,,-0.895219624043,0.0225800406188,1.8544280529,,-0.00109469064046,-0.00556983053684,0.00638018641621,-0.999963521957
1576079510993679999,,63581,,1576079510,993554391,"""world""",,,-0.895221352577,0.0225801952183,1.85442948341,,-0.00098093051929,-0.00555215403438,0.00635518459603,-0.99996393919
1576079511013564176,,63582,,1576079511,13440399,"""world""",,,-0.895222604275,0.0225748997182,1.85443496704,,-0.00105183641426,-0.00557991908863,0.00631914287806,-0.99996393919
1576079511034442261,,63583,,1576079511,33683592,"""world""",,,-0.895206868649,0.0225790850818,1.85442256927,,-0.00104752532206,-0.00556293083355,0.00639284448698,-0.999963521957
1576079511054933645,,63584,,1576079511,54539926,"""world""",,,-0.895210266113,0.0225763414055,1.85443282127,,-0.00107839517295,-0.00561976153404,0.00631510745734,-0.999963700771
1576079511073503169,,63585,,1576079511,73384395,"""world""",,,-0.895212590694,0.0225827284157,1.85442531109,,-0.000986487604678,-0.00559761375189,0.00632169377059,-0.99996393919
1576079511093833423,,63586,,1576079511,93698351,"""world""",,,-0.895211100578,0.0225813966244,1.85442864895,,-0.00109931838233,-0.0055507379584,0.006400605198,-0.999963521957
1576079511114011340,,63587,,1576079511,113790656,"""world""",,,-0.895208358765,0.0225798096508,1.85442221165,,-0.00112058816012,-0.00552632752806,0.00649631815031,-0.99996304512
1576079511134111634,,63588,,1576079511,133505654,"""world""",,,-0.895210087299,0.0225815176964,1.85442817211,,-0.0010009870166,-0.00557633768767,0.00639851111919,-0.999963462353
1576079511154362508,,63589,,1576079511,153692936,"""world""",,,-0.895208239555,0.0225779023021,1.8544293642,,-0.00107167370152,-0.00556450849399,0.00629759253934,-0.999964177608
1576079511173841214,,63590,,1576079511,173633040,"""world""",,,-0.895220518112,0.022583046928,1.85442042351,,-0.00104732660111,-0.00563108408824,0.0063480194658,-0.999963521957
1576079511193543881,,63591,,1576079511,193429831,"""world""",,,-0.895207285881,0.0225799772888,1.85442483425,,-0.00098651566077,-0.00556813552976,0.00638080062345,-0.999963641167
1576079511214210123,,63592,,1576079511,213511747,"""world""",,,-0.895198225975,0.0225762277842,1.85442733765,,-0.00112441764213,-0.00558735430241,0.00640946114436,-0.999963283539
1576079511234888682,,63593,,1576079511,234422477,"""world""",,,-0.895212173462,0.0225779153407,1.854424119,,-0.00105662387796,-0.0055914320983,0.00643331417814,-0.99996316433
1576079511253657737,,63594,,1576079511,253569081,"""world""",,,-0.895203828812,0.0225667580962,1.85442745686,,-0.000981089775451,-0.00555004971102,0.00641006417572,-0.999963641167
1576079511278207182,,63595,,1576079511,277924512,"""world""",,,-0.895203113556,0.0225743837655,1.85442626476,,-0.00108298426494,-0.00563226267695,0.00643977895379,-0.999962806702
1576079511294266669,,63596,,1576079511,294158319,"""world""",,,-0.895207226276,0.0225764941424,1.85442495346,,-0.00112076720688,-0.00560869649053,0.00649284385145,-0.999962627888
1576079511313922241,,63597,,1576079511,313636444,"""world""",,,-0.895206928253,0.0225769262761,1.85443222523,,-0.000943141465541,-0.00560058001429,0.00633833697066,-0.999963760376
1576079511334993694,,63598,,1576079511,334563252,"""world""",,,-0.895210981369,0.0225857533514,1.85443234444,,-0.00109279109165,-0.00555233052,0.00651287194341,-0.999962806702
1576079511354215279,,63599,,1576079511,353776895,"""world""",,,-0.895211994648,0.0225770752877,1.85443091393,,-0.00107218138874,-0.00562161393464,0.00634575774893,-0.999963521957
1576079511373877323,,63600,,1576079511,373556980,"""world""",,,-0.895203769207,0.0225751455873,1.85442137718,,-0.00116377777886,-0.00550693692639,0.00642214389518,-0.999963581562
1576079511393623790,,63601,,1576079511,393492259,"""world""",,,-0.895221829414,0.0225764214993,1.85442996025,,-0.00101905211341,-0.0055559691973,0.00634839991108,-0.99996393919
1576079511413533790,,63602,,1576079511,413384266,"""world""",,,-0.895204007626,0.022571824491,1.85443067551,,-0.00107605475932,-0.00558176869527,0.00632127840072,-0.99996393919
1576079511434105771,,63603,,1576079511,433665554,"""world""",,,-0.895205795765,0.0225666798651,1.85443615913,,-0.00107772601768,-0.00562663143501,0.0063539808616,-0.999963402748
