rosbagTimestamp,transforms,-,header,seq,stamp,secs,nsecs,frame_id,child_frame_id,transform,translation,x,y,z,rotation,x,y,z,w
1576079504754239444,,,0,,1576079504,754151027,"""world""","""hoverOpti/base_link""",,,-0.895210802555,0.0225800834596,1.85443305969,,0.00106857195683,0.00558394765584,-0.00634253552209,0.999963724305
1576079504774665354,,,0,,1576079504,774579294,"""world""","""hoverOpti/base_link""",,,-0.89524269104,0.022597854957,1.85445821285,,0.000863344201179,0.00528388496922,-0.00617796019485,0.999966583444
1576079504798375869,,,0,,1576079504,798277857,"""world""","""hoverOpti/base_link""",,,-0.895208656788,0.0225744266063,1.85444009304,,0.000985194631588,0.00558768315897,-0.00638543027541,0.999963516069
1576079504814782005,,,0,,1576079504,814703647,"""world""","""hoverOpti/base_link""",,,-0.895203530788,0.0225712060928,1.85443305969,,0.00103497541538,0.0055680288094,-0.00638125494467,0.999963602071
1576079504839776402,,,0,,1576079504,839687007,"""world""","""hoverOpti/base_link""",,,-0.895198047161,0.022583194077,1.85443508625,,0.00103208301936,0.00554715399753,-0.00626856109032,0.999964433882
1576079504854446433,,,0,,1576079504,854351073,"""world""","""hoverOpti/base_link""",,,-0.895199537277,0.0225661322474,1.85443818569,,0.00093962192152,0.00558045926995,-0.00631665014786,0.999964037111
1576079504873849454,,,0,,1576079504,873757918,"""world""","""hoverOpti/base_link""",,,-0.895198762417,0.0225709937513,1.85443532467,,0.00105576250207,0.00560101903251,-0.00635494606357,0.999963563642
1576079504894031226,,,0,,1576079504,893905323,"""world""","""hoverOpti/base_link""",,,-0.89519995451,0.0225697215647,1.85443508625,,0.00107581040193,0.00559289007531,-0.00628069694133,0.999964056883
1576079504915396895,,,0,,1576079504,915316155,"""world""","""hoverOpti/base_link""",,,-0.895191669464,0.022576989606,1.8544318676,,0.00119566492737,0.005611147935,-0.00624031730638,0.999964071277
1576079504934085671,,,0,,1576079504,934006004,"""world""","""hoverOpti/base_link""",,,-0.895207643509,0.0225881002843,1.85443627834,,0.000974871011095,0.00561110749769,-0.00637075330321,0.999963488634
1576079504954778245,,,0,,1576079504,954709577,"""world""","""hoverOpti/base_link""",,,-0.895202457905,0.0225712768734,1.8544421196,,0.00106744714957,0.0055515826464,-0.00638851653595,0.99996361301
1576079504974915946,,,0,,1576079504,974802617,"""world""","""hoverOpti/base_link""",,,-0.89524179697,0.0225899014622,1.85445547104,,0.000796956098071,0.00529846343817,-0.0062029336223,0.999966406816
1576079504993632541,,,0,,1576079504,993551520,"""world""","""hoverOpti/base_link""",,,-0.895202159882,0.0225746165961,1.85443925858,,0.00108473344512,0.00554889867092,-0.00645023958003,0.999963213066
1576079505014077001,,,0,,1576079505,14001337,"""world""","""hoverOpti/base_link""",,,-0.89519482851,0.022573236376,1.85444056988,,0.00104464766906,0.00554699692765,-0.00639858619682,0.999963598153
1576079505033624274,,,0,,1576079505,33519804,"""world""","""hoverOpti/base_link""",,,-0.895210444927,0.0225788857788,1.85444378853,,0.00106078868042,0.00560140338842,-0.00634287487449,0.999963632812
1576079505054238314,,,0,,1576079505,54164238,"""world""","""hoverOpti/base_link""",,,-0.89521420002,0.0225845426321,1.85443174839,,0.00116110705698,0.00555624375573,-0.00620767733267,0.999964621738
1576079505077885445,,,0,,1576079505,77666436,"""world""","""hoverOpti/base_link""",,,-0.895212352276,0.0225801952183,1.85442638397,,0.00111285872999,0.00565930391641,-0.006238329029,0.999963907886
1576079505095995308,,,0,,1576079505,95900783,"""world""","""hoverOpti/base_link""",,,-0.895206212997,0.0225852057338,1.85443305969,,0.00109199278642,0.00559456436933,-0.00620642930559,0.999964493688
1576079505118505086,,,0,,1576079505,118408724,"""world""","""hoverOpti/base_link""",,,-0.895264685154,0.0226119440049,1.85447382927,,0.000668073687485,0.00496089159889,-0.00591455190859,0.999969980203
1576079505134990327,,,0,,1576079505,134913284,"""world""","""hoverOpti/base_link""",,,-0.895254433155,0.022605093196,1.8544781208,,0.000636890742959,0.0050091360018,-0.00590645037246,0.99996980793
1576079505153716821,,,0,,1576079505,153611276,"""world""","""hoverOpti/base_link""",,,-0.89525449276,0.0226036086679,1.85447692871,,0.000666076702103,0.00501327013215,-0.00596037626371,0.999969448223
1576079505175793271,,,0,,1576079505,175683829,"""world""","""hoverOpti/base_link""",,,-0.895199418068,0.022564984858,1.85443305969,,0.00103439164113,0.00556544511624,-0.00644135162399,0.999963231746
1576079505195113297,,,0,,1576079505,195014113,"""world""","""hoverOpti/base_link""",,,-0.895211338997,0.0225771255791,1.85443079472,,0.00108307195219,0.00549608982184,-0.00635841529194,0.999964094609
1576079505214114098,,,0,,1576079505,214018688,"""world""","""hoverOpti/base_link""",,,-0.89526373148,0.0226126592606,1.85447824001,,0.000668259359901,0.00495610080148,-0.00587053053252,0.999970263241
1576079505234856854,,,0,,1576079505,234559176,"""world""","""hoverOpti/base_link""",,,-0.895206332207,0.0225832965225,1.85443818569,,0.000994488604628,0.0055213016886,-0.00633673514497,0.999964185363
1576079505254140079,,,0,,1576079505,254038339,"""world""","""hoverOpti/base_link""",,,-0.895236134529,0.0225863885134,1.85445165634,,0.000962311617435,0.00527581190487,-0.00612822210538,0.99996684178
1576079505274355492,,,0,,1576079505,274278572,"""world""","""hoverOpti/base_link""",,,-0.895210802555,0.0225709974766,1.85443305969,,0.000987898928652,0.00558655441523,-0.00638174372339,0.999963543242
1576079505293594307,,,0,,1576079505,293503732,"""world""","""hoverOpti/base_link""",,,-0.895216047764,0.0225760526955,1.85443258286,,0.00108345857917,0.00562462402885,-0.00639412692227,0.999963151753
1576079505313624946,,,0,,1576079505,313555308,"""world""","""hoverOpti/base_link""",,,-0.895208239555,0.0225635133684,1.85443878174,,0.00105071690624,0.00553511145553,-0.00633499643082,0.999964062532
1576079505335215623,,,0,,1576079505,335146123,"""world""","""hoverOpti/base_link""",,,-0.895207822323,0.0225651692599,1.85444366932,,0.00100877299603,0.00559541819382,-0.00638240998867,0.99996346859
1576079505354133259,,,0,,1576079505,354042076,"""world""","""hoverOpti/base_link""",,,-0.895205438137,0.0225731711835,1.85444045067,,0.0010742745458,0.00552341952257,-0.00635926570825,0.999963948105
1576079505374394852,,,0,,1576079505,374317255,"""world""","""hoverOpti/base_link""",,,-0.895204603672,0.0225674826652,1.85443866253,,0.00106669948843,0.00558299514652,-0.00631257973416,0.999963921176
1576079505393594559,,,0,,1576079505,393523236,"""world""","""hoverOpti/base_link""",,,-0.895202696323,0.0225662440062,1.85443663597,,0.00102158035863,0.00559335679858,-0.00620349924169,0.999964593038
1576079505415848103,,,0,,1576079505,415756075,"""world""","""hoverOpti/base_link""",,,-0.8952023983,0.0225657057017,1.85444235802,,0.000988488935031,0.00554985413934,-0.00634582800393,0.999963975589
1576079505434820686,,,0,,1576079505,434750563,"""world""","""hoverOpti/base_link""",,,-0.89520162344,0.022571541369,1.85443913937,,0.00113487652614,0.00563122561211,-0.00641930837608,0.999962896228
1576079505454951721,,,0,,1576079505,454774340,"""world""","""hoverOpti/base_link""",,,-0.895203828812,0.0225629191846,1.85443377495,,0.00107673186332,0.00561560460366,-0.00634799708491,0.999963503617
1576079505473732360,,,0,,1576079505,473640399,"""world""","""hoverOpti/base_link""",,,-0.89520418644,0.0225692596287,1.8544293642,,0.00103882799651,0.0055691643556,-0.00633467608242,0.99996388791
1576079505493605511,,,0,,1576079505,493532561,"""world""","""hoverOpti/base_link""",,,-0.89519828558,0.0225630421191,1.85444116592,,0.00103094953944,0.00553762019,-0.0064085641034,0.999963600443
1576079505514578409,,,0,,1576079505,514489652,"""world""","""hoverOpti/base_link""",,,-0.895212769508,0.0225643608719,1.85443139076,,0.00106377023131,0.00558941420925,-0.00637538477886,0.999963489989
1576079505533586257,,,0,,1576079505,533504268,"""world""","""hoverOpti/base_link""",,,-0.895211577415,0.0225769188255,1.85443651676,,0.00107786306502,0.00557753862853,-0.00634466896925,0.999963736567
1576079505553842962,,,0,,1576079505,553759673,"""world""","""hoverOpti/base_link""",,,-0.895206451416,0.0225600525737,1.85443341732,,0.00108625589069,0.00561216523227,-0.00643890308026,0.999962931401
1576079505573799410,,,0,,1576079505,573536499,"""world""","""hoverOpti/base_link""",,,-0.895210564137,0.0225732382387,1.85443437099,,0.00107252909894,0.00560788286334,-0.00634654039324,0.999963560714
1576079505594071980,,,0,,1576079505,593890787,"""world""","""hoverOpti/base_link""",,,-0.895216882229,0.0225820988417,1.85443294048,,0.00112639746452,0.00556623071323,-0.00637792579627,0.999963534519
1576079505615311664,,,0,,1576079505,614688358,"""world""","""hoverOpti/base_link""",,,-0.895223915577,0.0225716996938,1.85444867611,,0.000960745121549,0.00562751602349,-0.00633909022142,0.999963611322
1576079505634852127,,,0,,1576079505,634740375,"""world""","""hoverOpti/base_link""",,,-0.895221173763,0.0225687175989,1.85443878174,,0.00106589843803,0.00562384902554,-0.00633256221127,0.999963566756
1576079505655984400,,,0,,1576079505,655890669,"""world""","""hoverOpti/base_link""",,,-0.895219802856,0.0225851703435,1.85443735123,,0.00103671893155,0.00555331387961,-0.00646514105955,0.999963143256
1576079505675294304,,,0,,1576079505,675189580,"""world""","""hoverOpti/base_link""",,,-0.895205557346,0.0225797165185,1.85443675518,,0.00107683626247,0.00554580604234,-0.0062144778879,0.99996473174
1576079505694218544,,,0,,1576079505,694123374,"""world""","""hoverOpti/base_link""",,,-0.895214915276,0.0225701257586,1.85444676876,,0.00103866976718,0.00564967753993,-0.00631359546987,0.999963569747
1576079505713693387,,,0,,1576079505,713617060,"""world""","""hoverOpti/base_link""",,,-0.895213901997,0.0225649066269,1.85444808006,,0.00102879397254,0.00559304091549,-0.00634600915774,0.999963693163
1576079505733697442,,,0,,1576079505,733553631,"""world""","""hoverOpti/base_link""",,,-0.89520406723,0.0225625559688,1.85443937778,,0.000996512731943,0.00559626625069,-0.00629651327439,0.999964020696
1576079505754753135,,,0,,1576079505,754660355,"""world""","""hoverOpti/base_link""",,,-0.895202040672,0.0225693713874,1.85443425179,,0.00100400915737,0.00557390879293,-0.00646791001148,0.99996304414
1576079505773796322,,,0,,1576079505,773667294,"""world""","""hoverOpti/base_link""",,,-0.895202755928,0.0225780680776,1.85442912579,,0.00111420462621,0.00557318507994,-0.00625557722766,0.999964282317
1576079505793634840,,,0,,1576079505,793551719,"""world""","""hoverOpti/base_link""",,,-0.895192742348,0.0225758142769,1.8544293642,,0.0010962864189,0.00562643703464,-0.00635708936823,0.999963363717
1576079505813752987,,,0,,1576079505,813682094,"""world""","""hoverOpti/base_link""",,,-0.895203053951,0.0225732140243,1.85443007946,,0.00111299688123,0.00561635254731,-0.00633850235547,0.99996351994
1576079505833989490,,,0,,1576079505,833912318,"""world""","""hoverOpti/base_link""",,,-0.895196557045,0.0225730463862,1.85443556309,,0.00108422121479,0.00559361238071,-0.00629001157887,0.999963985211
1576079505856246155,,,0,,1576079505,856173737,"""world""","""hoverOpti/base_link""",,,-0.895207881927,0.022576071322,1.85443472862,,0.00100643090945,0.00557484829883,-0.00629482814354,0.999964141008
1576079505875412119,,,0,,1576079505,875340245,"""world""","""hoverOpti/base_link""",,,-0.895197868347,0.0225786529481,1.8544318676,,0.00105362563884,0.0055679521078,-0.00643965507118,0.999963208636
1576079505895699998,,,0,,1576079505,895614293,"""world""","""hoverOpti/base_link""",,,-0.895211696625,0.0225792545825,1.8544331789,,0.00108477408302,0.00556723971674,-0.00630208158773,0.999964055791
1576079505914105704,,,0,,1576079505,914014518,"""world""","""hoverOpti/base_link""",,,-0.895236313343,0.0226095616817,1.85445225239,,0.000767355677274,0.0052530450166,-0.00608542196478,0.99996739163
1576079505935131279,,,0,,1576079505,935045660,"""world""","""hoverOpti/base_link""",,,-0.895204901695,0.0225714594126,1.85443413258,,0.00105512186683,0.00554867729866,-0.00636370560744,0.999963800419
1576079505954877507,,,0,,1576079505,954792428,"""world""","""hoverOpti/base_link""",,,-0.895199537277,0.0225766971707,1.85443031788,,0.00102955116257,0.00557072034304,-0.00636074164899,0.999963723374
1576079505973802808,,,0,,1576079505,973721977,"""world""","""hoverOpti/base_link""",,,-0.895208179951,0.0225822869688,1.85442996025,,0.000916380126352,0.00558471586776,-0.00639167421541,0.999963558184
1576079505995883387,,,0,,1576079505,995769086,"""world""","""hoverOpti/base_link""",,,-0.895264387131,0.0226290374994,1.85448145866,,0.000544759464934,0.00500556605258,-0.00581337983038,0.999970425643
1576079506013677216,,,0,,1576079506,13568829,"""world""","""hoverOpti/base_link""",,,-0.895208954811,0.0225715469569,1.85443484783,,0.00114001951579,0.0055419541313,-0.00627238663223,0.999964321496
1576079506033624982,,,0,,1576079506,33522494,"""world""","""hoverOpti/base_link""",,,-0.895212709904,0.0225920565426,1.8544280529,,0.00106944479144,0.0055649693825,-0.00636602598924,0.999963679899
1576079506053995484,,,0,,1576079506,53635201,"""world""","""hoverOpti/base_link""",,,-0.895215570927,0.0225791670382,1.854429245,,0.00102242121472,0.00560183642583,-0.00643349205753,0.999963091451
1576079506074129445,,,0,,1576079506,73654431,"""world""","""hoverOpti/base_link""",,,-0.895205438137,0.0225819163024,1.8544242382,,0.00108258225063,0.00564073661325,-0.00624111462444,0.99996402865
1576079506095667972,,,0,,1576079506,95554804,"""world""","""hoverOpti/base_link""",,,-0.895203888416,0.0225764717907,1.85443484783,,0.00114224759118,0.00559522356729,-0.00629354321041,0.999963889377
1576079506115191039,,,0,,1576079506,115077550,"""world""","""hoverOpti/base_link""",,,-0.895192265511,0.0225767027587,1.85444223881,,0.00110745392594,0.00552504217948,-0.00631946450883,0.999964155269
1576079506133618448,,,0,,1576079506,133530056,"""world""","""hoverOpti/base_link""",,,-0.895207941532,0.0225853230804,1.85443890095,,0.000990304383088,0.00554025304868,-0.00637129172776,0.999963865115
1576079506154311024,,,0,,1576079506,154117469,"""world""","""hoverOpti/base_link""",,,-0.895268678665,0.0226293522865,1.85448741913,,0.000700308783129,0.00496140511923,-0.00590385042316,0.999970018839
1576079506175120592,,,0,,1576079506,175011178,"""world""","""hoverOpti/base_link""",,,-0.895214617252,0.0225712358952,1.85443174839,,0.00101492100871,0.00563089554767,-0.00644285656903,0.999962875586
1576079506193835548,,,0,,1576079506,193735767,"""world""","""hoverOpti/base_link""",,,-0.895213365555,0.0225692503154,1.85443997383,,0.00106165912991,0.00560228168989,-0.00634953623167,0.999963584692
1576079506214619596,,,0,,1576079506,213764919,"""world""","""hoverOpti/base_link""",,,-0.895208239555,0.0225777383894,1.85444128513,,0.00114850140802,0.00557085078587,-0.00635360086505,0.9999636385
1576079506233743246,,,0,,1576079506,233552438,"""world""","""hoverOpti/base_link""",,,-0.89520740509,0.0225819665939,1.85443925858,,0.00107523914856,0.00556864679988,-0.00637800196937,0.999963576899
1576079506254123154,,,0,,1576079506,254005042,"""world""","""hoverOpti/base_link""",,,-0.895193040371,0.0225746892393,1.85443496704,,0.00106195772287,0.00559525293385,-0.00633872955719,0.99996369229
1576079506273986646,,,0,,1576079506,273604322,"""world""","""hoverOpti/base_link""",,,-0.895209610462,0.0225734245032,1.85443162918,,0.00108348284623,0.00556947650302,-0.00633195446784,0.999963856021
1576079506294185613,,,0,,1576079506,294024522,"""world""","""hoverOpti/base_link""",,,-0.895206987858,0.022574108094,1.8544318676,,0.00100808565969,0.00555437003937,-0.00632790607002,0.999964044524
1576079506313678812,,,0,,1576079506,313582752,"""world""","""hoverOpti/base_link""",,,-0.895208895206,0.0225691068918,1.85443079472,,0.001141295996,0.00561776754705,-0.00632318804912,0.999963577049
1576079506336576694,,,0,,1576079506,336455491,"""world""","""hoverOpti/base_link""",,,-0.895211160183,0.022571483627,1.85443675518,,0.000972109737418,0.00556287559284,-0.00641633769267,0.999963469347
1576079506355017420,,,0,,1576079506,354920223,"""world""","""hoverOpti/base_link""",,,-0.895210504532,0.0225695036352,1.85443401337,,0.00104822854796,0.00564067743185,-0.00639903894059,0.999963067456
1576079506374077107,,,0,,1576079506,373821590,"""world""","""hoverOpti/base_link""",,,-0.895196855068,0.0225723665208,1.85444247723,,0.00104543149123,0.00553371346187,-0.00635424638056,0.999963953671
1576079506393676016,,,0,,1576079506,393576052,"""world""","""hoverOpti/base_link""",,,-0.895206332207,0.0225798152387,1.85443925858,,0.000998798844631,0.00553571882098,-0.00642284871618,0.999963551952
1576079506413630954,,,0,,1576079506,413518360,"""world""","""hoverOpti/base_link""",,,-0.895203053951,0.0225702952594,1.85444355011,,0.00107001886322,0.00557182126749,-0.00620398627058,0.999964659586
1576079506433723410,,,0,,1576079506,433631790,"""world""","""hoverOpti/base_link""",,,-0.895201444626,0.0225667841733,1.85443866253,,0.0010705245885,0.00556465701806,-0.00630137175992,0.999964089997
1576079506454796903,,,0,,1576079506,454683137,"""world""","""hoverOpti/base_link""",,,-0.895210802555,0.0225761011243,1.85443198681,,0.00110627345584,0.00560680102873,-0.00634461104149,0.999963542261
1576079506475214433,,,0,,1576079506,475097510,"""world""","""hoverOpti/base_link""",,,-0.895204126835,0.0225739534944,1.85443460941,,0.00103108970688,0.00557792644839,-0.00646582043388,0.999963007694
1576079506493919649,,,0,,1576079506,493650626,"""world""","""hoverOpti/base_link""",,,-0.895209312439,0.0225769616663,1.85443651676,,0.00106054809112,0.00557372935627,-0.00630468111727,0.99996402924
1576079506513761884,,,0,,1576079506,513593270,"""world""","""hoverOpti/base_link""",,,-0.895199000835,0.0225767530501,1.85443210602,,0.00101196634731,0.00558087166002,-0.0063254728831,0.999963908443
1576079506534415629,,,0,,1576079506,534288670,"""world""","""hoverOpti/base_link""",,,-0.895199418068,0.0225768387318,1.85443174839,,0.00104447348119,0.00559067020569,-0.00632752051021,0.999963807328
1576079506553816383,,,0,,1576079506,553731213,"""world""","""hoverOpti/base_link""",,,-0.895209133625,0.0225809197873,1.85443210602,,0.00111200143026,0.00562415850988,-0.00627266912182,0.999963892306
1576079506574046504,,,0,,1576079506,573929188,"""world""","""hoverOpti/base_link""",,,-0.895203649998,0.0225662067533,1.85442769527,,0.00104738211607,0.00560549638507,-0.00632362757044,0.99996374591
1576079506593612499,,,0,,1576079506,593521136,"""world""","""hoverOpti/base_link""",,,-0.895210385323,0.0225715599954,1.85442960262,,0.00109449038012,0.0055529604279,-0.00641000441891,0.999963438614
1576079506613640289,,,0,,1576079506,613555437,"""world""","""hoverOpti/base_link""",,,-0.89520907402,0.0225576292723,1.8544305563,,0.00101857519199,0.00553955976662,-0.00638748326586,0.999963737262
1576079506633599855,,,0,,1576079506,633522719,"""world""","""hoverOpti/base_link""",,,-0.895204126835,0.022571079433,1.85444402695,,0.00103614363976,0.00551313307338,-0.00626104052234,0.999964664947
1576079506653619429,,,0,,1576079506,653549931,"""world""","""hoverOpti/base_link""",,,-0.895215034485,0.0225781220943,1.85443198681,,0.00103626484087,0.00559806959878,-0.0063344723462,0.999963730458
1576079506673872085,,,0,,1576079506,673801383,"""world""","""hoverOpti/base_link""",,,-0.895207643509,0.0225789770484,1.85443091393,,0.00105007928508,0.0056189187636,-0.00631049324824,0.999963750723
1576079506693625434,,,0,,1576079506,693554973,"""world""","""hoverOpti/base_link""",,,-0.895203351974,0.0225736256689,1.85443139076,,0.00109443375329,0.00556273766874,-0.00622930288486,0.999964526346
1576079506713675065,,,0,,1576079506,713591093,"""world""","""hoverOpti/base_link""",,,-0.895218074322,0.0225718989968,1.85443139076,,0.000990315912368,0.00551914092074,-0.00628547224282,0.999964524969
1576079506734042955,,,0,,1576079506,733956441,"""world""","""hoverOpti/base_link""",,,-0.895209729671,0.0225842762738,1.85443949699,,0.000978164630339,0.00556165784454,-0.00636731661719,0.999963783562
1576079506753939661,,,0,,1576079506,753866458,"""world""","""hoverOpti/base_link""",,,-0.895210087299,0.0225812476128,1.85442781448,,0.00105828709804,0.00556897974408,-0.00621982194903,0.999964589527
1576079506773582246,,,0,,1576079506,773517213,"""world""","""hoverOpti/base_link""",,,-0.895212054253,0.0225878842175,1.8544305563,,0.00101953118299,0.00549281073622,-0.00638360542996,0.999964018937
1576079506793640930,,,0,,1576079506,793570389,"""world""","""hoverOpti/base_link""",,,-0.895210504532,0.02256908454,1.85443043709,,0.00101782401311,0.00553331970731,-0.00635739114584,0.999963964343
1576079506813579197,,,0,,1576079506,813516978,"""world""","""hoverOpti/base_link""",,,-0.895211458206,0.0225786101073,1.85443437099,,0.00108692578046,0.00556100587457,-0.00627979826013,0.99996422833
1576079506833612743,,,0,,1576079506,833536640,"""world""","""hoverOpti/base_link""",,,-0.895203888416,0.0225713085383,1.85443866253,,0.00106791460056,0.00562667075163,-0.00629705533576,0.999963772958
1576079506854895013,,,0,,1576079506,854789962,"""world""","""hoverOpti/base_link""",,,-0.895207226276,0.0225732214749,1.85443425179,,0.00101787173548,0.0055581319593,-0.00630864846892,0.999964135387
1576079506873711415,,,0,,1576079506,873647473,"""world""","""hoverOpti/base_link""",,,-0.895210683346,0.0225751679391,1.85443115234,,0.000993173873945,0.00563170316404,-0.00634217373395,0.999963536514
1576079506893643449,,,0,,1576079506,893572902,"""world""","""hoverOpti/base_link""",,,-0.895204365253,0.0225699376315,1.8544344902,,0.0010710154043,0.00556463424661,-0.00631889091952,0.999963979046
1576079506913842792,,,0,,1576079506,913777024,"""world""","""hoverOpti/base_link""",,,-0.895206391811,0.0225719325244,1.85442698002,,0.001115965424,0.00558130012291,-0.00642215672879,0.999963179129
1576079506933807097,,,0,,1576079506,933742339,"""world""","""hoverOpti/base_link""",,,-0.895206749439,0.022572664544,1.85443723202,,0.00109105635182,0.00556271738163,-0.00633795445874,0.999963847399
1576079506953552685,,,0,,1576079506,953470264,"""world""","""hoverOpti/base_link""",,,-0.895203948021,0.0225696749985,1.85443711281,,0.00114647062376,0.00555428005756,-0.00629804308827,0.999964084471
1576079506973640661,,,0,,1576079506,973568264,"""world""","""hoverOpti/base_link""",,,-0.895210921764,0.0225775875151,1.85443413258,,0.00110949594914,0.00557967673004,-0.00636778887071,0.999963543081
1576079506993508393,,,0,,1576079506,993413430,"""world""","""hoverOpti/base_link""",,,-0.895209789276,0.0225596148521,1.85443639755,,0.00109652912305,0.00561162190988,-0.0063168859114,0.999963701479
1576079507014487804,,,0,,1576079507,14419235,"""world""","""hoverOpti/base_link""",,,-0.895202040672,0.0225702412426,1.85443711281,,0.00111106618655,0.00558880988337,-0.00628960449984,0.999963985157
1576079507033541155,,,0,,1576079507,33472284,"""world""","""hoverOpti/base_link""",,,-0.895203769207,0.0225689522922,1.85443437099,,0.00100980793314,0.00561109750231,-0.00633956266142,0.999963652248
1576079507054144415,,,0,,1576079507,54059150,"""world""","""hoverOpti/base_link""",,,-0.895200788975,0.022571541369,1.85443806648,,0.00110242309324,0.00560890234235,-0.00634948254552,0.999963503809
1576079507073747266,,,0,,1576079507,73622027,"""world""","""hoverOpti/base_link""",,,-0.895201325417,0.0225744079798,1.85442781448,,0.00112924989399,0.00553169272198,-0.00629177671873,0.99996426872
1576079507093601202,,,0,,1576079507,93493418,"""world""","""hoverOpti/base_link""",,,-0.895201027393,0.0225738491863,1.85443508625,,0.00106484379456,0.00553136058637,-0.00630670335506,0.999964247186
1576079507113831668,,,0,,1576079507,113714102,"""world""","""hoverOpti/base_link""",,,-0.895209729671,0.0225727241486,1.85443198681,,0.00107191972944,0.00557402622555,-0.00638396062549,0.999963512468
1576079507133716047,,,0,,1576079507,133647425,"""world""","""hoverOpti/base_link""",,,-0.895209014416,0.0225698240101,1.85443270206,,0.00113921272182,0.00563330469265,-0.00634104883087,0.999963378916
1576079507156849197,,,0,,1576079507,156747757,"""world""","""hoverOpti/base_link""",,,-0.895221590996,0.0225745216012,1.85443770885,,0.00103670985015,0.0056354085604,-0.00629048594378,0.99996379794
1576079507175011608,,,0,,1576079507,174933930,"""world""","""hoverOpti/base_link""",,,-0.895227789879,0.0225791074336,1.85443425179,,0.000928537612816,0.00554511220727,-0.00650637911413,0.999963027606
1576079507193838508,,,0,,1576079507,193705868,"""world""","""hoverOpti/base_link""",,,-0.895211040974,0.0225774701685,1.85443031788,,0.00109667333473,0.00553227309552,-0.00630580581273,0.999964213397
1576079507214045671,,,0,,1576079507,213943911,"""world""","""hoverOpti/base_link""",,,-0.895213842392,0.0225766785443,1.85442948341,,0.00103307089301,0.00550009552446,-0.00630438192021,0.99996446761
1576079507234765388,,,0,,1576079507,234640406,"""world""","""hoverOpti/base_link""",,,-0.89524435997,0.0225851275027,1.85445535183,,0.000861814920979,0.0052577051962,-0.00615169329277,0.999966884692
1576079507253660703,,,0,,1576079507,253589880,"""world""","""hoverOpti/base_link""",,,-0.895210981369,0.0225768145174,1.85443150997,,0.00107921904184,0.00558497569239,-0.00635326931733,0.99996363899
1576079507273673746,,,0,,1576079507,273603880,"""world""","""hoverOpti/base_link""",,,-0.895204782486,0.0225647483021,1.85443615913,,0.000935690159936,0.00559619751733,-0.00630441429854,0.999964030062
1576079507294424732,,,0,,1576079507,294346335,"""world""","""hoverOpti/base_link""",,,-0.895203411579,0.0225739162415,1.85442841053,,0.00112015289964,0.00555709664467,-0.00633982438567,0.999963834627
1576079507313657349,,,0,,1576079507,313578775,"""world""","""hoverOpti/base_link""",,,-0.895204246044,0.0225775130093,1.85443305969,,0.00103747692217,0.00557655881556,-0.00632201780144,0.999963928212
1576079507333552288,,,0,,1576079507,333482694,"""world""","""hoverOpti/base_link""",,,-0.895203530788,0.0225731935352,1.85442447662,,0.00106908874084,0.00553619636565,-0.0063520670145,0.999963928761
1576079507353618741,,,0,,1576079507,353541878,"""world""","""hoverOpti/base_link""",,,-0.895206451416,0.0225627738982,1.85443150997,,0.00107616692772,0.00557188800429,-0.00629782830208,0.999964065998
1576079507373611344,,,0,,1576079507,373536344,"""world""","""hoverOpti/base_link""",,,-0.895199000835,0.0225671585649,1.85443544388,,0.000990080215917,0.0055981664938,-0.00620771939671,0.999964571619
1576079507393722954,,,0,,1576079507,393591723,"""world""","""hoverOpti/base_link""",,,-0.895205438137,0.0225741155446,1.85442888737,,0.00105977986865,0.00559464314715,-0.00620960706806,0.999964508178
1576079507414179733,,,0,,1576079507,414090257,"""world""","""hoverOpti/base_link""",,,-0.895213603973,0.0225706677884,1.85442960262,,0.00103994972824,0.00559019290397,-0.00635119559893,0.999963664621
1576079507433554439,,,0,,1576079507,433485003,"""world""","""hoverOpti/base_link""",,,-0.895204365253,0.0225797090679,1.85443329811,,0.00109006701077,0.00555512362069,-0.00630399492655,0.999964105358
1576079507453692765,,,0,,1576079507,453625830,"""world""","""hoverOpti/base_link""",,,-0.895209014416,0.0225632954389,1.85443711281,,0.00106894076389,0.00554798451242,-0.00641845160443,0.999963439688
1576079507474330560,,,0,,1576079507,474252811,"""world""","""hoverOpti/base_link""",,,-0.895214080811,0.022561121732,1.85444331169,,0.00107176158926,0.00559322253554,-0.00631955635092,0.999963814543
1576079507493621678,,,0,,1576079507,493537099,"""world""","""hoverOpti/base_link""",,,-0.895215451717,0.0225709881634,1.85443925858,,0.000936843803599,0.00557884166457,-0.00633444969905,0.999963936148
1576079507513526525,,,0,,1576079507,513430000,"""world""","""hoverOpti/base_link""",,,-0.895209431648,0.0225744396448,1.85443305969,,0.0010322972257,0.00555011188947,-0.00633181327052,0.999964018733
1576079507534009645,,,0,,1576079507,533703024,"""world""","""hoverOpti/base_link""",,,-0.895210385323,0.0225851107389,1.85443866253,,0.00102435186103,0.00555695607426,-0.00630176077066,0.999964178735
1576079507553857871,,,0,,1576079507,553753552,"""world""","""hoverOpti/base_link""",,,-0.895216524601,0.022589514032,1.85443472862,,0.000939978326511,0.0055953742777,-0.00641557282371,0.999963323654
1576079507573858773,,,0,,1576079507,573527880,"""world""","""hoverOpti/base_link""",,,-0.89520740509,0.0225723292679,1.85442864895,,0.00101730450834,0.00558232231273,-0.00633318151086,0.999963846137
1576079507594399114,,,0,,1576079507,594248384,"""world""","""hoverOpti/base_link""",,,-0.895207047462,0.0225762091577,1.85442948341,,0.00107837214675,0.00560532755604,-0.00642504790216,0.999963067406
1576079507613698562,,,0,,1576079507,613559468,"""world""","""hoverOpti/base_link""",,,-0.895210266113,0.0225695576519,1.85442709923,,0.00110674457001,0.00558268433767,-0.00630254821867,0.999963942669
1576079507634014969,,,0,,1576079507,633922968,"""world""","""hoverOpti/base_link""",,,-0.895208954811,0.0225856080651,1.85443150997,,0.00114904235763,0.00556276954312,-0.00633685457528,0.99996378913
1576079507653785221,,,0,,1576079507,653618246,"""world""","""hoverOpti/base_link""",,,-0.895206153393,0.0225760173053,1.85442996025,,0.000980277921938,0.00561007573287,-0.00642646231705,0.999963132664
1576079507673832140,,,0,,1576079507,673630767,"""world""","""hoverOpti/base_link""",,,-0.895204424858,0.0225745495409,1.85443925858,,0.00103129023653,0.00555809334157,-0.00623906846707,0.999964558404
1576079507693577316,,,0,,1576079507,693497877,"""world""","""hoverOpti/base_link""",,,-0.895195782185,0.0225745867938,1.85443794727,,0.00116864563755,0.00556190195939,-0.00629789961719,0.99996401734
1576079507713580220,,,0,,1576079507,713503606,"""world""","""hoverOpti/base_link""",,,-0.895211815834,0.0225906316191,1.85443103313,,0.00109862001671,0.00548678641493,-0.00638674531297,0.999963948197
1576079507733643298,,,0,,1576079507,733543648,"""world""","""hoverOpti/base_link""",,,-0.895203113556,0.022568365559,1.85442316532,,0.00107865294642,0.00562927547419,-0.00636405912433,0.999963322586
1576079507753536201,,,0,,1576079507,753469832,"""world""","""hoverOpti/base_link""",,,-0.895215690136,0.0225820019841,1.85441803932,,0.00110091473512,0.00563161375236,-0.00633399066321,0.999963476071
1576079507773602441,,,0,,1576079507,773531423,"""world""","""hoverOpti/base_link""",,,-0.895204126835,0.0225681401789,1.85443305969,,0.00103030336517,0.00555867857681,-0.00633639342012,0.999963944193
1576079507793557908,,,0,,1576079507,793472130,"""world""","""hoverOpti/base_link""",,,-0.895201146603,0.0225733779371,1.85443091393,,0.00106214890712,0.00556020928909,-0.00628961830671,0.999964197666
1576079507813562218,,,0,,1576079507,813494781,"""world""","""hoverOpti/base_link""",,,-0.895200252533,0.0225685499609,1.85443401337,,0.00102386148767,0.00556422690198,-0.00644158680495,0.999963247848
1576079507833878668,,,0,,1576079507,833770594,"""world""","""hoverOpti/base_link""",,,-0.895206272602,0.0225752927363,1.85443377495,,0.00103235566648,0.00554958988476,-0.00627548688522,0.999964376645
1576079507854218475,,,0,,1576079507,854151484,"""world""","""hoverOpti/base_link""",,,-0.895207941532,0.0225709099323,1.85443341732,,0.00101596348769,0.00561171857255,-0.00644401407461,0.999962974872
1576079507873600620,,,0,,1576079507,873533198,"""world""","""hoverOpti/base_link""",,,-0.895218372345,0.0225749630481,1.85443341732,,0.000992559088714,0.00556184328661,-0.00635627025778,0.999963838623
1576079507893509381,,,0,,1576079507,893444195,"""world""","""hoverOpti/base_link""",,,-0.895210027695,0.0225745812058,1.85442709923,,0.00111983022724,0.00564402958926,-0.00631267910968,0.999963519831
1576079507913939890,,,0,,1576079507,913862662,"""world""","""hoverOpti/base_link""",,,-0.8952216506,0.0225694794208,1.85442876816,,0.000995978851384,0.00558336976172,-0.00638315933843,0.999963543978
1576079507933515985,,,0,,1576079507,933444821,"""world""","""hoverOpti/base_link""",,,-0.895217478275,0.0225807297975,1.85443150997,,0.00110644166625,0.00561168250648,-0.00636978416803,0.999963354657
1576079507953749181,,,0,,1576079507,953675099,"""world""","""hoverOpti/base_link""",,,-0.895206511021,0.0225782450289,1.85442721844,,0.00105298077618,0.00556990503896,-0.00627638492318,0.999964236551
1576079507973819384,,,0,,1576079507,973748333,"""world""","""hoverOpti/base_link""",,,-0.895211577415,0.0225696340203,1.85442304611,,0.00113289249668,0.00557023767351,-0.00636546510373,0.999963584267
1576079507993576653,,,0,,1576079507,993496598,"""world""","""hoverOpti/base_link""",,,-0.895207822323,0.0225740596652,1.85442686081,,0.00105824733067,0.00557457662536,-0.00636739843816,0.999963629561
1576079508013579416,,,0,,1576079508,13502572,"""world""","""hoverOpti/base_link""",,,-0.8952023983,0.0225739125162,1.85443425179,,0.00107160875666,0.00551416173789,-0.00635759401587,0.999964012689
1576079508034004628,,,0,,1576079508,33936535,"""world""","""hoverOpti/base_link""",,,-0.895213961601,0.0225682463497,1.85442399979,,0.00102071512351,0.00565249417929,-0.00629918402316,0.999963663205
1576079508053503223,,,0,,1576079508,53436458,"""world""","""hoverOpti/base_link""",,,-0.895216703415,0.0225946623832,1.85442960262,,0.00113043880622,0.00557552988976,-0.00629602101282,0.999963997199
1576079508073520214,,,0,,1576079508,73420343,"""world""","""hoverOpti/base_link""",,,-0.895206809044,0.0225784182549,1.85442638397,,0.001102703108,0.00552873335019,-0.00631124264923,0.999964192044
1576079508093596933,,,0,,1576079508,93496842,"""world""","""hoverOpti/base_link""",,,-0.895092785358,0.0225367862731,1.8545011282,,0.00136993529958,0.00643639385332,-0.00618857078689,0.999959198019
1576079508114248039,,,0,,1576079508,114103746,"""world""","""hoverOpti/base_link""",,,-0.895211815834,0.0225731376559,1.85442352295,,0.000981646399339,0.0056318673706,-0.0063298265323,0.999963625207
1576079508134133007,,,0,,1576079508,134055180,"""world""","""hoverOpti/base_link""",,,-0.895209729671,0.0225772615522,1.85442209244,,0.00100870980365,0.00563158371166,-0.00641203335733,0.999963076117
1576079508153680693,,,0,,1576079508,153565541,"""world""","""hoverOpti/base_link""",,,-0.89524012804,0.0225924383849,1.85444712639,,0.000877303493453,0.00527721372881,-0.00613409803268,0.999966876549
1576079508173560636,,,0,,1576079508,173472647,"""world""","""hoverOpti/base_link""",,,-0.895207345486,0.0225731413811,1.85443413258,,0.00101453470066,0.00554698780983,-0.0063550153568,0.999963907061
1576079508194393317,,,0,,1576079508,194293291,"""world""","""hoverOpti/base_link""",,,-0.895215451717,0.022576674819,1.85442280769,,0.000954032188557,0.0055693109257,-0.00641268685707,0.999963474356
1576079508216198781,,,0,,1576079508,216112530,"""world""","""hoverOpti/base_link""",,,-0.895208895206,0.0225732531399,1.85442101955,,0.00101275131665,0.00555670839149,-0.00637766174967,0.99996371072
1576079508233599610,,,0,,1576079508,233528063,"""world""","""hoverOpti/base_link""",,,-0.89520329237,0.022571420297,1.85443246365,,0.000991203295322,0.00558319746496,-0.00645282172795,0.999963102576
1576079508253672074,,,0,,1576079508,253601843,"""world""","""hoverOpti/base_link""",,,-0.895201325417,0.0225703660399,1.85443508625,,0.000978551582123,0.00549002835513,-0.00630006247077,0.999964604993
1576079508274081006,,,0,,1576079508,274014983,"""world""","""hoverOpti/base_link""",,,-0.89520329237,0.0225615799427,1.8544293642,,0.000972836529044,0.00554946707206,-0.00628546980778,0.999964374302
1576079508293692843,,,0,,1576079508,293624041,"""world""","""hoverOpti/base_link""",,,-0.895203232765,0.0225646607578,1.85443639755,,0.0010267721483,0.00555230465355,-0.00632235984143,0.999964072064
1576079508313738030,,,0,,1576079508,313625621,"""world""","""hoverOpti/base_link""",,,-0.895210564137,0.0225740261376,1.85443437099,,0.00101602697714,0.00562139181438,-0.00636301788898,0.999963439155
1576079508333634692,,,0,,1576079508,333550686,"""world""","""hoverOpti/base_link""",,,-0.895201385021,0.0225661899894,1.85444164276,,0.000956796401594,0.00557418786118,-0.00631628846157,0.999964058089
1576079508353687143,,,0,,1576079508,353616251,"""world""","""hoverOpti/base_link""",,,-0.895202100277,0.022573120892,1.85443997383,,0.000953127829329,0.00556103306801,-0.0063150904712,0.999964142403
1576079508373563850,,,0,,1576079508,373486050,"""world""","""hoverOpti/base_link""",,,-0.895212769508,0.0225762743503,1.85443222523,,0.00104671187852,0.00558048460216,-0.0064256597985,0.999963236065
1576079508393795785,,,0,,1576079508,393654717,"""world""","""hoverOpti/base_link""",,,-0.895214021206,0.0225720852613,1.85442709923,,0.000926060153623,0.00561721365248,-0.00628017140693,0.99996407374
1576079508413962808,,,0,,1576079508,413888501,"""world""","""hoverOpti/base_link""",,,-0.895208179951,0.0225800573826,1.85442757607,,0.000969322560688,0.00555283163365,-0.00630689366519,0.999964224144
1576079508433667282,,,0,,1576079508,433596716,"""world""","""hoverOpti/base_link""",,,-0.895197272301,0.0225742887706,1.85443329811,,0.00110528639831,0.00556718224304,-0.00630037896814,0.999964044378
1576079508453659547,,,0,,1576079508,453576778,"""world""","""hoverOpti/base_link""",,,-0.895200967789,0.0225620511919,1.85444033146,,0.000996980654911,0.00558066389592,-0.00627352967607,0.999964251884
1576079508473518961,,,0,,1576079508,473445398,"""world""","""hoverOpti/base_link""",,,-0.895197749138,0.0225673224777,1.85443615913,,0.000993950107805,0.00558524726724,-0.00626420605756,0.999964287762
1576079508493826322,,,0,,1576079508,493758414,"""world""","""hoverOpti/base_link""",,,-0.895204424858,0.022574275732,1.85442399979,,0.00106789754666,0.00558169703012,-0.00631878530305,0.999963887951
1576079508513511867,,,0,,1576079508,513410511,"""world""","""hoverOpti/base_link""",,,-0.895192563534,0.0225604157895,1.85443043709,,0.00103281445448,0.00554071947768,-0.00631236955689,0.999964193215
1576079508533523794,,,0,,1576079508,533440937,"""world""","""hoverOpti/base_link""",,,-0.895206093788,0.0225823111832,1.85442793369,,0.000997861197109,0.00556813794374,-0.00645657538148,0.999963155695
1576079508553664303,,,0,,1576079508,553595343,"""world""","""hoverOpti/base_link""",,,-0.895201265812,0.0225763935596,1.85442912579,,0.00104413574981,0.00554849194783,-0.00626234556277,0.999964452891
1576079508574029184,,,0,,1576079508,573824498,"""world""","""hoverOpti/base_link""",,,-0.895191371441,0.0225749202073,1.85442006588,,0.00109304402926,0.00561885705075,-0.0063909821152,0.999963193847
1576079508593599858,,,0,,1576079508,593499319,"""world""","""hoverOpti/base_link""",,,-0.895204007626,0.0225676614791,1.85442245007,,0.000980356907049,0.00560133791688,-0.00633181656203,0.999963785351
1576079508613642541,,,0,,1576079508,613541398,"""world""","""hoverOpti/base_link""",,,-0.895198643208,0.022567877546,1.85443127155,,0.00109000870367,0.00559757618165,-0.00639568326127,0.999963286455
1576079508633651743,,,0,,1576079508,633541105,"""world""","""hoverOpti/base_link""",,,-0.89520573616,0.0225689280778,1.85443747044,,0.000997524888269,0.00554330198404,-0.00634547522059,0.999964005198
1576079508654633200,,,0,,1576079508,654539967,"""world""","""hoverOpti/base_link""",,,-0.895198941231,0.0225665848702,1.85443425179,,0.00103476594972,0.00557485258477,-0.0062969917131,0.999964098442
1576079508673818724,,,0,,1576079508,673704743,"""world""","""hoverOpti/base_link""",,,-0.895211875439,0.022571625188,1.85442912579,,0.00109753562155,0.00557129177574,-0.00642167256771,0.999963258448
1576079508694419062,,,0,,1576079508,694309586,"""world""","""hoverOpti/base_link""",,,-0.895212888718,0.022569866851,1.85443282127,,0.00115128269578,0.00554315366822,-0.00634505259621,0.999963843498
1576079508713781594,,,0,,1576079508,713692991,"""world""","""hoverOpti/base_link""",,,-0.895203173161,0.0225597321987,1.85443377495,,0.00105621197624,0.00551492801283,-0.00632774070245,0.999964214201
1576079508733549551,,,0,,1576079508,733447902,"""world""","""hoverOpti/base_link""",,,-0.895207643509,0.0225636716932,1.85443294048,,0.00110482961102,0.00554710771795,-0.00638942007716,0.999963591466
1576079508754287821,,,0,,1576079508,754213265,"""world""","""hoverOpti/base_link""",,,-0.895203948021,0.0225698761642,1.85442590714,,0.00109334715227,0.00562470144977,-0.0063983273246,0.999963113686
1576079508773522212,,,0,,1576079508,773451709,"""world""","""hoverOpti/base_link""",,,-0.895213901997,0.0225691087544,1.85442781448,,0.00108345372977,0.00560106363907,-0.00638105185577,0.999963367525
1576079508793496385,,,0,,1576079508,793403071,"""world""","""hoverOpti/base_link""",,,-0.895187914371,0.0225637611002,1.85442864895,,0.00117123904597,0.00557395897704,-0.00634009331675,0.999963680539
1576079508814118918,,,0,,1576079508,814035868,"""world""","""hoverOpti/base_link""",,,-0.895200431347,0.0225570444018,1.85443150997,,0.00107331368255,0.0055874167605,-0.00632563653052,0.999963806892
1576079508833692566,,,0,,1576079508,833605783,"""world""","""hoverOpti/base_link""",,,-0.89519906044,0.0225679334253,1.85443556309,,0.00112861953764,0.00555906015355,-0.00632683914584,0.999963896436
1576079508854388970,,,0,,1576079508,854302599,"""world""","""hoverOpti/base_link""",,,-0.895196437836,0.022554943338,1.854429245,,0.00108586352835,0.00558943981019,-0.00634380548217,0.999963666937
1576079508873563227,,,0,,1576079508,873474209,"""world""","""hoverOpti/base_link""",,,-0.895195662975,0.0225547309965,1.85443890095,,0.00100181124137,0.00561758040068,-0.00634555987012,0.999963585854
1576079508893539108,,,0,,1576079508,893470622,"""world""","""hoverOpti/base_link""",,,-0.895206928253,0.0225563570857,1.85444152355,,0.000973374194444,0.00560684712412,-0.00632889776189,0.999963779775
1576079508913599801,,,0,,1576079508,913531706,"""world""","""hoverOpti/base_link""",,,-0.895204603672,0.0225682351738,1.85443019867,,0.00105826280063,0.00553733078391,-0.00629998946329,0.999964263452
1576079508933502318,,,0,,1576079508,933438015,"""world""","""hoverOpti/base_link""",,,-0.895195305347,0.0225620362908,1.8544369936,,0.00109144211574,0.00560339736327,-0.00626933393864,0.999964052426
1576079508953996061,,,0,,1576079508,953911487,"""world""","""hoverOpti/base_link""",,,-0.895205795765,0.0225576590747,1.85443592072,,0.0010663344668,0.00552589405463,-0.00633393553768,0.999964103699
1576079508974041724,,,0,,1576079508,973961956,"""world""","""hoverOpti/base_link""",,,-0.895198404789,0.0225615277886,1.85443305969,,0.00105092389151,0.00550249932868,-0.00629757681623,0.999964478662
1576079508993788195,,,0,,1576079508,993668637,"""world""","""hoverOpti/base_link""",,,-0.895208716393,0.0225659422576,1.85442245007,,0.00105344112458,0.00556633861275,-0.00636602380686,0.999963689279
1576079509020166797,,,0,,1576079509,14922168,"""world""","""hoverOpti/base_link""",,,-0.89520329237,0.0225571803749,1.85443210602,,0.000965475705048,0.00556048215621,-0.00630523703956,0.999964195799
1576079509035693499,,,0,,1576079509,35296217,"""world""","""hoverOpti/base_link""",,,-0.895205497742,0.0225527957082,1.85443401337,,0.00101599091869,0.00559244461529,-0.00634635485611,0.999963707394
1576079509053552819,,,0,,1576079509,53426729,"""world""","""hoverOpti/base_link""",,,-0.895195662975,0.0225602686405,1.85443937778,,0.0010089373631,0.00548007057088,-0.00626842627876,0.999964828233
1576079509074525000,,,0,,1576079509,74406532,"""world""","""hoverOpti/base_link""",,,-0.895205080509,0.0225702952594,1.85443592072,,0.00109950721961,0.00551196321466,-0.00636253538438,0.999963963095
1576079509094183787,,,0,,1576079509,94088763,"""world""","""hoverOpti/base_link""",,,-0.895108819008,0.0225361064076,1.85450088978,,0.00129753309387,0.00640117901797,-0.00595054743834,0.999960965388
1576079509113757190,,,0,,1576079509,113670580,"""world""","""hoverOpti/base_link""",,,-0.895206391811,0.0225700475276,1.85443115234,,0.00103813424088,0.00554588575266,-0.00630427562926,0.999964210128
1576079509133696108,,,0,,1576079509,133619860,"""world""","""hoverOpti/base_link""",,,-0.895212292671,0.0225719604641,1.85444140434,,0.00107297948745,0.00559744122384,-0.00631191508605,0.999963837894
1576079509155116889,,,0,,1576079509,155016126,"""world""","""hoverOpti/base_link""",,,-0.895215332508,0.0225653331727,1.85442984104,,0.00105479956595,0.00557372907538,-0.00630418487031,0.999964038451
1576079509173593813,,,0,,1576079509,173491357,"""world""","""hoverOpti/base_link""",,,-0.895204365253,0.0225706901401,1.85443556309,,0.001045178753,0.00552059065802,-0.00634702210788,0.99996407235
1576079509194261006,,,0,,1576079509,194162430,"""world""","""hoverOpti/base_link""",,,-0.895214438438,0.0225826818496,1.85442745686,,0.00108447501446,0.00561934396422,-0.00634054242758,0.999963521539
1576079509213546110,,,0,,1576079509,213450988,"""world""","""hoverOpti/base_link""",,,-0.895216047764,0.0225746482611,1.8544318676,,0.00104996966786,0.00558060067475,-0.00639369275915,0.999963436908
1576079509234134595,,,0,,1576079509,234035015,"""world""","""hoverOpti/base_link""",,,-0.89520573616,0.0225721877068,1.85443711281,,0.000930378677087,0.00554654804427,-0.00639207014359,0.999963755163
1576079509253657342,,,0,,1576079509,253552612,"""world""","""hoverOpti/base_link""",,,-0.895202040672,0.0225673075765,1.85444390774,,0.00105827033831,0.00556887080079,-0.00630496441396,0.999964056937
1576079509273578595,,,0,,1576079509,273486377,"""world""","""hoverOpti/base_link""",,,-0.895215988159,0.0225710663944,1.85443603992,,0.00104687496687,0.00559026716324,-0.00629666458592,0.999964001843
1576079509293589399,,,0,,1576079509,293497036,"""world""","""hoverOpti/base_link""",,,-0.895213127136,0.0225677378476,1.85442841053,,0.00109394325665,0.00557112415691,-0.00634343178562,0.999963762712
1576079509313793607,,,0,,1576079509,313693655,"""world""","""hoverOpti/base_link""",,,-0.895199120045,0.0225687306374,1.85444140434,,0.0011377040943,0.00554478014894,-0.0063255255388,0.999963973736
1576079509333832410,,,0,,1576079509,333714665,"""world""","""hoverOpti/base_link""",,,-0.895207047462,0.0225590150803,1.85443687439,,0.00100436143635,0.00556301747557,-0.00631787724363,0.999964063615
1576079509354146395,,,0,,1576079509,354039818,"""world""","""hoverOpti/base_link""",,,-0.895202755928,0.0225639548153,1.85443425179,,0.00105604434296,0.0055214146994,-0.00637771503384,0.999963861097
1576079509373598588,,,0,,1576079509,373509012,"""world""","""hoverOpti/base_link""",,,-0.895207703114,0.0225708987564,1.854424119,,0.00114049342321,0.00559359504245,-0.0062794000252,0.999963989404
1576079509393589244,,,0,,1576079509,393493093,"""world""","""hoverOpti/base_link""",,,-0.895201265812,0.022569630295,1.85443258286,,0.00115307433349,0.00557504078254,-0.00628751738886,0.999964027585
1576079509413559640,,,0,,1576079509,413457809,"""world""","""hoverOpti/base_link""",,,-0.895202100277,0.0225596372038,1.85443067551,,0.00102177360862,0.00558245474029,-0.00627048368592,0.999964235967
1576079509433786076,,,0,,1576079509,433466024,"""world""","""hoverOpti/base_link""",,,-0.895206272602,0.0225774887949,1.85443973541,,0.00104903941626,0.00554563522362,-0.00627996537614,0.999964353105
1576079509453661374,,,0,,1576079509,453548849,"""world""","""hoverOpti/base_link""",,,-0.895208895206,0.0225724987686,1.85442876816,,0.00108742343248,0.00555591235195,-0.00625914697979,0.999964385579
1576079509473838651,,,0,,1576079509,473666965,"""world""","""hoverOpti/base_link""",,,-0.895218372345,0.0225685406476,1.85442268848,,0.000876407247182,0.00552266551579,-0.00634627177935,0.999964227815
1576079509494186460,,,0,,1576079509,493619407,"""world""","""hoverOpti/base_link""",,,-0.895211160183,0.0225687734783,1.8544242382,,0.00103373431307,0.0055319630449,-0.00633879667453,0.999964073572
1576079509514393402,,,0,,1576079509,514284111,"""world""","""hoverOpti/base_link""",,,-0.895213901997,0.0225774776191,1.85441863537,,0.00107636576348,0.00556854547942,-0.00629152091086,0.999964124108
1576079509533621964,,,0,,1576079509,533507745,"""world""","""hoverOpti/base_link""",,,-0.895199716091,0.0225720461458,1.85442602634,,0.00113794277577,0.00550750830029,-0.00635380438463,0.999964000156
1576079509553547128,,,0,,1576079509,553453075,"""world""","""hoverOpti/base_link""",,,-0.895205080509,0.0225677657872,1.85443329811,,0.00102595937339,0.0054891732901,-0.00635301315361,0.999964227164
1576079509573617466,,,0,,1576079509,573526831,"""world""","""hoverOpti/base_link""",,,-0.895212233067,0.0225692540407,1.85443139076,,0.00106842812144,0.00555697017496,-0.00634727698,0.999963844656
1576079509593748993,,,0,,1576079509,593654282,"""world""","""hoverOpti/base_link""",,,-0.895211517811,0.02257883735,1.8544305563,,0.00105788175394,0.00552055928382,-0.00641915835107,0.999963598696
1576079509614401445,,,0,,1576079509,614237632,"""world""","""hoverOpti/base_link""",,,-0.895219147205,0.0225870124996,1.85442876816,,0.00101583226082,0.00554162243348,-0.00649012740881,0.999963067694
1576079509633619593,,,0,,1576079509,633503590,"""world""","""hoverOpti/base_link""",,,-0.895218729973,0.022580139339,1.85443174839,,0.00106720219487,0.00556117578671,-0.00642150969978,0.999963348637
1576079509653531661,,,0,,1576079509,653438281,"""world""","""hoverOpti/base_link""",,,-0.895208358765,0.0225669238716,1.85443413258,,0.00108419143222,0.005602595554,-0.00633581366949,0.999963645798
1576079509673597972,,,0,,1576079509,673502347,"""world""","""hoverOpti/base_link""",,,-0.895211279392,0.0225698780268,1.85442876816,,0.00103751376372,0.00558358717269,-0.00634409395737,0.999963749139
1576079509693778979,,,0,,1576079509,693652428,"""world""","""hoverOpti/base_link""",,,-0.895214617252,0.0225829854608,1.85442829132,,0.00102290023654,0.00558022091719,-0.00633599664791,0.999963834324
1576079509713557630,,,0,,1576079509,713451220,"""world""","""hoverOpti/base_link""",,,-0.895209372044,0.0225785840303,1.85442745686,,0.00112606396526,0.00559172023166,-0.00630427325671,0.999963859739
1576079509733789110,,,0,,1576079509,733590957,"""world""","""hoverOpti/base_link""",,,-0.895199477673,0.0225704107434,1.8544318676,,0.0011140305144,0.00558948240334,-0.00625123966062,0.999964218672
1576079509753888464,,,0,,1576079509,753772152,"""world""","""hoverOpti/base_link""",,,-0.895205795765,0.0225549563766,1.8544305563,,0.00107844939095,0.00557280594945,-0.00634019011712,0.999963790729
1576079509773628929,,,0,,1576079509,773509237,"""world""","""hoverOpti/base_link""",,,-0.895206093788,0.0225714426488,1.85443305969,,0.00100151100605,0.00559646172872,-0.00642949531617,0.999963168413
1576079509793579996,,,0,,1576079509,793467100,"""world""","""hoverOpti/base_link""",,,-0.895214140415,0.022573037073,1.85443067551,,0.00104570424795,0.00565868854761,-0.00625337340789,0.999963889882
1576079509814012664,,,0,,1576079509,813834399,"""world""","""hoverOpti/base_link""",,,-0.895210146904,0.0225774366409,1.85443496704,,0.00108945790845,0.00558786184587,-0.00623955150033,0.999964327803
1576079509833917553,,,0,,1576079509,833804297,"""world""","""hoverOpti/base_link""",,,-0.895210206509,0.022566922009,1.85443651676,,0.00102904418698,0.00559047795498,-0.00629429140408,0.999964034113
1576079509854451520,,,0,,1576079509,854241050,"""world""","""hoverOpti/base_link""",,,-0.895213603973,0.0225619915873,1.85443282127,,0.00102532857857,0.00560750356604,-0.00622910825864,0.999964350772
1576079509873641922,,,0,,1576079509,873540574,"""world""","""hoverOpti/base_link""",,,-0.895211219788,0.0225739572197,1.85443544388,,0.00114598921274,0.00557537015836,-0.00631253614417,0.999963876269
1576079509893598163,,,0,,1576079509,893486685,"""world""","""hoverOpti/base_link""",,,-0.895213067532,0.0225693900138,1.8544293642,,0.00107853389515,0.0055358533307,-0.00632747981449,0.999964076401
1576079509913627672,,,0,,1576079509,913529829,"""world""","""hoverOpti/base_link""",,,-0.895212352276,0.0225813072175,1.85443341732,,0.000966960785245,0.00557500070584,-0.00635354818446,0.999963807735
1576079509933593767,,,0,,1576079509,933429832,"""world""","""hoverOpti/base_link""",,,-0.895200669765,0.0225852280855,1.85443484783,,0.00106732768252,0.00554778146345,-0.00629375501169,0.999964235151
1576079509954076150,,,0,,1576079509,953953911,"""world""","""hoverOpti/base_link""",,,-0.895205497742,0.0225836616009,1.85442459583,,0.00113152754257,0.00557081190997,-0.00632547978901,0.999963836349
1576079509973882975,,,0,,1576079509,973752034,"""world""","""hoverOpti/base_link""",,,-0.895207226276,0.0225674826652,1.854429245,,0.00101964688121,0.0056081544714,-0.00628540014175,0.999964000686
1576079509994558967,,,0,,1576079509,994447430,"""world""","""hoverOpti/base_link""",,,-0.895206987858,0.0225767772645,1.85444068909,,0.00101521329276,0.00554527840666,-0.00632708410727,0.999964092973
1576079510013548225,,,0,,1576079510,13440791,"""world""","""hoverOpti/base_link""",,,-0.89519995451,0.0225722044706,1.85442471504,,0.00113689012242,0.00554857297971,-0.00629343637696,0.999964156096
1576079510034079303,,,0,,1576079510,33897915,"""world""","""hoverOpti/base_link""",,,-0.895106613636,0.0225439816713,1.85450196266,,0.00141952973391,0.00641734549269,-0.00604185952704,0.999960148479
1576079510053827745,,,0,,1576079510,53522530,"""world""","""hoverOpti/base_link""",,,-0.895208358765,0.0225892663002,1.85442996025,,0.000945847046123,0.00558455551326,-0.00625650147139,0.999964386517
1576079510074074956,,,0,,1576079510,73757101,"""world""","""hoverOpti/base_link""",,,-0.895208358765,0.0225867517292,1.85442602634,,0.00103429534044,0.00560254048716,-0.00630041582941,0.999963922616
1576079510093600892,,,0,,1576079510,93476732,"""world""","""hoverOpti/base_link""",,,-0.895202219486,0.0225730743259,1.85442531109,,0.00093972661448,0.00564609536827,-0.00638405252724,0.999963240522
1576079510113475531,,,0,,1576079510,113365045,"""world""","""hoverOpti/base_link""",,,-0.895203232765,0.0225693881512,1.85443377495,,0.00097517774486,0.00560076643952,-0.00633624953178,0.999963765536
1576079510133630615,,,0,,1576079510,133482997,"""world""","""hoverOpti/base_link""",,,-0.895211458206,0.0225774217397,1.85443162918,,0.000983962643589,0.00560264552165,-0.00629153270247,0.999964028751
1576079510153629708,,,0,,1576079510,153469969,"""world""","""hoverOpti/base_link""",,,-0.895214796066,0.0225768368691,1.85443484783,,0.000980890450389,0.00560677318348,-0.00630612284683,0.999963916731
1576079510174061225,,,0,,1576079510,173675956,"""world""","""hoverOpti/base_link""",,,-0.895199358463,0.0225776918232,1.85443508625,,0.000976454276231,0.00556058720491,-0.00630889272976,0.999964161498
1576079510193533506,,,0,,1576079510,193428194,"""world""","""hoverOpti/base_link""",,,-0.895213127136,0.02257601358,1.85443210602,,0.000972508398951,0.00553539490927,-0.00643113444626,0.999963526405
1576079510214015787,,,0,,1576079510,213903134,"""world""","""hoverOpti/base_link""",,,-0.895209372044,0.0225668046623,1.854424119,,0.00110245686037,0.00557688863082,-0.00636730856249,0.999963569478
1576079510233690433,,,0,,1576079510,233581931,"""world""","""hoverOpti/base_link""",,,-0.895214438438,0.022573934868,1.85443365574,,0.000991079343037,0.0055285145652,-0.00637467837395,0.999963907731
1576079510253638994,,,0,,1576079510,253564084,"""world""","""hoverOpti/base_link""",,,-0.895217657089,0.0225797146559,1.8544267416,,0.00104822930421,0.00555183748373,-0.00630914803672,0.99996413584
1576079510273477337,,,0,,1576079510,273381655,"""world""","""hoverOpti/base_link""",,,-0.895211935043,0.0225783195347,1.85442817211,,0.00105057528491,0.00553169705692,-0.00643231811534,0.999963460284
1576079510293445078,,,0,,1576079510,293337024,"""world""","""hoverOpti/base_link""",,,-0.895212054253,0.0225797574967,1.85441935062,,0.00120603136082,0.00556100505861,-0.00636802536764,0.999963533817
1576079510313867184,,,0,,1576079510,313753633,"""world""","""hoverOpti/base_link""",,,-0.895207107067,0.0225673317909,1.85442638397,,0.00105534819513,0.0055956076633,-0.00634813539304,0.999963637635
1576079510334204731,,,0,,1576079510,334111641,"""world""","""hoverOpti/base_link""",,,-0.895212471485,0.0225830748677,1.85442841053,,0.00106603862455,0.00562226729269,-0.00631175613265,0.999963707045
1576079510353588767,,,0,,1576079510,353500036,"""world""","""hoverOpti/base_link""",,,-0.895214378834,0.0225706975907,1.85442614555,,0.00111607854787,0.00557988214176,-0.00646709352857,0.999962897304
1576079510374228106,,,0,,1576079510,374122905,"""world""","""hoverOpti/base_link""",,,-0.895214736462,0.0225742254406,1.85442662239,,0.00119172595454,0.00554073322624,-0.00639019580627,0.999963522066
1576079510393742361,,,0,,1576079510,393559710,"""world""","""hoverOpti/base_link""",,,-0.895216286182,0.0225728861988,1.85442447662,,0.00104144923319,0.00555839050801,-0.00635802312084,0.999963796955
1576079510413511066,,,0,,1576079510,413405832,"""world""","""hoverOpti/base_link""",,,-0.895218372345,0.0225710961968,1.85443592072,,0.00107116436048,0.00552890204541,-0.00630347183749,0.999964274408
1576079510434962463,,,0,,1576079510,434842107,"""world""","""hoverOpti/base_link""",,,-0.895212769508,0.0225818827748,1.85443258286,,0.00113807019317,0.00557730133293,-0.0063289289052,0.999963770926
1576079510453996415,,,0,,1576079510,453847166,"""world""","""hoverOpti/base_link""",,,-0.895215213299,0.0225720070302,1.85442852974,,0.00109758140264,0.005545827707,-0.00633681156569,0.999963941315
1576079510473911086,,,0,,1576079510,473757912,"""world""","""hoverOpti/base_link""",,,-0.895224988461,0.0225675348192,1.85442972183,,0.00102083489265,0.00560407011824,-0.00635591239355,0.999963576673
1576079510493914862,,,0,,1576079510,493576344,"""world""","""hoverOpti/base_link""",,,-0.895218729973,0.0225735269487,1.85443603992,,0.00110694682187,0.00555272761034,-0.00628561419963,0.999964215829
1576079510513914883,,,0,,1576079510,513747321,"""world""","""hoverOpti/base_link""",,,-0.895223796368,0.0225809924304,1.85442769527,,0.00104725155096,0.00553521518916,-0.00633858189791,0.999964042872
1576079510534183293,,,0,,1576079510,533842718,"""world""","""hoverOpti/base_link""",,,-0.895216107368,0.022578349337,1.85444116592,,0.0010401852652,0.00554762649762,-0.0062328703183,0.999964645966
1576079510553757954,,,0,,1576079510,553593349,"""world""","""hoverOpti/base_link""",,,-0.895221412182,0.0225714314729,1.85443782806,,0.000953705465171,0.00554511340751,-0.00630349353078,0.999964303429
1576079510578351013,,,0,,1576079510,578246275,"""world""","""hoverOpti/base_link""",,,-0.895209729671,0.0225650779903,1.85442698002,,0.00114957507173,0.00557846045376,-0.00635149308983,0.999963608234
1576079510593498617,,,0,,1576079510,593400206,"""world""","""hoverOpti/base_link""",,,-0.895223021507,0.0225672647357,1.85443711281,,0.00106526333586,0.00561461792367,-0.00637732775397,0.999963334813
1576079510613787247,,,0,,1576079510,613638874,"""world""","""hoverOpti/base_link""",,,-0.895209908485,0.0225689969957,1.854429245,,0.00115496038852,0.00556346552135,-0.00638348062881,0.99996348188
1576079510634087941,,,0,,1576079510,633741763,"""world""","""hoverOpti/base_link""",,,-0.895220041275,0.0225730855018,1.85443246365,,0.00112567589333,0.00559204450112,-0.006378209685,0.999963389496
1576079510654643528,,,0,,1576079510,654518248,"""world""","""hoverOpti/base_link""",,,-0.895217657089,0.0225731451064,1.85443031788,,0.00112089581805,0.00555772693099,-0.00623161889077,0.999964510465
1576079510673652476,,,0,,1576079510,673523918,"""world""","""hoverOpti/base_link""",,,-0.895216166973,0.0225730501115,1.85443019867,,0.00103048205871,0.00558321052187,-0.00630592517942,0.999963999939
1576079510694056277,,,0,,1576079510,693955642,"""world""","""hoverOpti/base_link""",,,-0.895217835903,0.0225693844259,1.85443544388,,0.000976346645704,0.0055323488792,-0.00626821244148,0.99996457406
1576079510713596809,,,0,,1576079510,713505582,"""world""","""hoverOpti/base_link""",,,-0.89520663023,0.0225756950676,1.85443544388,,0.00100328592482,0.00553243806172,-0.00631769940614,0.999964235471
1576079510734080074,,,0,,1576079510,733951069,"""world""","""hoverOpti/base_link""",,,-0.895108997822,0.0225390903652,1.85450816154,,0.0012978818983,0.00638608565829,-0.00605282958161,0.999960447551
